"ID","Name","Address","Latitude","Longitude","Line","Station","Walk","Budget","Pref","ScoreN","Score"
"e539604","居酒屋 龍記 京橋店","〒104-0031 東京都中央区京橋3-3-13 平和ビル3号館2F",35.675639,139.768106,"地下鉄有楽町線","銀座一丁目駅","3",3000,"東京都",0,NA
"gfeb600","本格上海料理 新錦江 上野御徒町本店","〒110-0005 東京都台東区上野5-15-17 ソルマーレビル",35.70516,139.775679,"地下鉄日比谷線","仲御徒町駅","1",2000,"東京都",2,4.5
"ggt5900","食べ飲み放題×中華ビストロ NOZOMI（のぞみ）","〒125-0041 東京都葛飾区東金町1-44-5 1F",35.770366,139.872101,"ＪＲ常磐線","金町駅","2",2980,"東京都",0,NA
"g181340","博多餃子軒 八王子店 タピオカ店 Bull Pulu（ブルプル）併設","〒192-0904 東京都八王子市子安町4-7-1 サザンスカイタワー八王寺3F",35.654648,139.337483,"ＪＲ","八王子駅","1",2000,"東京都",0,NA
"ggww100","まさ屋 渋谷店","〒150-0042 東京都渋谷区宇田川町11-1 松沼ビル2F",35.662647,139.697296,"地下鉄半蔵門線","渋谷駅","7",380,"東京都",0,NA
"gdzk500","完全個室 上海レストラン 檸檬 霞ヶ関ビル内店","〒100-0013 東京都千代田区霞が関3-2-5 霞が関ビル106",35.67144,139.747543,"地下鉄銀座線","虎ノ門駅","3",2980,"東京都",0,NA
"ga2g202","鶏そば きらり","〒176-0006 東京都練馬区栄町3-5 三木家ビル1F",35.737104,139.671286,"西武池袋線","江古田駅","2",850,"東京都",0,NA
"gg9m100","宴会個室×餃子酒場 北京飯店 秋葉原本店","〒101-0021 東京都千代田区外神田4-4-7 MTビルB1",35.701294,139.772105,"ＪＲ","秋葉原駅","4",2000,"東京都",3,3.33333333333333
"gdvk200","中国料理 宝龍","〒100-0006 東京都千代田区有楽町2-9-16",35.675093,139.763669,"ＪＲ","有楽町駅","1",1000,"東京都",2,2.5
"gggb200","中国料理 天安門","〒114-0002 東京都北区王子1-17-1",35.754986,139.73796,"地下鉄南北線","王子駅","2",2000,"東京都",0,NA
"a321508","麺達 うま家","〒169-0075 東京都新宿区高田馬場3-1-2 1F",35.714075,139.703884,"ＪＲ","高田馬場駅","1",800,"東京都",2,3
"ggwj600","中華食堂 一番館 大森駅前店","〒143-0016 東京都大田区大森北1-4-1 桂昇大森駅前ビルB1",35.588015,139.728667,"ＪＲ京浜東北線","大森駅","1",1000,"東京都",0,NA
"g314424","刀削麺・火鍋・西安料理 XI’AN（シーアン） 後楽園店","〒112-0002 東京都文京区小石川2-1-2 第11山京ビル1F",35.708717,139.751389,"地下鉄丸ノ内線","後楽園駅","1",3000,"東京都",1,NA
"a321510","吟風 赤羽店","〒115-0045 東京都北区赤羽2-4-11",35.779364,139.724357,"ＪＲ","赤羽駅","5",650,"東京都",0,NA
"a321507","吟太","〒144-0051 東京都大田区西蒲田7-1-8",35.563567,139.716061,"ＪＲ京浜東北線","蒲田駅","2",650,"東京都",0,NA
"p645304","からあげバル ハイカラ 新小岩店","〒124-0023 東京都葛飾区東新小岩1-2-14",35.718283,139.858241,"ＪＲ総武線","新小岩駅","1",3000,"東京都",0,NA
"gg5f414","旭川味噌ラーメン ばんから 上野店","〒110-0005 東京都台東区上野4-2-1",35.708035,139.773979,"ＪＲ","御徒町駅","1",1000,"東京都",0,NA
"a858210","ラーメン玉 赤備 アクアシティ お台場店","〒135-8707 東京都港区台場1-7-1 アクアシティお台場6F",35.627819,139.773568,"ゆりかもめ","台場駅","5",1000,"東京都",0,NA
"gffc200","七志らーめん 渋谷道玄坂店","〒150-0043 東京都渋谷区道玄坂2-9-10",35.658968,139.698107,"ＪＲ","渋谷駅","2",900,"東京都",7,4.5
"b990000","永楽","〒133-0051 東京都江戸川区北小岩5-16-2",35.740491,139.889241,"京成本線","京成小岩駅","6",980,"東京都",6,4.41666666666667
"ge9n604","よってこや お台場店","〒135-0091 東京都港区台場1-6-1-101 デックス東京ビーチアイランドモール1F",35.629089,139.776013,"ゆりかもめ","お台場海浜公園駅","4",1000,"東京都",1,4
"gfp1000","ラーメン武藤製麺所","〒121-0813 東京都足立区竹の塚6-7-14 1F",35.795065,139.792057,"東武伊勢崎線（東武スカイツリーライン）","竹ノ塚駅","2",900,"東京都",4,3.5
"gesm800","桂花ラーメン 新宿末広店","〒160-0022 東京都新宿区新宿3-7-2",35.690843,139.706058,"都営新宿線","新宿三丁目駅","1",900,"東京都",8,3
"gfrg800","八雲","〒153-0043 東京都目黒区東山3-6-15 エビヤビル1F",35.650084,139.686864,"東急田園都市線","池尻大橋駅","4",900,"東京都",0,NA
"e642000","北斗 新橋店","〒105-0004 東京都港区新橋3-21-11",35.66544,139.757946,"ＪＲ","新橋駅","1",1000,"東京都",4,2.5
"gesm802","桂花ラーメン 新宿ふぁんてん","〒160-0022 東京都新宿区新宿3-21-4 第2サンパークビルB1-2F",35.693075,139.702214,"ＪＲ","新宿駅","1",900,"東京都",9,3.16666666666667
"gesm801","桂花ラーメン 新宿東口駅前店","〒160-0022 東京都新宿区新宿3-25-6",35.692754,139.701986,"ＪＲ","新宿駅","1",900,"東京都",7,3.5
"ge48900","まさ吉","〒152-0002 東京都目黒区目黒本町5-2-8",35.619646,139.701115,"東急目黒線","武蔵小山駅","4",4000,"東京都",2,NA
"gc77004","魚介系醤油ラーメン せたが屋 アクアシティお台場店","〒135-0091 東京都港区台場1-7-1 アクアシティお台場5F",35.627819,139.773568,"ゆりかもめ","台場駅","1",900,"東京都",0,NA
"gfrk804","麻布ラーメン 麻布十番店","〒106-0045 東京都港区麻布十番1-2-9 1F",35.656615,139.736467,"地下鉄南北線","麻布十番駅","4",1000,"東京都",2,4
"gftn103","東京餃子楼 茶沢通り店","〒154-0004 東京都世田谷区太子堂2-23-5",35.646013,139.670103,"東急世田谷線","三軒茶屋駅","4",2000,"東京都",3,3
"gfs8000","SOBAHOUSE 金色不如帰","〒160-0022 東京都新宿区新宿2-4-1 第22宮庭マンション1F",35.688771,139.708241,"地下鉄丸ノ内線","新宿御苑前駅","2",950,"東京都",4,4.83333333333333
"e645906","珍味館 築地店","〒104-0045 東京都中央区築地2-6-2 1F",35.669673,139.773278,"地下鉄有楽町線","新富町駅","2",2500,"東京都",0,NA
"gap9725","ふぐだし潮 八代目 けいすけ","〒104-0061 東京都中央区銀座5-2-1 東急プラザ銀座B2",35.672176,139.762441,"地下鉄丸ノ内線","銀座駅","2",1000,"東京都",0,NA
"gfvy400","利尻昆布ラーメン くろおび","〒105-0003 東京都港区西新橋1-20-11 1F",35.667726,139.752169,"ＪＲ","新橋駅","8",1000,"東京都",0,NA
"gd1n633","中華そば 福味","〒100-7090 東京都千代田区丸の内2-7-2 JPタワー B1",35.6798,139.764877,"ＪＲ","東京駅","2",1000,"東京都",0,NA
"gfsr800","船見坂","〒104-0061 東京都中央区銀座2-12-11",35.671414,139.769286,"地下鉄日比谷線","東銀座駅","3",999,"東京都",5,3.83333333333333
"a092400","味丸","〒140-0001 東京都品川区北品川2-23-1 本田ビル1F",35.618165,139.742449,"京急本線","新馬場駅","1",1000,"東京都",4,3.875
"gabc500","福津留","〒100-0005 東京都千代田区丸の内3-1-1 国際ビルB1",35.676989,139.761181,"JR","有楽町駅","5",4000,"東京都",0,NA
"gbpe400","風雲児","〒151-0053 東京都渋谷区代々木2-14-3 北斗第一ビル1F",35.686844,139.696649,"都営新宿線","新宿駅","2",800,"東京都",17,3.88235294117647
"p879915","しゃぶしゃぶ温野菜 立川南口店","〒190-0023 東京都立川市柴崎町3-3-7 山三電機ビル6F",35.696769,139.414282,"ＪＲ","立川駅","1",3000,"東京都",0,NA
"gbct700","らーめん潤 蒲田店","〒144-0052 東京都大田区蒲田5-20-7 シャトー蒲田13-102",35.561796,139.718846,"ＪＲ京浜東北線","蒲田駅","3",1000,"東京都",5,3.4
"gdv6152","ラーメン山岡家 瑞穂店","〒190-1213 東京都西多摩郡瑞穂町武蔵205-1",35.765089,139.354096,"ＪＲ八高線","箱根ケ崎駅","車5",800,"東京都",4,3.5
"e049601","半蔵門 中国料理 紅花","〒102-0092 東京都千代田区隼町2-13 プライムビル1F",35.682797,139.741971,"地下鉄半蔵門線","半蔵門駅","1",2500,"東京都",0,NA
"g095625","浅草聚楽","〒111-0032 東京都台東区浅草1-23-9",35.712188,139.793757,"地下鉄銀座線","浅草駅","8",1100,"東京都",8,3.125
"gfux401","香港料理 萬来［マンライ］荻窪","〒167-0051 東京都杉並区荻窪4-7-12",35.699705,139.617419,"地下鉄丸ノ内線","荻窪駅","7",2000,"東京都",2,4.75
"gfn3600","さつまっこ MEGAドンキホーテ大森山王店","〒143-0023 東京都大田区山王3-6-5",35.583432,139.72368,"ＪＲ京浜東北線","大森駅","7",700,"東京都",0,NA
"b446018","らーめん冠尾","〒150-0021 東京都渋谷区恵比寿西1-7-11 1F",35.647904,139.708541,"ＪＲ","恵比寿駅","1",900,"東京都",0,NA
"gg5f416","東京豚骨拉麺ばんから 新宿歌舞伎町店","〒160-0021 東京都新宿区歌舞伎町1-17-5 第二安田ビル1F",35.694153,139.701277,"西武新宿線","西武新宿駅","3",1000,"東京都",0,NA
"a424601","胡椒饅頭 ＰＡＯＰＡＯ","〒101-0032 東京都千代田区岩本町3-1-5 スミトー神田岩本町ビル1F",35.694776,139.776019,"ＪＲ","秋葉原駅","5",3200,"東京都",4,3.625
"gebm900","個室Asian Dining 2階のぞうさん 国分寺店","〒185-0012 東京都国分寺市本町3-9-6 2F",35.702445,139.480152,"ＪＲ中央線","国分寺駅","3",3000,"東京都",0,NA
"gdup054","博多かわ串・高知餃子 酒場フタマタ 西新橋店","〒105-0003 東京都港区西新橋1-3-1 西新橋スクエア2F",35.669017,139.754708,"都営三田線","内幸町駅","1",2700,"東京都",0,NA
"gfn3601","さつまっこ 平和島店","〒143-0011 東京都大田区大森本町2-27-7",35.57778,139.73739,"京急本線","平和島駅","5",700,"東京都",1,3
"b912201","ラーメン居酒屋 久慈清商店","〒153-0051 東京都目黒区上目黒1-19-10",35.645368,139.698109,"東急東横線","中目黒駅","2",1500,"東京都",5,3.3
"a263006","ほおずきや","〒135-0063 東京都江東区有明3-6-11 TFTビル東館2F",35.630926,139.790565,"ゆりかもめ","国際展示場正門駅","2",3000,"東京都",2,5
"gb1b600","慶賓楼 赤坂店","〒107-0052 東京都港区赤坂3-1-11 鈴木ビル2F",35.676871,139.736789,"地下鉄","赤坂見附駅","1",2000,"東京都",0,NA
"gfn3602","さつまっこ 田園調布","〒145-0071 東京都大田区田園調布2-15-2",35.594799,139.673551,"東急東横線","田園調布駅","7",700,"東京都",0,NA
"gf88100","三ツ星餃子堂 石神井公園店","〒177-0041 東京都練馬区石神井町3-20-13 1F",35.742963,139.605964,"西武池袋線","石神井公園駅","2",1000,"東京都",0,NA
"gezv300","らーめん 華月","〒168-0065 東京都杉並区浜田山3-26-27 富貴ビル1F",35.682703,139.62935,"京王井の頭線","浜田山駅","5",800,"東京都",2,3
"gdh4401","昌平ラーメン 成子坂店","〒160-0023 東京都新宿区西新宿6-10-2",35.694859,139.690802,"地下鉄丸ノ内線","西新宿駅","2",800,"東京都",0,NA
"g501135","タイ屋台料理 ティーヌン 市ヶ谷店","〒102-0073 東京都千代田区九段北4-2-15 市ヶ谷プラザビル1F",35.691625,139.736807,"ＪＲ","市ケ谷駅","1",2000,"東京都",4,4.25
"gben800","らーめん ぽっぽっ屋 水道橋店","〒101-0061 東京都千代田区神田三崎町2-21-11 えびすビル1F",35.701457,139.753651,"ＪＲ総武線","水道橋駅","2",700,"東京都",4,3.75
"gfa2600","ラーメン 新高揚","〒160-0023 東京都新宿区西新宿1-16-13 桑原ビルB1",35.689361,139.697981,"ＪＲ","新宿駅","3",1000,"東京都",1,3
"g053664","1／2PPUDO ルミネ立川店","〒190-0012 東京都立川市曙町2-1-1 ルミネ立川8F",35.698469,139.413611,"ＪＲ","立川駅","1",950,"東京都",0,NA
"gesm804","桂花ラーメン 渋谷センター街店","〒150-0042 東京都渋谷区宇田川町27-1",35.660225,139.698654,"ＪＲ","渋谷駅","1",900,"東京都",7,3.57142857142857
"gbd0800","中華そば屋 伊藤","〒114-0003 東京都北区豊島4-5-3",35.763265,139.74596,"地下鉄南北線","王子神谷駅","12",550,"東京都",6,4
"gbt9800","麺処 銀笹","〒104-0061 東京都中央区銀座8-15-2 藤ビル1F",35.666228,139.763437,"都営大江戸線","汐留駅","5",1000,"東京都",8,4.375
"ge58500","ラーメン屋トイ・ボックス","〒116-0014 東京都荒川区東日暮里1-1-3",35.73115,139.792066,"地下鉄日比谷線","三ノ輪駅","2",1000,"東京都",2,NA
"ge38200","RAMEN GOTTSU","〒176-0001 東京都練馬区練馬1-29-16",35.739423,139.656842,"西武池袋線","練馬駅","4",900,"東京都",2,4
"gfmg500","九州らーめん 頭","〒155-0031 東京都世田谷区北沢2-12-6 1F",35.660904,139.667646,"京王井の頭線","下北沢駅","2",999,"東京都",1,NA
"gfwy100","らぁ麺 すぎ本","〒165-0032 東京都中野区鷺宮4-2-3",35.723087,139.63766,"西武新宿線","鷺ノ宮駅","2",2000,"東京都",0,NA
"gfs8800","もとまる","〒110-0005 東京都台東区上野4-2-4",35.708283,139.773972,"ＪＲ","御徒町駅","2",999,"東京都",0,NA
"gesm807","桂花ラーメン 幡ヶ谷北口店","〒151-0072 東京都渋谷区幡ヶ谷2-13-3 幡ヶ谷駅前サンクスビル1F",35.677502,139.676963,"京王新線","幡ヶ谷駅","1",900,"東京都",1,3
"gfw5600","RAMEN にじゅうぶんのいち （RAMEN 1／20）","〒116-0012 東京都荒川区東尾久2-19-10 西脇ビル1F",35.744548,139.772936,"都電荒川線","東尾久三丁目駅","3",800,"東京都",0,NA
"gchw600","中国屋台 十八番 新川店","〒104-0033 東京都中央区新川2-7-7 クレール八重洲通ビル1F",35.675819,139.780528,"地下鉄日比谷線","八丁堀駅","4",2000,"東京都",0,NA
"gbkz700","麺屋 翔","〒160-0023 東京都新宿区西新宿7-22-34",35.696594,139.696601,"都営大江戸線","新宿西口駅","6",950,"東京都",5,3.6
"gg0r300","百麺 中目黒店","〒153-0042 東京都目黒区青葉台1-30-6",35.64614,139.696977,"地下鉄日比谷線","中目黒駅","3",900,"東京都",3,3
"gesm803","桂花ラーメン 新宿西口店","〒160-0023 東京都新宿区西新宿1-14-2 安西ビル1F",35.688971,139.696989,"ＪＲ","新宿駅","1",900,"東京都",2,3
"gees600","中華料理 華山","〒136-0076 東京都江東区南砂7-1-23",35.668177,139.833186,"地下鉄","南砂町駅","2",1000,"東京都",0,NA
"a350200","地蔵そば 大橋屋","〒170-0002 東京都豊島区巣鴨3-34-3",35.735392,139.735765,"ＪＲ","巣鴨駅","5",900,"東京都",1,3
"gffn300","中華料理 多来福 練馬","〒176-0013 東京都練馬区豊玉中2-15-14",35.730324,139.659416,"西武池袋線","練馬駅","10",2500,"東京都",0,NA
"gfnu600","中国蘭州ラーメン 火焔山蘭州拉麺 池袋店","〒171-0014 東京都豊島区池袋2-47-7",35.733778,139.710908,"ＪＲ","池袋駅","5",1500,"東京都",0,NA
"ggva100","えびす亭","〒124-0005 東京都葛飾区宝町2-34-28",35.745869,139.839882,"京成本線","お花茶屋駅","2",700,"東京都",0,NA
"gesm806","桂花ラーメン 池袋西一番街店","〒171-0021 東京都豊島区西池袋1-41-3 池袋東通ビル1F",35.732786,139.710208,"ＪＲ","池袋駅","2",900,"東京都",0,NA
"a309800","福徳","〒152-0004 東京都目黒区鷹番3-8-4 岩本ビル1F",35.629564,139.685505,"東急東横線","学芸大学駅","1",700,"東京都",3,5
"geur300","博多 一瑞亭","〒160-0022 東京都新宿区新宿1-4-12",35.688241,139.711388,"地下鉄丸ノ内線","新宿御苑前駅","1",800,"東京都",0,NA
"ge3y000","麺処 びぎ屋","〒152-0004 東京都目黒区鷹番2-4-9",35.628836,139.689138,"東急東横線","学芸大学駅","5",1000,"東京都",7,4.25
"p662405","東京豚骨 背脂とんこつらーめん 雷門 門前仲町店","〒135-0047 東京都江東区富岡1-7-3 深山ビル1F",35.671693,139.795993,"地下鉄東西線","門前仲町駅","2",800,"東京都",1,NA
"ggtv300","韓韓麺 竹ノ塚店","〒121-0813 東京都足立区竹の塚1-30-16",35.792607,139.791634,"東武伊勢崎線（東武スカイツリーライン）","竹ノ塚駅","3",3000,"東京都",3,4.5
"gd1n634","松戸富田麺絆","〒100-7090 東京都千代田区丸の内2-7-2 JPタワー B1",35.6798,139.764877,"ＪＲ","東京駅","2",1000,"東京都",0,NA
"gfrs200","麺処 篠はら","〒171-0014 東京都豊島区池袋3-1-4",35.73306,139.702172,"地下鉄副都心線","要町駅","3",900,"東京都",0,NA
"ge9n607","太陽のトマト麺NEXT 新宿ミロード店","〒160-0023 東京都新宿区西新宿1-1-3 小田急新宿ミロード7F飲食フロア",35.689937,139.699683,"ＪＲ","新宿駅","2",1000,"東京都",11,3.27272727272727
"ge9n608","太陽のトマト麺 新宿東宝ビル店","〒160-0021 東京都新宿区歌舞伎町1-19-1 新宿東宝ビル",35.695444,139.701811,"西武新宿線","西武新宿駅","3",1000,"東京都",0,NA
"geft801","無尽蔵 汐留家","〒105-0021 東京都港区東新橋1-9-1",35.663121,139.761346,"都営大江戸線","汐留駅","2",2000,"東京都",0,NA
"g186600","呑来醍","〒164-0001 東京都中野区中野2-26-10 中村ビル3F",35.704158,139.666108,"ＪＲ","中野駅","2",2600,"東京都",0,NA
"p879918","しゃぶしゃぶ温野菜 代々木西口店","〒151-0053 東京都渋谷区代々木1-30-3 メイプル代々木2F",35.681955,139.701842,"ＪＲ","代々木駅","1",3000,"東京都",0,NA
"gd17200","中国料理 渝園","〒182-0024 東京都調布市布田1-41-1 菊屋ビル8F",35.652264,139.544496,"京王線","調布駅","1",2500,"東京都",0,NA
"gd4v307","餃子市場 東大前店","〒113-0034 東京都文京区湯島4-4-3",35.707576,139.765586,"都営大江戸線","本郷三丁目駅","7",2500,"東京都",0,NA
"gg5f413","東京豚骨拉麺 ばんから 池袋東口店","〒170-0013 東京都豊島区東池袋1-17-3",35.731916,139.714914,"地下鉄丸ノ内線","池袋駅","3",1000,"東京都",0,NA
"gfez000","中華居酒屋 好味屋","〒162-0841 東京都新宿区払方町15-6 KO’Sビル",35.696852,139.73463,"都営新宿線","市ケ谷駅","5",3000,"東京都",0,NA
"gf98000","人形町らーめん いなせ","〒103-0013 東京都中央区日本橋人形町2-2-3",35.684788,139.783911,"地下鉄日比谷線","人形町駅","1",700,"東京都",2,3.5
"gfbz503","札幌や 溜池山王店","〒107-0052 東京都港区赤坂2-10-13 成広ビル1F",35.670194,139.741514,"地下鉄銀座線","溜池山王駅","2",700,"東京都",1,3
"gdu0500","広東料理 香港飲茶 徳吉酒家","〒136-0072 東京都江東区大島1-8-7 アパホテル1F",35.689001,139.821359,"都営新宿線","住吉駅","5",2000,"東京都",4,4.75
"ge9r200","自家製麺 伊藤","〒104-0061 東京都中央区銀座6-12-2 東京銀座ビルディングB1",35.669298,139.764906,"地下鉄銀座線","銀座駅","3",700,"東京都",3,4
"ggaw400","中華料理 薩斐（サフェイ） 蘭州拉麺 池袋本店","〒170-0014 東京都豊島区池袋2-13-8",35.732087,139.707448,"ＪＲ","池袋駅","3",1000,"東京都",1,3
"g055601","中国家庭料理 北斗 青山店","〒107-0061 東京都港区北青山3-5-17 はる木ビルB1",35.666184,139.713066,"地下鉄銀座線","表参道駅","1",3000,"東京都",0,NA
"g265400","黒兵衛","〒162-0825 東京都新宿区神楽坂2-10",35.700828,139.742325,"ＪＲ","飯田橋駅","2",1000,"東京都",3,3.66666666666667
"gdpt702","黄金の塩らぁ麺 ドゥエ イタリアン","〒102-0074 東京都千代田区九段南4-5-11 富士ビル1F",35.692293,139.740739,"ＪＲ総武線","市ケ谷駅","5",880,"東京都",2,4
"gf7t800","阿夫利 ルミネ新宿店","〒160-0023 東京都新宿区西新宿1-1-5 ルミネ新宿店ルミネ1 B2",35.689207,139.6993,"ＪＲ","新宿駅","1",1000,"東京都",0,NA
"gg5f415","東京豚骨拉麺 ばんから 秋葉原店","〒101-0021 東京都千代田区外神田4-4-7 MTビル1F",35.701256,139.772063,"地下鉄銀座線","末広町駅","3",1000,"東京都",0,NA
"gesf254","どさん子ラーメン 八重洲店","〒104-0028 東京都中央区八重洲2-1 八重洲地下街2番通り",35.679522,139.770695,"ＪＲ","東京駅","3",850,"東京都",0,NA
"gfpw201","一竜 錦糸町店","〒130-0022 東京都墨田区江東橋4-19-2",35.694791,139.815355,"ＪＲ","錦糸町駅","2",1000,"東京都",3,3
"g910420","JASMINE 憶江南","〒153-0043 東京都目黒区東山1-22-3",35.647104,139.692477,"地下鉄日比谷線","中目黒駅","7",7000,"東京都",0,NA
"gd1n637","博多屋台ラーメン 一幸舎","〒100-7090 東京都千代田区丸の内2-7-2 JPタワー B1",35.6798,139.764877,"ＪＲ","東京駅","2",1000,"東京都",0,NA
"gfbz501","札幌や 東銀座店","〒104-0061 東京都中央区銀座5-15-1 南海東京ビルB1",35.668517,139.767757,"地下鉄日比谷線","東銀座駅","2",700,"東京都",0,NA
"gfbz502","札幌や 大崎ニューシティ店","〒141-0032 東京都品川区大崎1-6-5 大崎ニューシティ2F",35.620219,139.72905,"ＪＲ","大崎駅","3",700,"東京都",1,3.5
"b612800","羽衣 銀座本店","〒104-0061 東京都中央区銀座7-12-14 大栄会館B1",35.667924,139.763413,"地下鉄","銀座駅","5",6000,"東京都",0,NA
"genv501","らぁ麺 やまぐち 辣式","〒135-0016 東京都江東区東陽4-6-3 栗林ビル1F",35.670204,139.819284,"地下鉄東西線","東陽町駅","2",1000,"東京都",0,NA
"gekj301","中華居酒屋 慶錦閣 大森町店","〒143-0014 東京都大田区大森中1-17-26",35.570053,139.731547,"京急本線","大森町駅","4",2500,"東京都",0,NA
"gea9700","好日","〒164-0003 東京都中野区東中野1-53-7",35.705344,139.684065,"ＪＲ中央線","東中野駅","2",800,"東京都",1,4
"gfz2700","らあめん渋英","〒150-0043 東京都渋谷区道玄坂2-4-5",35.658978,139.699479,"ＪＲ","渋谷駅","3",999,"東京都",3,3.5
"a332300","居酒屋 州 麹町","〒102-0083 東京都千代田区麹町2-10-2",35.68488,139.740466,"地下鉄有楽町線","麹町駅","1",2500,"東京都",0,NA
"gbw8500","饗 くろ喜","〒101-0024 東京都千代田区神田和泉町2-15 1F",35.698825,139.780138,"ＪＲ総武線","浅草橋駅","7",1000,"東京都",7,3.64285714285714
"gbsa600","中華そば 青葉 中野本店","〒164-0001 東京都中野区中野5-58-1",35.707972,139.666488,"ＪＲ","中野駅","4",800,"東京都",12,3.90909090909091
"g029010","おおーい北海道 長万部酒場 銀座店","〒104-0061 東京都中央区銀座3-7-12 王子不動産銀座ビルB1",35.671451,139.766935,"地下鉄","銀座駅","1",3500,"東京都",2,4.5
"gf7p100","濃厚鶏麺ゆきかげ","〒111-0032 東京都台東区浅草1-2-12",35.71123,139.796814,"都営浅草線","浅草駅","1",900,"東京都",0,NA
"gc77005","金澤濃厚豚骨ラーメン 神仙 アクアシティお台場店","〒135-0091 東京都港区台場1-7-1 アクアシティお台場5F",35.627819,139.773568,"ゆりかもめ","台場駅","1",800,"東京都",0,NA
"gfsw600","北海道らーめん 味八","〒160-0023 東京都新宿区西新宿7-1-7",35.694493,139.698956,"ＪＲ","新宿駅","3",999,"東京都",0,NA
"a045215","大漁市場 魚ます 二子玉川本店","〒158-0094 東京都世田谷区玉川3-9-2 土屋ビル1Ｆ",35.612856,139.6257,"東急大井町線","二子玉川駅","2",2500,"東京都",0,NA
"gd1n635","東京スタイルみそらーめん ど・みそ","〒100-7090 東京都千代田区丸の内2-7-2 JPタワー B1",35.6798,139.764877,"ＪＲ","東京駅","2",1000,"東京都",0,NA
"ge73300","麺 えどや","〒133-0056 東京都江戸川区南小岩6-30-6",35.731346,139.881171,"ＪＲ総武線","小岩駅","3",1000,"東京都",0,NA
"gaj0300","中華料理 ポパイラーメン","〒192-0352 東京都八王子市大塚622-11",35.637619,139.418601,"多摩モノレール","大塚・帝京大学駅","1",1000,"東京都",1,5
"gdm9023","油ソバ専門店 山ト天","〒104-0031 東京都中央区京橋3-1-1 東京スクエアガーデンB1",35.67611,139.76873,"地下鉄銀座線","京橋駅","1",1000,"東京都",1,NA
"gagn956","餃子の王将 フレスポ八王子みなみ野店","〒192-0916 東京都八王子市みなみ野1-7-3 フレスポ八王子みなみ野1F",35.632255,139.328703,"ＪＲ横浜線","八王子みなみ野駅","4",800,"東京都",1,3
"gf6s000","らーめん 一郎","〒104-0061 東京都中央区銀座3-2-13 江戸常ビルB1",35.673028,139.764656,"地下鉄丸ノ内線","銀座駅","1",800,"東京都",0,NA
"gesm805","桂花ラーメン 池袋サンシャイン60通り店","〒170-0013 東京都豊島区東池袋1-22-13 第5中村ビル1F",35.729888,139.716041,"ＪＲ","池袋駅","3",900,"東京都",5,3.7
"gery900","初代哲麺縁 昭島店","〒196-0003 東京都昭島市松原町2-6-5 BiViつくば3F",35.714129,139.350529,"ＪＲ青梅線","昭島駅","14",850,"東京都",4,4
"ggg4800","東福舎","〒102-0072 東京都千代田区飯田橋2-8-6",35.699738,139.748793,"地下鉄東西線","飯田橋駅","3",1000,"東京都",0,NA
"gbsc500","らぁめん 一福","〒151-0071 東京都渋谷区本町2-17-14 小泉ビル1F",35.683015,139.680866,"京王新線","初台駅","9",800,"東京都",3,3.33333333333333
"gfp1400","麺処 さとう 桜新町店","〒154-0015 東京都世田谷区桜新町1-13-9",35.631448,139.644113,"東急田園都市線","桜新町駅","1",1000,"東京都",0,NA
"gfba301","個室中華バル 食べ放題 吉祥餃子や 神田店","〒101-0044 東京都千代田区鍛冶町1-7-16 2F",35.690335,139.771435,"ＪＲ","神田駅","2",2800,"東京都",0,NA
"g078400","福新楼","〒107-0061 東京都港区北青山2-7-18 真砂ビルB1F",35.670459,139.717067,"地下鉄銀座線","外苑前駅","1",2000,"東京都",0,NA
"gfk4401","秋刀魚中華そば 生粋","〒171-0014 東京都豊島区池袋2-12-1 大晃第2ビル1F",35.732261,139.707436,"地下鉄副都心線","池袋駅","1",999,"東京都",3,4.5
"e769300","CHINA GARDEN","〒105-0021 東京都港区東新橋1-9-2 汐留住友ビル1F",35.662146,139.760115,"ゆりかもめ","汐留駅","1",3000,"東京都",3,3.16666666666667
"g330014","てしごとや ふくの鳥 大泉学園店","〒178-0063 東京都練馬区東大泉1-37-2 三幸産業第6ビル1F",35.750407,139.586175,"西武池袋線","大泉学園駅","2",2800,"東京都",0,NA
"gd4v308","餃子市場 早稲田店","〒169-0051 東京都新宿区西早稲田1-13-5",35.711478,139.720949,"都電荒川線","早稲田駅","3",2500,"東京都",0,NA
"gd1n636","四川担担麺 阿吽","〒100-7090 東京都千代田区丸の内2-7-2 JPタワー B1",35.6798,139.764877,"ＪＲ","東京駅","2",1000,"東京都",0,NA
"ga4h022","太陽のトマト麺 NEXT サンシャインシティ店","〒170-6090 東京都豊島区東池袋3-1-1 アルパ3F",35.72885,139.719215,"ＪＲ","池袋駅","5",1000,"東京都",1,3
"geft800","無尽蔵 しながわ家","〒108-0075 東京都港区港南1-9-36 アレア品川1F",35.630122,139.741257,"ＪＲ","品川駅","2",1000,"東京都",0,NA
"gd1f504","麺屋虎杖 日本橋","〒103-0027 東京都中央区日本橋1-3-13 東京建物日本橋ビルB1",35.682983,139.77325,"地下鉄銀座線","日本橋駅","1",1000,"東京都",0,NA
"gdp1900","かんの 本店","〒104-0045 東京都中央区築地4-9-5",35.665742,139.770136,"地下鉄日比谷線","築地駅","2",1000,"東京都",9,3.72222222222222
"gfrk800","麻布ラーメン 慶応三田店","〒108-0014 東京都港区芝5-14-14 1F",35.64821,139.744783,"ＪＲ","田町駅","6",1000,"東京都",0,NA
"gfhw000","九月堂","〒150-0041 東京都渋谷区神南1-15-12 佐藤ビル2F",35.663877,139.699384,"ＪＲ","渋谷駅","10",800,"東京都",7,3.64285714285714
"gfrk802","麻布ラーメン 西麻布店","〒106-0031 東京都港区西麻布4-1-5 1・2F",35.658897,139.723463,"地下鉄日比谷線","広尾駅","10",1000,"東京都",0,NA
"genv500","らぁ麺 やまぐち","〒169-0051 東京都新宿区西早稲田3-13-4",35.709959,139.713902,"地下鉄東西線","高田馬場駅","10",900,"東京都",7,4.08333333333333
"ggvt600","出汁茶漬け専門店 新橋深夜食堂","〒105-0004 東京都港区新橋3-13-2 B1",35.665827,139.756273,"ＪＲ","新橋駅","2",1500,"東京都",0,NA
"e378904","雲林坊 九段店","〒102-0073 東京都千代田区九段北1-5-5 東建ニューハイツ九段1F",35.696663,139.751693,"地下鉄東西線","九段下駅","2",1000,"東京都",0,NA
"gezr800","中華銘菜 餃子菜館","〒181-0013 東京都三鷹市下連雀3-20-7 浜中ビル1F",35.698372,139.561967,"ＪＲ中央線","三鷹駅","7",3000,"東京都",0,NA
"e378903","雲林坊 秋葉原店","〒101-0041 東京都千代田区神田須田町2-12 JR高架下共同ビル1F",35.695504,139.772767,"ＪＲ","神田駅","2",1000,"東京都",0,NA
"geur301","博多一瑞亭 三田店","〒105-0014 東京都港区芝5-14-1",35.648763,139.744914,"都営三田線","三田駅","1",900,"東京都",0,NA
"geat200","中華そば しながわ","〒171-0021 東京都豊島区西池袋4-19-14",35.730278,139.698859,"地下鉄有楽町線","要町駅","6",1000,"東京都",4,3.5
"gg5f412","ばんから担々麺 池袋本店","〒171-0022 東京都豊島区南池袋1-17-3 第2南池袋I-Nビル1F",35.727002,139.711285,"西武池袋線","池袋駅","1",1000,"東京都",0,NA
"gc77003","濃厚魚介豚骨つけ麺 頑者 NEXT LEVEL アクアシティお台場店","〒135-0091 東京都港区台場1-7-1 アクアシティお台場5F",35.627819,139.773568,"ゆりかもめ","台場駅","1",1000,"東京都",0,NA
"gfkk302","らーめん香月～KAZUKi～ 五反田店","〒141-0031 東京都品川区西五反田1-24-4 1F",35.623697,139.722138,"ＪＲ","五反田駅","4",850,"東京都",0,NA
"gfyr300","麺 みつヰ","〒111-0035 東京都台東区西浅草2-10-4",35.71256,139.790497,"つくばエクスプレス","浅草駅","5",1000,"東京都",0,NA
"gcep001","鶏ポタラーメン THANK お茶の水店","〒101-0054 東京都千代田区神田錦町1-14-7",35.693896,139.764227,"都営新宿線","小川町駅","2",1000,"東京都",2,NA
"gacg800","九十九ラーメン","〒150-0012 東京都渋谷区広尾1-1-36 本国ビル1F",35.649851,139.712073,"ＪＲ","恵比寿駅","5",850,"東京都",9,3.44444444444444
"e378905","雲林坊 日本橋室町店","〒103-0022 東京都中央区日本橋室町4-2-13 津島ビル1F",35.689744,139.771914,"ＪＲ総武本線快速線","新日本橋駅","3",1000,"東京都",2,NA
"gg80401","古武士 新宿6丁目店","〒160-0022 東京都新宿区新宿6-4-1 小山ビル1F",35.693423,139.710036,"地下鉄副都心線","新宿三丁目駅","7",800,"東京都",1,NA
"gg95601","ビストロ de 麺酒場 燿","〒164-0003 東京都中野区東中野4-4-5 東中野アパートメンツB1",35.706541,139.683843,"ＪＲ中央線","東中野駅","2",2500,"東京都",8,3.92857142857143
"gc77006","札幌ラーメンみその","〒135-0091 東京都港区台場1-7-1 アクアシティお台場5F",35.627819,139.773568,"ゆりかもめ","台場駅","1",1000,"東京都",0,NA
"gepm600","ソラノイロ","〒102-0093 東京都千代田区平河町1-3-10 ブルービル本館1F",35.683031,139.739391,"地下鉄有楽町線","麹町駅","4",900,"東京都",18,3.97222222222222
"gc77002","二代目 博多 だるま","〒135-0091 東京都港区台場1-7-1 アクアシティお台場5F",35.627819,139.773568,"ゆりかもめ","台場駅","1",1000,"東京都",0,NA
"gfrh300","麺屋 Hulu‐lu","〒171-0014 東京都豊島区池袋2-60-7",35.73501,139.70911,"地下鉄副都心線","池袋駅","6",950,"東京都",5,3.4
"g761703","定食屋 かあちゃん","〒120-0005 東京都足立区綾瀬2-26-8 1F",35.762132,139.827081,"地下鉄千代田線","綾瀬駅","1",800,"東京都",0,NA
"p855400","由 膳 高輪台","〒141-0022 東京都品川区東五反田3-1-6 ウエストワールドビル",35.631066,139.729767,"都営浅草線","高輪台駅","1",4000,"東京都",0,NA
"gf8f400","創作麺工房 鳴龍","〒170-0005 東京都豊島区南大塚2-34-4 SKY南大塚1F",35.728676,139.730343,"ＪＲ","大塚駅","4",1000,"東京都",3,3.5
"gfs5400","野方ホープ 目黒店","〒153-0063 東京都目黒区目黒1-5-16",35.63471,139.712854,"ＪＲ","目黒駅","5",1500,"東京都",4,3
"gg66400","麺や 七彩","〒104-0032 東京都中央区八丁堀2-13-2 ドミノビル1F",35.677139,139.776272,"地下鉄日比谷線","八丁堀駅","3",1000,"東京都",0,NA
"e557831","一風堂 ルミネエスト新宿店","〒160-0022 東京都新宿区新宿3-38-1 ルミネエスト新宿7F",35.691324,139.701144,"ＪＲ","新宿駅","1",1000,"東京都",4,3.875
"gfbz500","札幌や 丸の内帝国劇場店","〒100-0005 東京都千代田区丸の内3-1-1 帝劇ビルB2",35.676755,139.760848,"都営三田線","日比谷駅","1",700,"東京都",0,NA
"gfrk803","麻布ラーメン 芝浦店","〒108-0023 東京都港区芝浦3-12-4 1F",35.642545,139.749539,"ＪＲ","田町駅","4",1000,"東京都",0,NA
"gekj300","中華居酒屋 慶錦閣 青物横丁本店","〒140-0002 東京都品川区東品川4-1-15",35.61009,139.745388,"京急本線","青物横丁駅","5",2500,"東京都",0,NA
"e959512","らぁ麺 いしばし 南阿佐ヶ谷店","〒166-0004 東京都杉並区阿佐谷南1-32-8",35.700791,139.637424,"地下鉄丸ノ内線","南阿佐ヶ谷駅","3",1000,"東京都",0,NA
"g135400","新世界菜館","〒101-0051 東京都千代田区神田神保町2-2 新世界ビル",35.69616,139.75741,"都営三田線","神保町駅","1",4000,"東京都",11,4.13636363636364
"gfne800","つけ麺屋 ひまわり","〒169-0075 東京都新宿区高田馬場3-4-16 MKビル1F",35.714579,139.702826,"ＪＲ","高田馬場駅","3",999,"東京都",4,2.75
"g105903","新派四川ダイニング 百菜百味 大森店","〒143-0016 東京都大田区大森北1-6-16",35.588692,139.728648,"ＪＲ京浜東北線","大森駅","1",3500,"東京都",2,1.75
"gcep002","鶏ポタラーメン THANK 大門店","〒105-0012 東京都港区芝大門2-1-13 芝大友ビル1F",35.655912,139.753074,"都営大江戸線","大門駅","3",1000,"東京都",0,NA
"gg80400","古武士 新宿西口小滝橋通り店","〒160-0023 東京都新宿区西新宿7-4-6 ストーク新宿井岡1F",35.696126,139.698369,"都営大江戸線","新宿西口駅","3",800,"東京都",3,2.83333333333333
"gfrg400","らーめん はやし","〒150-0043 東京都渋谷区道玄坂1-14-9 ソシアル道玄坂1F",35.657261,139.698005,"京王井の頭線","渋谷駅","4",900,"東京都",7,3.66666666666667
"ge43300","中華蕎麦 三藤","〒152-0034 東京都目黒区緑が丘1-14-2",35.610027,139.677513,"東急大井町線","緑が丘駅","5",1500,"東京都",1,5
"gc5w900","麺居酒屋 HAREZOU（晴蔵）","〒116-0012 東京都荒川区東尾久6-48-8 山本ビル1F",35.747973,139.771469,"日暮里・舎人ライナー","熊野前駅","1",2000,"東京都",0,NA
"gg38700","Japanese Soba Noodles 蔦","〒170-0002 東京都豊島区巣鴨1-14-1",35.732948,139.740624,"ＪＲ","巣鴨駅","2",1500,"東京都",8,3.66666666666667
"b071300","中華宴会×飲み放題 中国料理 龍","〒144-0052 東京都大田区西蒲田7-4-3",35.563957,139.71546,"ＪＲ京浜東北線","蒲田駅","2",1800,"東京都",19,3
"gfg1001","元祖ニュータンタンメン本舗 羽田店","〒144-0042 東京都大田区羽田旭町3-3 1F",35.551857,139.746273,"京急空港線","穴守稲荷駅","5",1000,"東京都",0,NA
"ge5h100","肉×ワインバル 三ツ星村 住吉店","〒135-0002 東京都江東区住吉2-24-15 メゾン大塚1F",35.688353,139.81636,"都営新宿線","住吉駅","1",3000,"東京都",2,NA
"gfs5401","野方ホープ 原宿店","〒150-0001 東京都渋谷区神宮前1-2-1",35.674081,139.706253,"ＪＲ","原宿駅","5",1500,"東京都",2,4
"g746630","AFURI 辛紅 新宿 サブナード","〒160-0021 東京都新宿区歌舞伎町1-2-1 新宿サブナード",35.693596,139.700274,"地下鉄丸ノ内線","新宿駅","3",1000,"東京都",0,NA
"ge32400","麺や金時","〒176-0004 東京都練馬区小竹町1-2-7",35.738406,139.678305,"西武池袋線","江古田駅","6",850,"東京都",1,3.5
"gery963","石器ラーメン 高田馬場","〒169-0075 東京都新宿区高田馬場2-14-3",35.712546,139.706922,"地下鉄東西線","高田馬場駅","1",750,"東京都",0,NA
"a298900","盛","〒135-0013 東京都江東区千田21-6",35.681424,139.816244,"地下鉄都営新宿線","住吉駅","10",800,"東京都",3,3.66666666666667
"gddc900","みずとくじら","〒123-0841 東京都足立区西新井1-5-9 門前華永路",35.778761,139.780081,"東武大師線","大師前駅","2",1000,"東京都",1,5
"ggrc900","大海軒 八王子店","〒192-0084 東京都八王子市三崎町6-15 清水ビル1F",35.656858,139.336397,"ＪＲ","八王子駅","4",1000,"東京都",0,NA
"gddu500","蘭ちゃん","〒110-0016 東京都台東区台東1-19-12 秋山マンション1F",35.701299,139.780246,"ＪＲ","秋葉原駅","10",2000,"東京都",0,NA
"ge5s600","麺や 維新","〒141-0021 東京都品川区上大崎3-4-1 サンリオンビル1F",35.63419,139.71877,"ＪＲ","目黒駅","5",1000,"東京都",1,5
"gd5u805","麺や 美風 戸越銀座店","〒142-0041 東京都品川区戸越1-15-18",35.615306,139.717093,"都営浅草線","戸越駅","1",1000,"東京都",0,NA
"g262207","JA全農ミートフーズ直営 焼肉本舗 ぴゅあ 北千住マルイ店","〒120-8501 東京都足立区千住3-92 北千住マルイ9F",35.75084,139.804741,"ＪＲ常磐線","北千住駅","1",4000,"東京都",0,NA
"ge40000","Bum Bun Blau Cafe","〒142-0064 東京都品川区旗の台3-12-3 JーBOXービル2F",35.605031,139.703575,"東急大井町線","旗の台駅","1",2000,"東京都",0,NA
"gdxe101","麺酒房 実之和 六本木店","〒106-0032 東京都港区六本木3-13-8 1F",35.662588,139.733991,"都営大江戸線","六本木駅","3",2500,"東京都",2,4
"gcwt100","宴会食べ飲み放題 馬さん餃子酒場 神保町店","〒101-0051 東京都千代田区神田神保町2-17",35.695164,139.757809,"地下鉄","神保町駅","1",2000,"東京都",6,2.33333333333333
"7656921","新潟三宝亭 東京ラボ 渋谷宮益坂店","〒150-0002 東京都渋谷区渋谷2-19-17 第106東京ビルB1F",35.659632,139.704186,"","","",1000,"東京都",0,NA
"7236453","とんこつラーメン 博多風龍 新橋店","〒105-0004 東京都港区新橋2-9-8 ",35.666701,139.756871,"ＪＲ","新橋駅","徒歩2",650,"東京都",1,4
"3119667","中華麺家 まんまる","〒124-0000 東京都葛飾区四ツ木1-30-3 デュ-四ツ木 1F",35.735156,139.835343,"","","",1000,"東京都",0,NA
"7071567","めん処 紅葉","〒144-0043 東京都大田区羽田1-4-5 日興パレス108",35.551568,139.745125,"京急空港線","穴守稲荷駅","徒歩4",800,"東京都",0,NA
"6043763","ヒノマル食堂","〒105-0004 東京都港区新橋4-18-4 ",35.664333,139.757173,"","","",3000,"東京都",0,NA
"7398545","浅草ラーメン じゃん腹","〒111-0035 東京都台東区西浅草3-16-9 ",35.714979,139.792314,"つくばエクスプレス","浅草駅","徒歩1",1000,"東京都",0,NA
"7614494","麺飯食堂チャアヤ 八王子南口 煮干し豚骨醤油らーめん","〒192-0904 東京都八王子市子安町1-2-2 1F",35.653925,139.339632,"ＪＲ","八王子駅","徒歩1",1000,"東京都",0,NA
"7286905","つけめん屋 赤羽京介","〒115-0055 東京都北区赤羽西1-7-1 ",35.777453,139.718676,"ＪＲ","赤羽駅","徒歩3",680,"東京都",5,4.2
"6106688","らぁめん ほりうち","〒160-0023 東京都新宿区西新宿1-4-7 高野ビル1F",35.692911,139.698326,"ＪＲ山手線","新宿駅","徒歩3",850,"東京都",1,4
"5498091","味大将","〒168-0063 東京都杉並区和泉3-13-9 ",35.677629,139.644221,"","","",1200,"東京都",2,3
"6958894","肉汁らーめん 公","〒140-0001 東京都品川区北品川2-25-10 ",35.618859,139.744957,"京急本線","新馬場駅","徒歩4",800,"東京都",1,NA
"6389617","3SO","〒194-0037 東京都町田市木曽西4-1-31 第一新栄荘101",35.56473,139.420251,"ＪＲ横浜線","古淵駅","徒歩15",800,"東京都",0,NA
"5496741","うり坊 神谷町店","〒105-0001 東京都港区虎ノ門5-1-5 虎ノ門45MTビル B1",35.663613,139.745409,"地下鉄日比谷線","神谷町駅","徒歩1",1700,"東京都",1,4.5
"7204575","由助","〒142-0053 東京都品川区中延5-7-5 清塚ビル1F",35.603374,139.70801,"東急大井町線","荏原町駅","徒歩1",999,"東京都",0,NA
"7324549","ラーメン道楽 蒲田店","〒144-0052 東京都大田区蒲田5-43-9 高安ビル1F",35.56056,139.716959,"ＪＲ京浜東北線","蒲田駅","徒歩3",1000,"東京都",0,NA
"7281000","麺屋 音","〒120-0034 東京都足立区千住3-60 ",35.752103,139.80365,"地下鉄千代田線","北千住駅","徒歩4",1000,"東京都",0,NA
"7148322","油そば専門店 ぶらぶら 赤坂店","〒107-0052 東京都港区赤坂5-1-1 赤坂肥後のれんビル1F",35.674317,139.736379,"地下鉄千代田線","赤坂駅","徒歩2",700,"東京都",2,4
"7242070","メシドコロ NICONICO","〒104-0045 東京都中央区築地2-14-12 EUROビル1F",35.667359,139.770823,"地下鉄日比谷線","築地駅","徒歩2",3500,"東京都",0,NA
"7377127","一蘭 町田店","〒194-0013 東京都町田市原町田6-19-11 ",35.543834,139.447537,"ＪＲ横浜線","町田駅","徒歩3",800,"東京都",4,3
"6393506","小川軒","〒206-0823 東京都稲城市平尾2-7-1 ",35.609995,139.495722,"小田急小田原線","新百合ヶ丘駅","車10",800,"東京都",0,NA
"7512944","ばしらあ","〒103-0013 東京都中央区日本橋人形町2-11-8 ",35.685476,139.784596,"地下鉄日比谷線","人形町駅","徒歩2",800,"東京都",1,NA
"7234510","TOM’s CAFE","〒124-0025 東京都葛飾区西新小岩1-10-2 ",35.717759,139.857762,"ＪＲ総武線","新小岩駅","徒歩1",1500,"東京都",0,NA
"7384907","横浜家系ラーメン 稲田家 人形町店","〒103-0013 東京都中央区日本橋人形町3-7-13 マック人形町ビル1F",35.686363,139.781938,"都営浅草線","人形町駅","徒歩1",900,"東京都",0,NA
"7173976","薬膳食堂ちゃぶ膳","〒155-0033 東京都世田谷区代田6-16-20 ",35.666639,139.663151,"","","",1200,"東京都",0,NA
"7236456","とんこつラーメン 博多風龍 中野サンモール店","〒164-0001 東京都中野区中野5-59-6 ",35.707591,139.665742,"ＪＲ中央線","中野駅","徒歩2",650,"東京都",1,2.5
"7498223","風は南から 学芸大学店","〒152-0004 東京都目黒区鷹番2-20-4 学芸大学十字街ビル1F",35.629333,139.686523,"東急東横線","学芸大学駅","徒歩2",1000,"東京都",0,NA
"7682123","つじ田 六本木店","〒106-0032 東京都港区六本木7-9-3 第1韮澤ビル1階",35.664601,139.729901,"","","",1000,"東京都",0,NA
"7374339","一蘭 原宿店","〒150-0001 東京都渋谷区神宮前6-5-6 サンポウ綜合ビル2F",35.667827,139.705228,"地下鉄千代田線","明治神宮前駅","徒歩1",800,"東京都",0,NA
"7512342","蓮華亭","〒174-0046 東京都板橋区蓮根2-19-31 ",35.782854,139.678918,"都営三田線","蓮根駅","徒歩2",3000,"東京都",7,3.75
"7507082","一圓 三鷹南口店","〒181-0013 東京都三鷹市下連雀4-15-23 ",35.694812,139.561756,"ＪＲ中央線","三鷹駅","徒歩12",800,"東京都",0,NA
"7181005","博多 一風堂 二子玉川ライズS．C．店","〒158-0094 東京都世田谷区玉川1-14-1 二子玉川ライズS.C.テラスマーケット2F",35.612281,139.628515,"東急田園都市線","二子玉川駅","徒歩3",900,"東京都",2,NA
"6124777","麺屋 宗","〒153-0061 東京都目黒区中目黒3-5-33 オークヴィラ中目黒102",35.640837,139.701998,"東横線","中目黒駅","徒歩6",800,"東京都",1,3
"6588698","そば処為治郎","〒100-0005 東京都千代田区丸の内1-9-1 東京駅一番街1F",35.676564,139.765076,"ＪＲ","東京駅","徒歩1",850,"東京都",0,NA
"7236444","とんこつラーメン 博多風龍 大久保店","〒169-0073 東京都新宿区百人町1-17-7 ",35.701591,139.697571,"ＪＲ中央線","大久保駅","徒歩1",650,"東京都",2,3
"7736589","麺屋虎杖 大門浜松町店","〒105-0012 東京都港区芝大門2-4-2 Dビル1・2F",35.656649,139.754435,"","","",1000,"東京都",0,NA
"7236448","とんこつラーメン 博多風龍 西武新宿店","〒160-0021 東京都新宿区歌舞伎町1-24-3 新居ビル1F",35.694484,139.70055,"西武新宿線","西武新宿駅","徒歩1",650,"東京都",2,3
"1024219","ぶらり","〒116-0014 東京都荒川区東日暮里5-52-5 ",35.727388,139.772248,"ＪＲ","日暮里駅","徒歩2",3000,"東京都",3,4
"6900287","麺屋 はやたろう 立川店","〒190-0003 東京都立川市栄町2-49-5 ",35.712076,139.428536,"ＪＲ中央線","立川駅","徒歩15",1000,"東京都",1,2.5
"7488145","わ蔵","〒160-0021 東京都新宿区歌舞伎町1-10-11 ",35.694798,139.703166,"地下鉄丸ノ内線","新宿駅","徒歩5",999,"東京都",2,4
"7491990","よつ家","〒121-0813 東京都足立区竹の塚6-8-10 1F",35.795045,139.792846,"東武伊勢崎線（東武スカイツリーライン）","竹ノ塚駅","徒歩3",800,"東京都",0,NA
"7380227","蘭家","〒105-0012 東京都港区芝大門1-4-4 ",35.658629,139.754663,"都営浅草線","大門駅","徒歩3",800,"東京都",0,NA
"5252575","伊勢屋食堂 淀橋青果市場内","〒169-0074 東京都新宿区北新宿4-2-1 淀橋市場東京都事務所1F",35.704854,139.694001,"ＪＲ","大久保駅","徒歩5",800,"東京都",0,NA
"7760333","中野家 東長崎店","〒171-0052 東京都豊島区南長崎5-25-14 ",35.72957,139.683092,"","","",800,"東京都",0,NA
"7098314","旨辛らーめん 表裏","〒169-0075 東京都新宿区高田馬場2-14-27 ",35.713074,139.707254,"ＪＲ","高田馬場駅","徒歩5",1000,"東京都",0,NA
"7377101","一蘭 渋谷スペイン坂店","〒150-0042 東京都渋谷区宇田川町13-7 B1",35.660977,139.698659,"ＪＲ","渋谷駅","徒歩5",800,"東京都",2,NA
"7268851","板橋 大勝軒 なりたや","〒173-0004 東京都板橋区板橋2-60-1 ",35.749948,139.711355,"都営三田線","板橋区役所前駅","徒歩3",800,"東京都",4,2.75
"5844552","立川中華そば ととホンテン","〒190-0012 東京都立川市曙町3-22-15 ",NA,NA,"","","",880,"東京都",5,3.9
"7522294","日本橋麺処こはる","〒103-0022 東京都中央区日本橋室町1-13-5 ",35.686335,139.774872,"地下鉄銀座線","三越前駅","徒歩2",1000,"東京都",0,NA
"7201777","北海道らーめん なまら 浅草西参道店","〒111-0032 東京都台東区浅草2-7-13 ",35.714568,139.794705,"つくばエクスプレス","浅草駅","徒歩4",1000,"東京都",1,5
"7630337","スープ道 連","〒170-0001 東京都豊島区西巣鴨4-13-6 西巣鴨ビル1F",35.744588,139.728862,"都営三田線","西巣鴨駅","徒歩2",800,"東京都",4,3.75
"7140495","十文字","〒169-0051 東京都新宿区西早稲田1-4-17 ",35.709439,139.716942,"都電荒川線","早稲田駅","徒歩6",680,"東京都",0,NA
"5499325","秀華","〒182-0007 東京都調布市菊野台2-31-36 ",35.652196,139.567821,"京王線","柴崎駅","車5",550,"東京都",0,NA
"7488149","わ蔵 中目黒店","〒153-0061 東京都目黒区中目黒3-5-3 ",35.640665,139.70217,"東急東横線","中目黒駅","徒歩7",999,"東京都",0,NA
"7405117","ラーメン春樹","〒206-0033 東京都多摩市落合1-39-1 マグレブEAST 7F",35.624861,139.425548,"京王相模原線","京王多摩センター駅","徒歩2",900,"東京都",0,NA
"7512463","J’sラーメン","〒175-0082 東京都板橋区高島平1-76-14 1F",35.786165,139.671141,"都営三田線","西台駅","徒歩3",1500,"東京都",3,2.83333333333333
"6966883","一風堂 池袋店","〒171-0022 東京都豊島区南池袋2-26-10 アクティオ-レ南池袋1F",35.7279,139.713516,"","","",1000,"東京都",3,3
"7750308","麺菜 Regamen","〒151-0051 東京都渋谷区千駄ヶ谷3-26-7 ",35.67707,139.707674,"","","",950,"東京都",0,NA
"7728912","はな火屋","〒160-0023 東京都新宿区西新宿7-15-17 井西ビル1F",35.69525,139.698097,"","","",850,"東京都",3,3.83333333333333
"7276037","麺や 京水","〒168-0073 東京都杉並区下高井戸1-31-12 シークエストビル1F",35.669524,139.629537,"","","",800,"東京都",1,4.5
"7702343","初代葱寅 御茶ノ水店","〒101-0062 東京都千代田区神田駿河台3-3-3 K&T.T駿河台ビル1F",35.696075,139.764113,"","","",1000,"東京都",0,NA
"6388641","三歩一","〒169-0075 東京都新宿区高田馬場2-14-9 明芳ビル1F",35.71326,139.70618,"ＪＲ","高田馬場駅","徒歩3",750,"東京都",8,4.5625
"7482216","谷ラーメン","〒100-0005 東京都千代田区丸の内3-7-11 ",35.676609,139.764897,"ＪＲ","有楽町駅","徒歩4",1000,"東京都",0,NA
"7512977","担々麺 辣椒漢 駒込店","〒170-0003 東京都豊島区駒込1-29-8 ",35.73704,139.748963,"ＪＲ","駒込駅","徒歩1",1000,"東京都",2,NA
"7484830","中華料理 銀座 ヤンヤン","〒104-0061 東京都中央区銀座4-10-12 銀座サマリヤビル1・2F",35.670192,139.766932,"都営浅草線","東銀座駅","徒歩1",2000,"東京都",1,4.5
"6513299","手作り餃子とラーメンのお店 GYUTON","〒185-0011 東京都国分寺市本多1-5-3 第1佐藤ビル1F",35.703761,139.481346,"ＪＲ中央線","国分寺駅","徒歩5",800,"東京都",1,3
"7236447","とんこつラーメン 博多風龍 神田西口店","〒101-0047 東京都千代田区内神田3-12-9 ",35.691335,139.770197,"ＪＲ","神田駅","徒歩1",650,"東京都",2,3
"7737313","一蘭 浅草六区店","〒111-0032 東京都台東区浅草2-6-11 平和ストアビル2F",35.714435,139.793539,"","","",1000,"東京都",0,NA
"7379591","一蘭 中野店","〒164-0001 東京都中野区中野5-65-5 S・K中野ビルB1",35.707271,139.665438,"","","",1000,"東京都",0,NA
"7487942","わ蔵 板橋本店","〒173-0004 東京都板橋区板橋1-48-11 ",35.748719,139.71899,"都営三田線","新板橋駅","徒歩1",850,"東京都",5,3.4
"7236457","とんこつラーメン 博多風龍 池袋東口店","〒170-0013 東京都豊島区東池袋1-8-6 ",35.731852,139.714363,"ＪＲ","池袋駅","徒歩3",650,"東京都",2,NA
"7431564","桜吹雪が風に舞う 東大和店","〒207-0013 東京都東大和市向原1-2-1 ",35.742509,139.442567,"西武拝島線","東大和市駅","徒歩19",1200,"東京都",0,NA
"7481115","中華料理 日光軒","〒132-0035 東京都江戸川区平井7-29-19 ",35.713194,139.842008,"ＪＲ総武線","平井駅","徒歩11",2000,"東京都",0,NA
"7302389","中国酒家 瑞華","〒111-0032 東京都台東区浅草4-21-10 ",35.718399,139.794564,"つくばエクスプレス","浅草駅","徒歩8",1500,"東京都",0,NA
"7630300","旭川味噌ラーメン ばんから 池袋西口店","〒171-0021 東京都豊島区西池袋1-34-4 ",35.732589,139.710315,"地下鉄丸ノ内線","池袋駅","徒歩3",1000,"東京都",5,4.25
"6272654","山手ラーメン 安庵 本郷店","〒113-0033 東京都文京区本郷5-23-11 野神ビル1F",35.709261,139.760094,"都営大江戸線","本郷三丁目駅","徒歩3",700,"東京都",1,3
"5400198","チャイニーズレストラン 一番","〒187-0024 東京都小平市たかの台34-3 ",35.722766,139.457428,"西武国分寺線","鷹の台駅","徒歩5",800,"東京都",0,NA
"7481110","やきとり丸井","〒110-0001 東京都台東区谷中1-4-2 ",35.719227,139.766971,"地下鉄千代田線","根津駅","徒歩3",2200,"東京都",0,NA
"7621391","名華園料理店","〒107-0052 東京都港区赤坂3-12-1 1F",35.674291,139.737748,"地下鉄千代田線","赤坂駅","徒歩3",3000,"東京都",0,NA
"3113796","らーめん 麺好","〒164-0013 東京都中野区弥生町2-52-8 城西本社ビル",35.690866,139.669694,"地下鉄丸ノ内線","中野富士見町駅","徒歩3",750,"東京都",0,NA
"6140899","中国酒家 大天門 八重洲","〒104-0028 東京都中央区八重洲2-4-10 B1",35.678168,139.769213,"ＪＲ","東京駅","徒歩2",4000,"東京都",4,4.125
"7509809","仕事鶏 A（エース）","〒101-0061 東京都千代田区三崎町2-17-4 ",35.70121,139.753201,"ＪＲ中央線","水道橋駅","徒歩3",2500,"東京都",0,NA
"6049033","神勢。","〒113-0033 東京都文京区本郷3-39-9 山本ビル1F",35.707379,139.763196,"地下鉄","本郷三丁目駅","徒歩4",800,"東京都",0,NA
"6546104","浅草 醤油らーめん きび太郎","〒111-0032 東京都台東区浅草2-13-3 都ビル1F",35.715413,139.792803,"","","",800,"東京都",0,NA
"7501956","ホープ軒本舗 大塚店","〒170-0004 東京都豊島区北大塚2-14-8 ",35.731997,139.729424,"都電荒川線","大塚駅前駅","徒歩1",800,"東京都",5,3.75
"7010229","麺や葵","〒116-0013 東京都荒川区西日暮里2-20-1 ポートタワー302",35.729061,139.770509,"ＪＲ","日暮里駅","徒歩1",1000,"東京都",2,4
"7229391","博多食堂 歌舞伎町店","〒160-0021 東京都新宿区歌舞伎町1-11-3 1F",35.694754,139.702686,"西武新宿線","西武新宿駅","徒歩4",1000,"東京都",2,NA
"5496890","えぞ菊 戸塚店","〒169-0051 東京都新宿区西早稲田3-21-1 ",35.711312,139.711303,"ＪＲ山手線","高田馬場駅","徒歩7",900,"東京都",4,3.625
"6900304","志奈そば 田なか","〒170-0013 東京都豊島区東池袋2-19-2 第2八千代マンション102",35.730859,139.723457,"都電荒川線","向原駅","徒歩2",750,"東京都",4,4
"6271385","東京とんこつラーメン　屯ちん　池袋本店","〒171-0022 東京都豊島区南池袋2-26-2 ルート南池袋ビル1F",NA,NA,"山手線","池袋駅","徒歩5",800,"東京都",11,3.77272727272727
"7372798","枝燦亭","〒135-0051 東京都江東区枝川3-4-8 セルピエンテ深川1F",35.658824,139.809262,"","","",3000,"東京都",0,NA
"7753540","らぁ麺よりみち 伊豆大島","〒100-0212 東京都大島町波浮港17番地 ",34.688068,139.440429,"","","",900,"東京都",0,NA
"7541506","ら～めん いち","〒192-0904 東京都八王子市子安町1-7-6 飯室ビル1F",35.653148,139.339869,"ＪＲ","八王子駅","徒歩3",800,"東京都",0,NA
"7288057","濱之家 入谷店","〒121-0836 東京都足立区入谷2-1-4 ",35.805775,139.766993,"日暮里・舎人ライナー","舎人駅","徒歩5",1000,"東京都",10,3.83333333333333
"7498704","麺屋 大申 神保町店","〒101-0051 東京都千代田区神田神保町2-10-18 ",35.696511,139.756431,"都営新宿線","神保町駅","徒歩2",1000,"東京都",0,NA
"7595428","濱之家","〒113-0031 東京都文京区根津1-27-6 ",35.720973,139.761845,"地下鉄千代田線","千駄木駅","徒歩6",1000,"東京都",0,NA
"7733271","舎鈴 赤坂インターシティAIR店","〒107-0052 東京都港区赤坂1-8-1 赤坂インターシティAIR B1F",35.67005,139.742701,"東京メトロ","溜池山王駅","徒歩1",630,"東京都",0,NA
"6155448","荏原町しなてつ","〒142-0053 東京都品川区中延5-6-19 ",35.60326,139.708288,"東急大井町線","荏原町駅","徒歩1",800,"東京都",2,3
"7738966","横浜家系ラーメン 寛ぎ家","〒146-0092 東京都大田区下丸子3-16-7 第二 三幸ビル102",35.569842,139.685893,"","","",1000,"東京都",0,NA
"6898605","横浜家系らーめん 家丸","〒154-0012 東京都世田谷区駒沢4-18-18 ",35.630572,139.656426,"東急田園都市線","駒沢大学駅","徒歩5",999,"東京都",0,NA
"7229388","博多食堂 渋谷店","〒150-0042 東京都渋谷区宇田川町36-16 プラザマリーナ1F",35.661699,139.696379,"地下鉄半蔵門線","渋谷駅","徒歩5",1000,"東京都",1,4.5
"7431530","風風ラーメン 赤塚店","〒175-0093 東京都板橋区赤塚新町1-24-11 ",35.770032,139.644483,"東武東上線","下赤塚駅","徒歩1",1200,"東京都",0,NA
"7523507","麺屋やっとこ 三田店","〒108-0073 東京都港区三田3-1-1 ",35.647811,139.742925,"ＪＲ","田町駅","徒歩4",900,"東京都",3,3.5
"7308745","双葉","〒103-0013 東京都中央区日本橋人形町3-4-8 ",35.68617,139.781029,"地下鉄日比谷線","人形町駅","徒歩1",2000,"東京都",0,NA
"7349905","IPPUDO NOODLE EXPRESS 東京スカイツリータウン・ソラマチ店","〒131-0045 東京都墨田区押上1-1-2 3F",35.710033,139.810716,"都営浅草線","押上駅","徒歩2",850,"東京都",1,NA
"7501949","ホープ軒本舗 吉祥寺店","〒180-0004 東京都武蔵野市吉祥寺本町1-14-12 ",35.704281,139.580298,"ＪＲ中央線","吉祥寺駅","徒歩2",900,"東京都",3,4.5
"5917522","麺屋宗　肉そば総本店","〒174-0071 東京都板橋区常盤台1-5-6 KAZAN常盤台101",35.759346,139.690641,"東武東上線","ときわ台駅","徒歩2",800,"東京都",4,3.125
"7267967","ラーメン いつき","〒171-0014 東京都豊島区池袋3-15-12 ",35.735224,139.700942,"ＪＲ","池袋駅","徒歩10",1000,"東京都",0,NA
"7377091","一蘭 新宿歌舞伎町店","〒160-0021 東京都新宿区歌舞伎町1-17-10 B1・1F",35.694394,139.701561,"JR","新宿駅","徒歩5",800,"東京都",0,NA
"7718279","博多屋台 六助","〒197-0011 東京都福生市福生876-12 ",35.743578,139.331459,"","","",900,"東京都",0,NA
"7513257","節骨麺たいぞう","〒132-0035 東京都江戸川区平井4-11-2 ",35.705961,139.843826,"ＪＲ総武線","平井駅","徒歩2",1000,"東京都",0,NA
"6776301","家系中華蕎麦 家道","〒142-0051 東京都品川区平塚2-18-10 アーバンウィングIII 1F",35.615711,139.714102,"東急池上線","戸越銀座駅","徒歩1",750,"東京都",2,4.5
"7377130","一蘭 アトレ上野山下口店","〒110-0005 東京都台東区上野7-1-1 ",35.712442,139.77538,"ＪＲ","上野駅","徒歩1",800,"東京都",9,3.5
"7325751","武道家 龍","〒157-0066 東京都世田谷区成城2-34-1 小泉ビル1F",35.639304,139.599545,"小田急小田原線","成城学園前駅","徒歩1",800,"東京都",0,NA
"7198660","○宿 めんてんてん","〒160-0021 東京都新宿区歌舞伎町2-14-8 メトロプラザ2 1F",35.696897,139.705178,"都営大江戸線","東新宿駅","徒歩3",1000,"東京都",2,NA
"7377128","一蘭 池袋店","〒170-0013 東京都豊島区東池袋1-39-11 サニーサイドビル1F",35.732511,139.714158,"ＪＲ","池袋駅","徒歩2",800,"東京都",3,3.16666666666667
"6998138","斬鉄軒","〒108-0023 東京都港区芝浦2-12-5 ",35.643523,139.752474,"ＪＲ","田町駅","徒歩7",2000,"東京都",0,NA
"7236452","とんこつラーメン 博多風龍 新橋銀座口店","〒105-0004 東京都港区新橋1-13-5 ",35.667892,139.758368,"ＪＲ","新橋駅","徒歩2",650,"東京都",4,3.5
"7180249","麺処 夏海","〒115-0045 東京都北区赤羽1-18-4 ",35.7798,139.720193,"ＪＲ京浜東北線","赤羽駅","徒歩3",800,"東京都",4,4.125
"5400222","二幸","〒187-0024 東京都小平市たかの台46-7 ",NA,NA,"","","",850,"東京都",0,NA
"7653948","中国蘭州牛肉ラーメン 国壱麺 御徒町本店","〒110-0005 東京都台東区上野4-3-1 ",35.708082,139.773646,"ＪＲ","御徒町駅","徒歩1",1000,"東京都",0,NA
"7308935","日本橋札幌や","〒103-0027 東京都中央区日本橋3-3-5 丸十ビルB1",35.680185,139.771475,"地下鉄銀座線","日本橋駅","徒歩3",2000,"東京都",0,NA
"7498486","香満楼","〒134-0088 東京都江戸川区西葛西5-10-23 ",35.66585,139.864003,"地下鉄東西線","西葛西駅","徒歩8",3000,"東京都",0,NA
"7356447","ミヤミヤ","〒206-0011 東京都多摩市関戸2-24-23 ",35.650491,139.448628,"京王線","聖蹟桜ヶ丘駅","徒歩5",800,"東京都",0,NA
"7296113","麺屋 多伊夢","〒123-0843 東京都足立区西新井栄町3-8-6 ",35.777331,139.782003,"","","",800,"東京都",1,5
"7496716","ごまる 銀座店","〒104-0061 東京都中央区銀座1-14-5 ",35.673398,139.769775,"地下鉄有楽町線","銀座一丁目駅","徒歩2",1000,"東京都",0,NA
"5412834","天天飯店","〒169-0075 東京都新宿区高田馬場2-16-5 ",NA,NA,"","","",1800,"東京都",0,NA
"5713135","つじ田 飯田橋店","〒102-0072 東京都千代田区飯田橋4丁目814 ",35.701327,139.746211,"","","",1000,"東京都",10,3.5
"7291112","たん坦めん麺 炎真","〒125-0061 東京都葛飾区亀有3-26-1 リリオ館1F",35.766352,139.848766,"ＪＲ常磐線","亀有駅","徒歩2",900,"東京都",0,NA
"7662071","ななごう酒場","〒124-0024 東京都葛飾区新小岩1-35-3 ",35.714222,139.859421,"","","",3200,"東京都",0,NA
"7377119","一蘭 下北沢店","〒155-0031 東京都世田谷区北沢2-14-10 阿部ビル1F",35.660282,139.66756,"小田急小田原線","下北沢駅","徒歩2",800,"東京都",0,NA
"7280827","喜多方ラーメン坂内  戸越銀座店","〒142-0051 東京都品川区平塚1-6-17 ",35.615387,139.716386,"","","",800,"東京都",0,NA
"7431543","風風ラーメン 高円寺南口店","〒166-0003 東京都杉並区高円寺南4-24-2 ",35.70351,139.649503,"ＪＲ中央線","高円寺駅","徒歩4",1200,"東京都",1,3.5
"7703414","手打らーめん満月","〒115-0055 東京都北区赤羽西1-37-3 赤羽アイ・エスビル1F",35.777897,139.718541,"","","",800,"東京都",2,3
"7393109","山久","〒123-0843 東京都足立区西新井栄町2-16-10 1F",35.777231,139.7869,"東武伊勢崎線（東武スカイツリーライン）","西新井駅","徒歩4",1500,"東京都",0,NA
"6895139","ラーメン　ガツ旨　まるはち","〒144-0054 東京都大田区新蒲田2-8-1 伊藤ビル1F",35.562111,139.703232,"ＪＲ京浜東北線","蒲田駅","徒歩10",700,"東京都",0,NA
"7349900","宙寅屋 東京スカイツリータウン・ソラマチ店","〒131-0045 東京都墨田区押上1-1-2 1F",35.710033,139.810716,"都営浅草線","押上駅","徒歩2",2000,"東京都",1,5
"7234473","とんこつラーメン 博多風龍 池袋西口店","〒171-0021 東京都豊島区西池袋1-26-5 ",35.731592,139.710472,"ＪＲ","池袋駅","徒歩1",650,"東京都",3,3.33333333333333
"7204627","新福菜館 秋葉原店","〒101-0024 東京都千代田区神田和泉町1-3-17 コータロービル1F",35.700064,139.776335,"ＪＲ","秋葉原駅","徒歩5",700,"東京都",0,NA
"7095730","ラーメン 欽福 両国本店","〒130-0026 東京都墨田区両国2-12-3 ",35.695067,139.791325,"ＪＲ総武線","両国駅","徒歩3",700,"東京都",0,NA
"5605904","麺屋　宗","〒169-0075 東京都新宿区高田馬場1-4-21 サンパークマンション高田馬場B102",35.711108,139.709606,"ＪＲ山手線","高田馬場駅","徒歩7",800,"東京都",5,4.2
"7377111","一蘭 吉祥寺店","〒180-0004 東京都武蔵野市吉祥寺本町1-9-8 B2",35.704558,139.580087,"ＪＲ中央線","吉祥寺駅","徒歩2",800,"東京都",0,NA
"7522291","神田らぁめん悠 HARUKA","〒103-0022 東京都中央区日本橋室町4-2-15 ",35.689578,139.771671,"ＪＲ総武本線快速線","新日本橋駅","徒歩3",800,"東京都",0,NA
"6546439","博多ラーメン つる","〒112-0003 東京都文京区春日1-15-9 104",35.708313,139.751404,"地下鉄丸ノ内線","後楽園駅","徒歩1",700,"東京都",0,NA
"6933312","三ツ矢堂製麺 武蔵小山店","〒142-0062 東京都品川区小山3-25-14 ",35.619377,139.703931,"東急目黒線","武蔵小山駅","徒歩1",950,"東京都",4,3.5
"7155484","麺屋ふう","〒194-0021 東京都町田市中町1-30-7 ",35.549172,139.44784,"小田急小田原線","町田駅","徒歩10",700,"東京都",1,4
"3113507","中野 大勝軒","〒164-0001 東京都中野区中野3-33-13 第2ビル1F",35.703716,139.665341,"ＪＲ中央線","中野駅","徒歩3",700,"東京都",4,4.25
"6166203","熊ぼっこ","〒110-0015 東京都台東区東上野1-1-11 ",35.707764,139.781847,"","","",800,"東京都",0,NA
"6189384","中華そば吾衛門","〒193-0835 東京都八王子市千人町3-3-3 ",35.65742,139.311084,"ＪＲ中央線","西八王子駅","徒歩5",650,"東京都",1,3.5
"7176666","赤坂焼鳥 鳳","〒107-0052 東京都港区赤坂3-12-18 第8荒井ビルB1",35.673977,139.737614,"地下鉄千代田線","赤坂駅","徒歩3",7000,"東京都",0,NA
"7308929","元祖 札幌や","〒103-0027 東京都中央区日本橋2-2-3 ",35.682186,139.772351,"地下鉄銀座線","日本橋駅","徒歩3",2500,"東京都",0,NA
"5496992","屯ちん 新宿店","〒160-0021 東京都新宿区歌舞伎町1-11-10 1F ",35.695195,139.702977,"西武新宿線","西武新宿駅","徒歩5",800,"東京都",4,3.875
"7431527","風風ラーメン 田無店","〒188-0012 東京都西東京市南町4-1-1 ",35.72696,139.539348,"西武新宿線","田無駅","徒歩1",1200,"東京都",0,NA
"7683739","こうすけ","〒154-0004 東京都世田谷区太子堂4-28-8 ",35.646136,139.669834,"東急田園都市線","三軒茶屋","徒歩3",1000,"東京都",7,3.5
"7512748","Noodle Stand Tokyo","〒150-0001 東京都渋谷区神宮前1-21-15 ナポレ原宿ビルB1F",35.672311,139.703503,"","","",900,"東京都",0,NA
"7620181","麺ロード 花畑","〒121-0061 東京都足立区花畑4-35-11 ",35.805473,139.806558,"東武伊勢崎線（東武スカイツリーライン）","谷塚駅","徒歩19",600,"東京都",0,NA
"6393115","麺座でん　カツシカン！","〒125-0041 東京都葛飾区東金町1-16-2 ",35.771559,139.868524,"JR常磐線","金町駅","徒歩5",850,"東京都",0,NA
"7427214","四条富小路 麺屋虎杖 有楽町","〒100-0006 東京都千代田区有楽町2-10-1 B1",35.674989,139.764364,"ＪＲ","有楽町駅","徒歩1",1500,"東京都",1,4
"7512465","Y’sラーメン","〒179-0081 東京都練馬区北町8-37-20 ",35.768573,139.646671,"東武東上線","下赤塚駅","徒歩6",1000,"東京都",0,NA
"6951154","居酒屋あまのじゃく","〒193-0833 東京都八王子市めじろ台1-11-1 ",35.644692,139.308124,"京王高尾線","めじろ台駅","徒歩1",3000,"東京都",0,NA
"5496863","天空","〒108-0073 東京都港区三田3-3-6 ",35.647046,139.743381,"","","",820,"東京都",3,3.33333333333333
"7609924","中華そば わたなべ","〒111-0032 東京都台東区浅草2-15-7 ",35.715666,139.794044,"つくばエクスプレス","浅草駅","徒歩2",800,"東京都",0,NA
"7502025","らーめん屋 麺僧 南口店","〒180-0003 東京都武蔵野市吉祥寺南町1-11-2 もみじビル1Ｆ",35.702672,139.577665,"ＪＲ中央線","吉祥寺駅","徒歩4",1000,"東京都",0,NA
"7496034","うまい肉と麺の店 ヨネ家","〒146-0082 東京都大田区池上3-35-7 ",35.573691,139.699519,"","","",2800,"東京都",0,NA
"7324960","ラーメン道楽 鮫洲店","〒140-0011 東京都品川区東大井1-21-9 1・2F",35.60426,139.741519,"京急本線","鮫洲駅","徒歩2",900,"東京都",0,NA
"7415095","宴客 駒込店","〒170-0003 東京都豊島区駒込2-7-6 ",35.738758,139.746456,"ＪＲ","駒込駅","徒歩3",3000,"東京都",0,NA
"6186310","洞くつ家","〒180-0003 東京都武蔵野市吉祥寺南町2-2-4 1F",35.701916,139.580631,"ＪＲ","吉祥寺駅","徒歩2",999,"東京都",6,4.58333333333333
"7679710","鶏しゃぶ屋 つるん","〒142-0054 東京都品川区西中延2-14-12 2階",35.609333,139.705778,"","","",2500,"東京都",0,NA
"7353986","鶏そば十番156 町田店","〒194-0013 東京都町田市原町田6-17-3 1F",35.545094,139.446899,"小田急小田原線","町田駅","徒歩1",900,"東京都",0,NA
"7236451","とんこつラーメン 博多風龍 秋葉原2号店","〒101-0021 東京都千代田区外神田4-3-11 ",35.700384,139.771994,"ＪＲ","秋葉原駅","徒歩3",650,"東京都",0,NA
"1006838","はくぶん","〒160-0016 東京都新宿区信濃町30 ",35.681913,139.71973,"ＪＲ総武線","信濃町駅","徒歩2",2000,"東京都",0,NA
"7236458","とんこつラーメン 博多風龍 新宿東口店","〒160-0022 東京都新宿区新宿3-21-2 ナナエビル1F",35.692865,139.702119,"ＪＲ","新宿駅","徒歩2",650,"東京都",2,3
"7431539","風風ラーメン 武蔵小金井店","〒184-0004 東京都小金井市本町5-12-14 ",35.702008,139.505979,"ＪＲ中央線","武蔵小金井駅","徒歩5",1200,"東京都",10,3.21428571428571
"7431548","風風ラーメン 千歳烏山店","〒157-0062 東京都世田谷区南烏山6-3-9 ",35.669459,139.599998,"京王線","千歳烏山駅","徒歩3",1200,"東京都",0,NA
"6842417","本格博多豚骨ラーメン 豚野郎","〒164-0001 東京都中野区中野1-41-45 ",35.704561,139.674267,"ＪＲ","中野駅","徒歩9",800,"東京都",0,NA
"7535572","らーめん朝日堂","〒134-0088 東京都江戸川区西葛西5-6-11 第2ツボイビル1F",35.66495,139.860828,"地下鉄東西線","西葛西駅","徒歩2",800,"東京都",0,NA
"7359337","中国菜館 岡田屋","〒157-0072 東京都世田谷区祖師谷3-30-1 ",35.643286,139.607814,"小田急小田原線","祖師ヶ谷大蔵駅","徒歩2",1500,"東京都",0,NA
"7356411","らーめんZoot","〒144-0051 東京都大田区西蒲田7-42-7 1F",35.562885,139.712242,"東急池上線","蒲田駅","徒歩4",1000,"東京都",2,3.5
"7236459","とんこつラーメン 博多風龍 渋谷店","〒150-0043 東京都渋谷区道玄坂2-8-8 ",35.658536,139.698393,"京王井の頭線","渋谷駅","徒歩1",650,"東京都",3,3
"7377099","一蘭 立川店","〒190-0022 東京都立川市錦町1-3-3 ",35.69705,139.415685,"ＪＲ","立川駅","徒歩3",800,"東京都",3,2.83333333333333
"7475233","ラー麺ずんどう屋 目黒店","〒141-0021 東京都品川区上大崎2-17-4 美都ビル1F",35.635361,139.715054,"ＪＲ","目黒駅","徒歩3",1000,"東京都",0,NA
"7236461","とんこつラーメン 博多風龍 秋葉原昭和通り店","〒101-0025 東京都千代田区神田佐久間町1-24 ",35.69838,139.77521,"ＪＲ","秋葉原駅","徒歩1",650,"東京都",2,NA
"6431485","麺屋 藤しろ 目黒店","〒141-0021 東京都品川区上大崎2-27-1 サンフェリスタ目黒109",35.63425,139.714906,"都営三田線","目黒駅","徒歩1",780,"東京都",1,4.5
"6324779","くれは","〒188-0013 東京都西東京市向台町1-2-42 ",35.721952,139.542584,"西武新宿線","田無駅","徒歩8",800,"東京都",2,4.25
"5663696","つじ田 神田御茶ノ水店","〒101-0052 東京都千代田区神田小川町1-4 和田ビル1F",35.69532,139.766572,"","","",1000,"東京都",20,3.875
"7735444","日本橋 麺屋ま石","〒104-0061 東京都中央区銀座4-4-1 銀座Aビル1F",35.672311,139.765189,"","","",1300,"東京都",0,NA
"7735445","麺屋虎杖 渋谷店","〒150-0043 東京都渋谷区道玄坂2-7-4 戸崎ビル1F",35.658566,139.698628,"","","",1000,"東京都",0,NA
"0045140","萬 福","〒104-0061 東京都中央区銀座2-13-13 ",35.671293,139.769488,"地下鉄","銀座駅","徒歩6",1800,"東京都",3,3.83333333333333
"7727505","TAMAZOUー86","〒192-0085 東京都八王子市中町12-12 ",35.658559,139.334835,"ＪＲ","八王子駅","徒歩7",1500,"東京都",0,NA
"6220285","肉そば家 笑梟","〒160-0023 東京都新宿区西新宿4-14-2 ",35.690412,139.687475,"都営大江戸線","西新宿五丁目駅","徒歩6",800,"東京都",1,4
"7496164","らぁめん 末廣","〒113-0022 東京都文京区千駄木3-37-5 1F",35.725313,139.763346,"地下鉄千代田線","千駄木駅","徒歩1",1000,"東京都",0,NA
"7488170","大王亭","〒191-0062 東京都日野市多摩平2-1-9 ",35.660114,139.382036,"ＪＲ中央線","豊田駅","徒歩1",1000,"東京都",0,NA
"7236449","とんこつラーメン 博多風龍 高田馬場店","〒169-0075 東京都新宿区高田馬場2-19-7 タックイレブンビル1F",35.713899,139.704448,"ＪＲ","高田馬場駅","徒歩1",650,"東京都",2,3
"7682124","つじ田 池袋西口店","〒171-0021 東京都豊島区西池袋5-2-10 八勝堂ビル1階",35.731806,139.706153,"","","",1000,"東京都",0,NA
"7385358","麺屋 六感堂","〒170-0013 東京都豊島区東池袋2-57-2 1F",35.733117,139.717918,"地下鉄丸ノ内線","池袋駅","徒歩7",1000,"東京都",0,NA
"7513297","春木屋 吉祥寺店","〒180-0004 東京都武蔵野市吉祥寺本町2-14-1 ",35.705779,139.577462,"ＪＲ中央線","吉祥寺駅","徒歩5",1000,"東京都",2,4.5
"7475235","ラー麺ずんどう屋 新宿歌舞伎町店","〒160-0021 東京都新宿区歌舞伎町2-39-3 KMS会館1F",35.696804,139.701947,"西武新宿線","西武新宿駅","徒歩3",1000,"東京都",1,3
"7377129","一蘭 渋谷店","〒150-0041 東京都渋谷区神南1-22-7 岩本ビルB1",35.661124,139.701079,"ＪＲ","渋谷駅","徒歩3",800,"東京都",9,3.61111111111111
"7454992","とんこつ らい斗","〒146-0083 東京都大田区千鳥3-24-7 千鳥ビル",35.570296,139.68963,"","","",700,"東京都",0,NA
"7398827","福徳","〒110-0016 東京都台東区台東4-11-2 イシワビル1F",35.706623,139.776466,"地下鉄日比谷線","仲御徒町駅","徒歩3",1000,"東京都",2,NA
"7236463","とんこつラーメン 博多風龍 上野店","〒110-0005 東京都台東区上野6-14-9 上村ビルB1・1F",35.711168,139.775529,"ＪＲ","上野駅","徒歩1",650,"東京都",0,NA
"7407448","伝承ラーメン北都","〒104-0061 東京都中央区築地4-7-5 築地KYビルB1",35.666559,139.770137,"地下鉄日比谷線","築地駅","徒歩3",1000,"東京都",1,4
"7377115","一蘭 新橋店","〒105-0004 東京都港区新橋2-8-8 からす亭ビルB1",35.667137,139.757032,"ＪＲ","新橋駅","徒歩1",1000,"東京都",3,4.75
"7194121","ますたにラーメン 田町店","〒108-0014 東京都港区芝5-25-9 山田ビル1F",35.647334,139.744733,"ＪＲ","田町駅","徒歩6",1000,"東京都",1,4
"7509797","東京餃子楼 京橋店","〒104-0031 東京都中央区京橋2-21 京橋エドグランB1",35.677365,139.769546,"地下鉄銀座線","京橋駅","徒歩2",1500,"東京都",1,3
"7737213","麺屋藤しろ 練馬店","〒176-0012 東京都練馬区豊玉北6-13-18 ノダアネックス102",35.736252,139.651824,"","","",800,"東京都",0,NA
"7085988","蒙古タンメン中本 上板橋本店","〒174-0000 東京都板橋区常盤台4丁目33-3 浅香ビル 2階",NA,NA,"","","",900,"東京都",14,4.10714285714286
"7000690","GANCON NOODLE","〒114-0015 東京都北区中里1-3-3 板橋ビル101",35.736384,139.750169,"ＪＲ","駒込駅","徒歩1",800,"東京都",0,NA
"7619672","辣鼎風","〒107-0052 東京都港区赤坂9-7-3 東京ミッドタウンB1",35.665715,139.730696,"都営大江戸線","六本木駅","徒歩2",1500,"東京都",1,NA
"7377131","一蘭 六本木店","〒106-0032 東京都港区六本木4-11-11 六本木GMビル2F",35.664214,139.731515,"地下鉄日比谷線","六本木駅","徒歩2",800,"東京都",10,3.7
"7492362","とんこつラーメン よかろうもん","〒130-0021 東京都墨田区緑3-17-8 ",35.695349,139.805317,"都営新宿線","菊川駅","徒歩10",999,"東京都",0,NA
"6955249","三角　砂場","〒134-0013 東京都江戸川区江戸川6-20-2 ",35.674907,139.871554,"地下鉄東西線","葛西駅","バス5",1200,"東京都",0,NA
"7505166","麺屋よし","〒103-0002 東京都中央区日本橋馬喰町1-11-2 ",35.693598,139.783113,"ＪＲ総武本線快速線","馬喰町駅","徒歩1",1000,"東京都",0,NA
"7430024","麺屋かまし 桜","〒156-0053 東京都世田谷区桜3-8-15 1F",35.639876,139.636874,"東急世田谷線","上町駅","徒歩13",1000,"東京都",0,NA
"7377123","一蘭 新宿中央東口店","〒160-0022 東京都新宿区新宿3-34-11 ピースビルB1",35.690582,139.702761,"ＪＲ","新宿駅","徒歩3",800,"東京都",14,3.875
"7373829","中国料理 精陽軒","〒150-0002 東京都渋谷区渋谷2-1-9 ",35.660889,139.707745,"地下鉄銀座線","表参道駅","徒歩7",1500,"東京都",0,NA
"6958546","麺家 さざん 町田店","〒194-0014 東京都町田市高ヶ坂2-43-23 メゾンフローラ101",35.539801,139.457045,"小田急小田原線","町田駅","徒歩10",700,"東京都",1,3
"7680810","一蘭 西新宿店","〒160-0022 東京都新宿区新宿7-10-18 小滝橋パシフィカビル 1F",35.694439,139.698576,"","","",1200,"東京都",0,NA
"7377095","一蘭 浅草店","〒111-0032 東京都台東区浅草1-1-16 HK浅草ビルB1",35.711185,139.797464,"地下鉄銀座線","浅草駅","徒歩1",800,"東京都",0,NA
"7362682","麺酒盗 ざい八","〒111-0032 東京都台東区浅草4-38-5 ",35.719235,139.795627,"都営浅草線","浅草駅","徒歩17",1200,"東京都",0,NA
"5497262","旨麺こむぎや","〒130-0011 東京都墨田区石原1丁目23－5 Dｰ1ビル1F",35.700223,139.799092,"都営大江戸線","両国駅","徒歩5",900,"東京都",2,3
"6273004","屯ちん 池袋西口店","〒171-0021 東京都豊島区西池袋1-27-1 ",35.731421,139.710297,"JR山手線","池袋駅","徒歩2",800,"東京都",6,3.5
"7689855","ヌードル・サウンズ 本郷三丁目店","〒113-0033 東京都文京区本郷三丁目5-5 野々村ビル1F",35.704304,139.762194,"","","",850,"東京都",0,NA
"7185719","来来亭 小平仲町店","〒187-0042 東京都小平市仲町269-2 ",35.730892,139.490749,"西武新宿線","小平駅","徒歩10",1000,"東京都",0,NA
"7075133","AFURI 六本木ヒルズ","〒106-0032 東京都港区六本木6-2-31 六本木ヒルズメトロハット/ハリウッドプラザB2",35.661814,139.730039,"東京メトロ日比谷線","六本木駅","徒歩1",NA,"東京都",3,4.5
"5498998","天下一品 八王子店","〒192-0082 東京都八王子市東町12-7 王将ビル1F",35.658096,139.337851,"JR中央本線（東京-塩尻）","八王子駅","徒歩4",NA,"東京都",0,NA
"6327990","福屋 矢口店","〒146-0095 東京都大田区多摩川1-7-5 ",35.56343,139.699179,"東急多摩川線","矢口渡駅","徒歩1",NA,"東京都",0,NA
"6440505","麺処 鳴声","〒143-0025 東京都大田区南馬込5-39-12 西馬込サニービル1F",35.586805,139.706336,"都営浅草線","西馬込駅","徒歩1",NA,"東京都",0,NA
"7756853","ブタゴリラ","〒115-0051 東京都北区浮間4-6-10 ",35.78874,139.697318,"JR埼京線","浮間舟渡駅","徒歩9",NA,"東京都",0,NA
"7634313","暖暮 恵比寿南店","〒150-0022 東京都渋谷区恵比寿南1-2-3 恵比寿TSビル1F",35.646148,139.708153,"東京メトロ日比谷線","恵比寿（東京都）駅","徒歩1",NA,"東京都",0,NA
"6841961","いずみ家","〒143-0022 東京都大田区東馬込1-12-2 ",35.598632,139.71251,"都営浅草線","馬込駅","徒歩2",NA,"東京都",2,NA
"7377978","歌舞伎町麺’S倶楽部KING","〒160-0021 東京都新宿区歌舞伎町2-27-8 ",35.695948,139.703077,"西武新宿線","西武新宿駅","徒歩5",NA,"東京都",0,NA
"5808803","らあめん花月嵐 原町田店","〒194-0013 東京都町田市原町田2-12-15 ",35.540745,139.453318,"JR横浜線","町田駅","徒歩7",NA,"東京都",1,4.5
"7749461","麺屋 クズ","〒167-0051 東京都杉並区荻窪5-23-12 オキビル1F",35.703298,139.620772,"","","",NA,"東京都",0,NA
"6928100","国振","〒123-0853 東京都足立区本木1-4-22 ",35.762262,139.787731,"東武伊勢崎線","梅島駅","徒歩22",NA,"東京都",3,5
"7686737","全国らーめん","〒153-0042 東京都目黒区青葉台1-28-7 セブンスターマンション 102",35.647162,139.695601,"東京メトロ日比谷線","中目黒駅","徒歩6",NA,"東京都",0,NA
"7751662","中華そば 36","〒190-0012 東京都立川市曙町2-13-10 加賀登ビル1F",35.698782,139.415137,"","","",NA,"東京都",0,NA
"7710196","とんこつラーメン まる一","〒123-0864 東京都足立区鹿浜2-25-1 ",35.780254,139.750916,"都営日暮里・舎人ライナー","西新井大師西駅","徒歩27",NA,"東京都",0,NA
"5499274","やすのたまぞう","〒183-0057 東京都府中市晴見町3-7-2 ",35.683469,139.47931,"JR武蔵野線（府中本町-南船橋）","北府中駅","徒歩12",NA,"東京都",4,4
"7210958","三代目 藤村商店","〒135-0002 東京都江東区住吉2-24-6 1F",35.688824,139.815892,"東京メトロ半蔵門線","住吉（東京都）駅","徒歩1",NA,"東京都",1,4
"5713280","蝦夷らーめん 太志","〒158-0086 東京都世田谷区尾山台3-9-5 ",35.603985,139.652607,"東急大井町線","尾山台駅","徒歩5",NA,"東京都",0,NA
"6847771","龍寿","〒121-0064 東京都足立区保木間5-18-1 ",35.802298,139.806763,"東武伊勢崎線","谷塚駅","徒歩21",NA,"東京都",0,NA
"6745017","ラーメンショップマルキチェーン 拝島店","〒196-0003 東京都昭島市松原町4-13-20 ",35.721052,139.342792,"西武拝島線","拝島駅","徒歩1",NA,"東京都",0,NA
"7100204","じぱんぐ 上野駅前店","〒110-0005 東京都台東区上野6-16-9 金子三善ビル1F",35.711013,139.776134,"東京メトロ日比谷線","上野駅","徒歩1",NA,"東京都",2,NA
"7738681","自由が丘 蔭山樓","〒194-0004 東京都町田市鶴間3-4-1 ギャザリングマーケット1F",35.509583,139.470451,"東急田園都市線","南町田グランベリーパーク駅","徒歩2",NA,"東京都",0,NA
"5907220","中華そば 青葉 学芸大学店","〒152-0004 東京都目黒区鷹番2-21-14 学大横丁内",NA,NA,"東急東横線","学芸大学駅","徒歩3",NA,"東京都",1,3
"5498944","江川亭八王子北店","〒192-0031 東京都八王子市小宮町1111-1 ",35.685196,139.370839,"JR八高線（八王子-高麗川）","小宮駅","徒歩3",NA,"東京都",0,NA
"7584625","よってこや 南池袋店","〒171-0022 東京都豊島区南池袋2-26-9 ニュープライムビルB1F",35.727964,139.713438,"東京メトロ副都心線","池袋駅","徒歩1",NA,"東京都",0,NA
"5496926","ラーメン餃子館 小次郎 新宿店","〒169-0072 東京都新宿区大久保1-1-2 ",35.698209,139.707149,"都営大江戸線（環状部）","東新宿駅","徒歩1",NA,"東京都",3,4
"7170242","中華料理 珍来","〒173-0004 東京都板橋区板橋1-51-5 ",35.748104,139.719729,"都営三田線","新板橋駅","徒歩1",NA,"東京都",0,NA
"7703711","味好","〒120-0005 東京都足立区綾瀬4-20-16 ",35.76543,139.821516,"東京メトロ千代田線","綾瀬駅","徒歩7",NA,"東京都",0,NA
"6155399","松波ラーメン店","〒154-0023 東京都世田谷区若林3-19-7 ",35.644031,139.655911,"東急世田谷線","松陰神社前駅","徒歩1",NA,"東京都",3,4.5
"6186146","タロー軒","〒166-0003 東京都杉並区高円寺南2-16-13 ",35.698602,139.649201,"東京メトロ丸ノ内線","新高円寺駅","徒歩2",NA,"東京都",0,NA
"6316561","喜多方ラーメン 坂内 池袋サンシャイン店","〒170-0013 東京都豊島区東池袋3-1-3 サンシャインシティALTA B1F",35.728878,139.719866,"東京メトロ有楽町線","東池袋駅","徒歩8",NA,"東京都",1,5
"6204163","麺屋黒船 本所4丁目店","〒130-0004 東京都墨田区本所4-20-5 ",35.705167,139.804851,"都営浅草線","本所吾妻橋駅","徒歩4",NA,"東京都",0,NA
"5499116","天下一品 立川店","〒190-0022 東京都立川市錦町1-4-24 ",35.696079,139.416279,"JR中央本線（東京-塩尻）","立川駅","徒歩4",NA,"東京都",1,3
"7704521","AFURI辛紅 池袋","〒171-0021 東京都豊島区西池袋1-23-1 エルクルーセビル1F",35.731778,139.710036,"東京メトロ丸ノ内線","池袋駅","徒歩1",NA,"東京都",0,NA
"5497388","まる金ラーメン木場店","〒135-0042 東京都江東区木場2-8-7 ",35.669854,139.802427,"東京メトロ東西線","木場駅","徒歩4",NA,"東京都",1,5
"7055838","きみの","〒162-0825 東京都新宿区神楽坂1-14-7 東邦ビル1F",35.700921,139.742651,"東京メトロ南北線","飯田橋駅","徒歩1",NA,"東京都",2,NA
"7538390","油君 油そば専門店 新宿店","〒160-0022 東京都新宿区新宿2-7-1 不二川ビル1F",35.689471,139.708546,"東京メトロ丸ノ内線","新宿御苑前駅","徒歩2",NA,"東京都",0,NA
"6185730","ほん田","〒101-0054 東京都千代田区神田錦町1-14 市村ビル1F",35.693869,139.764163,"都営新宿線","小川町（東京都）駅","徒歩1",NA,"東京都",1,3
"6155462","復興軒","〒131-0045 東京都墨田区押上2-1-1 103",NA,NA,"東武伊勢崎線","とうきょうスカイツリー［業平橋］駅","徒歩1",NA,"東京都",0,NA
"5253735","宝来軒","〒100-1511 東京都八丈島八丈町三根414-3 ",33.120508,139.80101,"","","",NA,"東京都",0,NA
"7707049","麺巧潮 上野製麺所","〒110-0015 東京都台東区東上野3-22-2 クレアツィオーネ上野1F",35.711018,139.779119,"東京メトロ日比谷線","上野駅","徒歩2",NA,"東京都",0,NA
"6972700","駒","〒208-0001 東京都武蔵村山市中藤4-17-3 ",35.757725,139.403747,"多摩都市モノレール線","上北台駅","徒歩25",NA,"東京都",0,NA
"7734350","龍聖軒","〒195-0053 東京都町田市能ヶ谷2-24-26 ",35.587407,139.479728,"小田急小田原線","鶴川駅","徒歩9",NA,"東京都",0,NA
"5399984","杏苑","〒181-0013 東京都三鷹市下連雀7-9-4 ",35.687901,139.56155,"JR中央本線（東京-塩尻）","三鷹駅","徒歩21",NA,"東京都",0,NA
"7133862","麺屋まぜはる","〒111-0053 東京都台東区浅草橋4-4-5 ",35.697975,139.780914,"JR総武線各停（御茶ノ水-錦糸町）","浅草橋駅","徒歩4",NA,"東京都",0,NA
"7686259","博多ラーメン 長風 新秋津店","〒189-0001 東京都東村山市秋津町5-13-42 ",35.777489,139.493413,"JR武蔵野線（府中本町-南船橋）","新秋津駅","徒歩1",NA,"東京都",0,NA
"6272250","俺流塩らーめん 神楽坂店","〒162-0825 東京都新宿区神楽坂2-11 第83東京ビル1F",35.700938,139.741793,"東京メトロ南北線","飯田橋駅","徒歩1",NA,"東京都",6,3.33333333333333
"6893102","幸楽苑 田無店","〒188-0003 東京都西東京市北原町3-3-56 ",35.733662,139.542872,"西武新宿線","田無駅","徒歩11",NA,"東京都",0,NA
"7074151","太陽のトマト麺 木場支店","〒135-0016 東京都江東区東陽3-3-9 ",35.669115,139.809449,"東京メトロ東西線","木場駅","徒歩2",NA,"東京都",0,NA
"7753096","限定中華 レッドストーン","〒107-0052 東京都港区赤坂3-12-5 ホテルフェリーチェ1F A棟3",35.673582,139.737847,"","","",NA,"東京都",0,NA
"6841784","巓","〒134-0084 東京都江戸川区東葛西2-26-12 ",35.666887,139.878841,"東京メトロ東西線","葛西駅","徒歩11",NA,"東京都",1,NA
"5499134","ラーメンのあっちゃん","〒190-0021 東京都立川市羽衣町1-18-6 1A",35.695782,139.426378,"ＪＲ南武線（川崎-立川）","西国立駅","徒歩4",NA,"東京都",0,NA
"7117784","インディアン 本店","〒144-0051 東京都大田区西蒲田6-26-3 SSビル 1F",35.565185,139.709184,"東急池上線","蓮沼駅","徒歩2",NA,"東京都",1,3
"7467855","麺屋 清","〒171-0052 東京都豊島区南長崎5-16-5 ",35.728305,139.682569,"西武池袋線","東長崎駅","徒歩2",NA,"東京都",0,NA
"5497697","ラーメン処熊っこ","〒144-0031 東京都大田区東蒲田1-12-10 ",35.564525,139.729441,"京急本線","梅屋敷（東京都）駅","徒歩4",NA,"東京都",0,NA
"6959225","幸楽苑 足立江北店","〒123-0872 東京都足立区江北6-5-8 ",35.778538,139.765304,"都営日暮里・舎人ライナー","西新井大師西駅","徒歩10",NA,"東京都",2,NA
"6900621","麺 酒 やまの","〒176-0012 東京都練馬区豊玉北5-23-11 ",35.735926,139.65421,"都営大江戸線（放射部）","練馬駅","徒歩3",NA,"東京都",1,4
"6663292","麺屋和福","〒185-0021 東京都国分寺市南町3-13-9 ",35.69805,139.479679,"西武国分寺線","国分寺駅","徒歩3",NA,"東京都",1,3.5
"5837528","風来居 渋谷店","〒150-0046 東京都渋谷区松濤1-29-2 松濤スクエアビル1F",35.660035,139.695162,"東京メトロ半蔵門線","渋谷駅","徒歩4",NA,"東京都",3,3.75
"7073513","羊と狼","〒143-0016 東京都大田区大森北6-25-16 ",35.578637,139.731662,"京急本線","平和島駅","徒歩4",NA,"東京都",0,NA
"7754952","ラーメン しじみ軒","〒101-0051 東京都千代田区神田神保町2-48-1 まるまん店舗",35.698224,139.75668,"東京メトロ半蔵門線","神保町駅","徒歩3",NA,"東京都",0,NA
"7704106","つけ麺専門 百の輔","〒101-0021 東京都千代田区外神田1-6-3 アキバアソビ館 1F",35.699672,139.769512,"JR京浜東北線","秋葉原駅","徒歩5",NA,"東京都",0,NA
"7704537","中華料理 祥和","〒125-0062 東京都葛飾区青戸3-33-13 ",35.747011,139.855975,"京成押上線","青砥駅","徒歩3",NA,"東京都",0,NA
"5499723","コタン","〒202-0002 東京都西東京市ひばりが丘北3-5-4 ",35.753074,139.546001,"西武池袋線","ひばりヶ丘（東京都）駅","徒歩2",NA,"東京都",0,NA
"7632962","濃菜麺 井の庄 荻窪店","〒167-0043 東京都杉並区上荻1-18-3 第2亀屋酒販ビル1F",35.705784,139.617997,"JR中央本線（東京-塩尻）","荻窪駅","徒歩2",NA,"東京都",0,NA
"7375318","ばんから 立川北口店","〒190-0012 東京都立川市曙町2-2-25 立川タクロスビル　1F",NA,NA,"多摩都市モノレール線","立川南駅","徒歩2",NA,"東京都",0,NA
"7279704","横浜家系ラーメン希家 矢口渡店","〒146-0095 東京都大田区多摩川1-6-19 ",35.562891,139.700054,"東急多摩川線","矢口渡駅","徒歩1",NA,"東京都",1,3.5
"7740867","鶏そば、鯛そば 久松","〒171-0014 東京都豊島区池袋2-18-2 オーロラビル1F",35.732289,139.705952,"東京メトロ副都心線","池袋駅","徒歩1",NA,"東京都",0,NA
"7625046","よってこや 五反田店","〒141-0031 東京都品川区西五反田2-7-1 ",NA,NA,"都営浅草線","五反田駅","徒歩1",NA,"東京都",0,NA
"7665487","札幌熟成味噌らーめん匠神 湯島店","〒113-0034 東京都文京区湯島3-16-9 ",35.705868,139.769568,"東京メトロ千代田線","湯島駅","徒歩1",NA,"東京都",0,NA
"5499220","幸楽苑青梅店","〒198-0032 東京都青梅市野上町3-1-6 ",35.788663,139.287033,"JR青梅線","河辺駅","徒歩7",NA,"東京都",0,NA
"6044674","札幌や","〒105-0003 東京都港区西新橋1-19-6 ",35.667742,139.752793,"都営三田線","内幸町駅","徒歩1",NA,"東京都",0,NA
"7745981","背油とんこつらーめん 雷門","〒135-0047 東京都江東区富岡1-7-3 深山ビル1F",35.671698,139.796022,"","","",NA,"東京都",0,NA
"7520607","塩そば 加とう","〒152-0035 東京都目黒区自由ヶ丘1-31-9 ",35.606813,139.66823,"東急大井町線","自由が丘（東京都）駅","徒歩1",NA,"東京都",0,NA
"5713333","支那そば いしはら","〒167-0042 東京都杉並区西荻北3-22-22 ",35.704808,139.599932,"ＪＲ中央本線（東京-塩尻）","西荻窪駅","徒歩1",NA,"東京都",5,5
"6431486","麺屋すみす","〒107-0062 東京都港区南青山2-2-15 ウィン青山 1F",35.671543,139.723917,"東京メトロ半蔵門線","青山一丁目駅","徒歩1",NA,"東京都",2,NA
"7412415","ファミリー亭","〒124-0011 東京都葛飾区四つ木4-30-29 ",35.740927,139.835247,"京成本線","お花茶屋駅","徒歩13",NA,"東京都",0,NA
"7415902","らぁめん山と樹","〒166-0003 東京都杉並区高円寺南5-21-7 高円寺マンション107",35.703362,139.655084,"JR中央本線","高円寺駅","徒歩10",NA,"東京都",0,NA
"7745966","鴨出汁中華蕎麦 麺屋yoshiki","〒124-0023 東京都葛飾区東新小岩1-3-7 ",35.719075,139.858262,"","","",NA,"東京都",0,NA
"7190844","鯛塩そば 灯花","〒160-0006 東京都新宿区舟町12-13 石原マンション1F",35.690913,139.721706,"都営新宿線","曙橋駅","徒歩2",NA,"東京都",2,NA
"7745923","ラーメン魁力屋 多摩ニュータウン通り店","〒206-0014 東京都多摩市乞田1164-1 ",35.632134,139.441293,"","","",NA,"東京都",0,NA
"6310249","らあめん花月嵐 京王八王子店","〒192-0082 東京都八王子市東町1-2 ",35.657696,139.341189,"京王線","京王八王子駅","徒歩2",NA,"東京都",0,NA
"5499408","ラーメン大桜 町田森野店","〒194-0022 東京都町田市森野6-367-1 ",35.551435,139.43158,"JR横浜線","古淵駅","徒歩18",NA,"東京都",1,3
"5499454","ちば唐麺","〒187-0002 東京都小平市花小金井1-36-15 ",35.725951,139.519252,"西武新宿線","花小金井駅","徒歩7",NA,"東京都",0,NA
"6714092","当り屋","〒203-0043 東京都東久留米市下里3-6-17 ",35.750778,139.500714,"西武拝島線","小平駅","徒歩28",NA,"東京都",0,NA
"7751592","高尾タンメン 頂","〒193-0831 東京都八王子市並木町12-8 ",35.652106,139.301857,"","","",NA,"東京都",0,NA
"6956440","浜屋 西新井店","〒123-0843 東京都足立区西新井栄町1-14-15 ",35.773972,139.790671,"東武伊勢崎線（東武スカイツリーライン）","西新井駅","徒歩5",NA,"東京都",0,NA
"6439029","麺屋 ほたる","〒114-0023 東京都北区滝野川7-2-10 SSKビル1F",35.745913,139.720329,"JR埼京線","板橋駅","徒歩1",NA,"東京都",3,3.5
"5499697","ラーメンショップ椿 緑ヶ丘店","〒205-0003 東京都羽村市緑ケ丘4-3-11 ",35.771082,139.315437,"JR青梅線","小作駅","徒歩22",NA,"東京都",0,NA
"6208089","みそや林檎堂 APPLE BASIC","〒164-0003 東京都中野区東中野1-31-8 井上ビル 1F",35.703997,139.682703,"都営大江戸線（放射部）","東中野駅","徒歩4",NA,"東京都",2,1.5
"7501721","ラーメン バラそば屋 阿佐ヶ谷店","〒166-0001 東京都杉並区阿佐谷北2-13-2 パサージュ阿佐ケ谷1F",35.705745,139.636121,"JR中央本線（東京-塩尻）","阿佐ヶ谷駅","徒歩3",NA,"東京都",0,NA
"6012737","らーめん しおの風","〒121-0813 東京都足立区竹の塚6-24-16 ",35.797642,139.794279,"東武伊勢崎線","竹ノ塚駅","徒歩7",NA,"東京都",7,4
"7134667","てんがら 青梅新町店","〒198-0024 東京都青梅市新町6-8-1 マルハン青梅新町ビル",35.789644,139.317014,"JR青梅線","小作駅","徒歩30",NA,"東京都",0,NA
"7671281","にぼ吉","〒120-0041 東京都足立区千住元町17-3 沢井ビル1F",35.755158,139.794166,"東京メトロ千代田線","北千住駅","徒歩16",NA,"東京都",0,NA
"1020617","ハッスルラーメン ホンマ 浅草店","〒111-0032 東京都台東区浅草3-1-2 ",35.716037,139.798318,"東武伊勢崎線","浅草駅","徒歩6",700,"東京都",2,3
"6417378","太陽のトマト麺 三田支店","〒108-0073 東京都港区三田3-3-3 ",35.647246,139.743744,"都営三田線","三田（東京都）駅","徒歩4",NA,"東京都",3,3.5
"7747611","西安麺荘 秦唐記 神保町店","〒101-0051 東京都千代田区神田神保町3-2-5 九段ロイヤルビル1F",35.696075,139.754142,"東京メトロ半蔵門線","神保町駅","徒歩2",NA,"東京都",0,NA
"6938611","たまがわや","〒158-0097 東京都世田谷区用賀4-18-11 ",35.628568,139.633013,"東急田園都市線","用賀駅","徒歩3",NA,"東京都",0,NA
"6155452","いつみ屋","〒183-0027 東京都府中市本町1-7-2 ",35.668012,139.476858,"JR南武線（川崎-立川）","府中本町駅","徒歩3",NA,"東京都",4,4.375
"6167597","江川亭 武蔵村山店","〒208-0034 東京都武蔵村山市残堀5-1-1 ",35.751197,139.373872,"","","",NA,"東京都",0,NA
"6297561","一","〒150-0001 東京都渋谷区神宮前3-23-1 NODERA BLDG B1F",35.67084,139.707397,"東京メトロ副都心線","明治神宮前駅","徒歩4",NA,"東京都",2,5
"6332389","横濱家 高尾店","〒193-0844 東京都八王子市高尾町1599-45 ",35.644626,139.283848,"京王高尾線","高尾（東京都）駅","徒歩4",NA,"東京都",0,NA
"5499434","宝来軒","〒184-0003 東京都小金井市緑町1-1-17 ",35.702479,139.521258,"JR中央本線（東京-塩尻）","東小金井駅","徒歩5",NA,"東京都",1,2
"5496561","福寿","〒102-0083 東京都千代田区麹町4-8 高善ビル1F",35.684678,139.736269,"東京メトロ有楽町線","麹町駅","徒歩2",NA,"東京都",0,NA
"6163965","ラーメン王","〒160-0021 東京都新宿区歌舞伎町1-15-11 大河原ビル1F",NA,NA,"東京メトロ丸ノ内線","新宿駅","徒歩2",NA,"東京都",0,NA
"7170238","小川 昭島店","〒196-0014 東京都昭島市田中町1-24-17 和田ビル 1F",35.705763,139.354692,"ＪＲ青梅線","昭島駅","徒歩14",NA,"東京都",0,NA
"5713209","油そば専門店浜そば 本店","〒113-0034 東京都文京区湯島3-46-2 ",35.70836,139.770537,"東京メトロ千代田線","湯島駅","徒歩1",NA,"東京都",5,4
"7648515","赤坂味一 亀戸店","〒136-0071 東京都江東区亀戸2-31-8 通達ビル1F",35.698962,139.823802,"JR総武本線（東京-銚子）","亀戸駅","徒歩4",NA,"東京都",2,NA
"7617287","天竜 蒲田店","〒144-0051 東京都大田区西蒲田7-1-5 宮本ビル1F",35.5635,139.71615,"東急多摩川線","蒲田駅","徒歩2",NA,"東京都",0,NA
"5801596","らあめん花月嵐 武蔵関店","〒177-0051 東京都練馬区関町北2-27-12 ",35.727136,139.576839,"西武新宿線","武蔵関駅","徒歩1",NA,"東京都",0,NA
"6129999","ラーメン リバーサイド","〒134-0088 東京都江戸川区西葛西8-6 ",NA,NA,"","","",NA,"東京都",0,NA
"6771182","らーめん てんぐ","〒132-0024 東京都江戸川区一之江4-11-1 ",35.69062,139.880517,"都営新宿線","一之江駅","徒歩8",NA,"東京都",0,NA
"7198187","徳福 神田店","〒101-0047 東京都千代田区内神田3-21-8 神田駅北口合同ビル 1F",NA,NA,"ＪＲ中央本線（東京-塩尻）","神田（東京都）駅","徒歩1",NA,"東京都",0,NA
"6393138","横浜家系ラーメン 武虎家","〒152-0011 東京都目黒区原町1-8-9 ",35.615685,139.698178,"東急目黒線","西小山駅","徒歩1",NA,"東京都",0,NA
"7633259","中華そば 天","〒114-0034 東京都北区上十条2-8-10 ",35.759406,139.721589,"JR埼京線","十条（東京都）駅","徒歩2",NA,"東京都",0,NA
"7415276","らーめん 清龍","〒136-0072 東京都江東区大島5-45-12 ",35.68933,139.836738,"都営新宿線","大島（東京都）駅","徒歩1",NA,"東京都",0,NA
"6356339","らーめん なが田","〒136-0071 東京都江東区亀戸5-17-22 ",35.699596,139.82681,"東武亀戸線","亀戸駅","徒歩4",NA,"東京都",2,3
"5498371","王子ラーメン","〒114-0003 東京都北区豊島3-12-18 ",35.761347,139.743257,"東京メトロ南北線","王子神谷駅","徒歩13",NA,"東京都",4,3
"7085371","葛西 めんや","〒134-0083 東京都江戸川区中葛西5-43-1 メトロセンター",35.663609,139.872186,"東京メトロ東西線","葛西駅","徒歩1",NA,"東京都",0,NA
"6166550","おおむら","〒180-0003 東京都武蔵野市吉祥寺南町1-3-1 ",35.702536,139.579689,"京王井の頭線","吉祥寺駅","徒歩1",NA,"東京都",0,NA
"6167632","麺や 天鳳 東中野店","〒164-0003 東京都中野区東中野3-14-21 ",35.709785,139.684091,"東京メトロ東西線","落合（東京都）駅","徒歩1",NA,"東京都",0,NA
"6940122","横浜家系ラーメン 一刀家","〒107-0052 東京都港区赤坂3-14-2 ドルミ赤坂1F",35.673866,139.737311,"東京メトロ千代田線","赤坂（東京都）駅","徒歩2",NA,"東京都",3,3
"6155372","中華 永楽","〒136-0076 東京都江東区南砂6-1-10 ",35.672009,139.832719,"東京メトロ東西線","南砂町駅","徒歩5",NA,"東京都",0,NA
"6996008","超大吉 上野店","〒110-0005 東京都台東区上野6-6-4 ",35.708813,139.7759,"都営大江戸線（環状部）","上野御徒町駅","徒歩2",NA,"東京都",1,3.5
"7657753","東京まぜそば 本舗","〒142-0064 東京都品川区旗の台3-11-13 Mラボ旗の台1F",35.605403,139.704202,"東急大井町線","旗の台駅","徒歩1",NA,"東京都",0,NA
"7652541","田中そば店 浅草店","〒111-0032 東京都台東区浅草1-1-8 ",35.711557,139.797188,"","","",NA,"東京都",0,NA
"5499285","すずらん","〒196-0024 東京都昭島市宮沢町525-15 ",35.714624,139.376701,"JR青梅線","中神駅","徒歩10",NA,"東京都",0,NA
"7273571","由丸製麺所 平和島店","〒143-0016 東京都大田区大森北3-39-5 ",35.582715,139.736234,"京急本線","大森海岸駅","徒歩7",NA,"東京都",0,NA
"5894946","ラーメン魁力屋 武蔵村山店","〒208-0011 東京都武蔵村山市学園3-35-1 ",35.748443,139.406294,"多摩都市モノレール線","上北台駅","徒歩13",NA,"東京都",1,3.5
"7710294","伊蔵八 中華そば","〒153-0052 東京都目黒区祐天寺2-13-4 エトモ祐天寺",35.637718,139.691338,"東急東横線","祐天寺駅","徒歩1",NA,"東京都",0,NA
"7349741","博多天神 渋谷南口店","〒150-0043 東京都渋谷区道玄坂1-5-4 照力ビル1F",35.657927,139.699478,"京王井の頭線","渋谷駅","徒歩1",NA,"東京都",2,2.25
"6718317","広州市場 新宿東口店","〒160-0022 東京都新宿区新宿3-17-13 KBビル1F",35.692535,139.703049,"東京メトロ丸ノ内線","新宿三丁目駅","徒歩1",NA,"東京都",3,4.5
"6718279","札幌麺や鬼てつ","〒132-0024 東京都江戸川区一之江5-13-12 ",NA,NA,"都営新宿線","一之江駅","徒歩17",NA,"東京都",0,NA
"7162130","極や 上野広小路店","〒110-0005 東京都台東区上野4-4-3 ハトヤビル1号館 1F",35.708168,139.773451,"東京メトロ銀座線","上野広小路駅","徒歩1",NA,"東京都",0,NA
"6937678","いし井 五反田店","〒141-0031 東京都品川区西五反田1-24-4 ",35.623757,139.7222,"東急池上線","大崎広小路駅","徒歩3",NA,"東京都",0,NA
"7588921","パークス 代々木の丘","〒151-0052 東京都渋谷区代々木神園町2 代々木公園",NA,NA,"東京メトロ副都心線","明治神宮前駅","徒歩10",NA,"東京都",0,NA
"6155435","ラーメン 藍華","〒192-0063 東京都八王子市元横山町2-22-3 ",35.662878,139.333301,"JR中央本線（東京-塩尻）","八王子駅","徒歩13",NA,"東京都",0,NA
"7134114","中華そば 七麺鳥","〒110-0003 東京都台東区根岸2-18-23 ",35.724847,139.77875,"ＪＲ京浜東北線","鶯谷駅","徒歩4",NA,"東京都",0,NA
"6166167","壱蔵","〒121-0062 東京都足立区南花畑2-26-19 ルピナス南花畑1F",35.790402,139.821866,"つくばエクスプレス","六町駅","徒歩7",NA,"東京都",1,4
"7433367","支那そば たなか","〒166-0001 東京都杉並区阿佐谷北5-18-7 ",35.707804,139.63967,"JR中央本線（東京-塩尻）","阿佐ヶ谷駅","徒歩6",NA,"東京都",0,NA
"7472199","せい家町田店","〒194-0013 東京都町田市原町田6-10-3 ",35.543745,139.446204,"小田急小田原線","町田駅","徒歩1",NA,"東京都",0,NA
"7266845","中華そば きび","〒156-0043 東京都世田谷区松原2-42-5 明大前フラワーハイホーム1F",35.668761,139.648985,"京王井の頭線","明大前駅","徒歩2",NA,"東京都",0,NA
"5713404","博多長浜らーめん 六角堂 八王子店","〒192-0355 東京都八王子市堀之内2-12-5 ",35.629403,139.401969,"京王相模原線","京王堀之内駅","徒歩10",NA,"東京都",1,4
"5499357","九一麺 町田","〒194-0203 東京都町田市図師町559-22 ",35.581779,139.419164,"","","",NA,"東京都",0,NA
"7710267","中華ソバ ビリケン","〒111-0034 東京都台東区雷門2-4-1 岡安ビル1F",35.70908,139.795726,"都営浅草線","浅草駅","徒歩1",NA,"東京都",0,NA
"7738671","AFURI南町田グランベリーパーク","〒194-0004 東京都町田市鶴間3-4-1 セントラルコート1F",35.509583,139.470451,"東急田園都市線","南町田グランベリーパーク駅","徒歩2",NA,"東京都",0,NA
"7653176","めん屋 桔梗 沼袋店","〒165-0022 東京都中野区江古田4-6-3 ",35.724016,139.662876,"","","",NA,"東京都",0,NA
"5497152","朝日山","〒111-0022 東京都台東区清川1-6-3 ",35.723014,139.801803,"東京メトロ日比谷線","南千住（地下鉄線）駅","徒歩13",NA,"東京都",0,NA
"7754983","孫鈴舎","〒100-0005 東京都千代田区丸の内1-10-9 ",35.67858,139.765641,"JR京葉線","東京駅","徒歩1",NA,"東京都",0,NA
"6767784","大信州","〒131-0032 東京都墨田区東向島6-51-1 ",35.726031,139.822474,"東武伊勢崎線","東向島駅","徒歩4",NA,"東京都",0,NA
"7647048","食処もとまちや","〒100-0101 東京都大島町元町2-11-4 ",34.748806,139.355324,"","","",NA,"東京都",0,NA
"5496749","桂","〒107-0052 東京都港区赤坂2-10-16 早川ビル1F",35.670566,139.74158,"東京メトロ南北線","溜池山王駅","徒歩1",NA,"東京都",0,NA
"7270837","十兵衛","〒177-0045 東京都練馬区石神井台3-24-39 ",35.743293,139.590345,"西武池袋線","大泉学園駅","徒歩12",NA,"東京都",0,NA
"7746056","京風らーめん＆甘味処 もも花","〒171-0022 東京都豊島区南池袋1-28-1 西武池袋本店7F",35.728572,139.711758,"","","",NA,"東京都",0,NA
"7075122","鶏そば十番156 麻布十番本店","〒106-0045 東京都港区麻布十番2-1-10 ",35.655365,139.736181,"東京メトロ南北線","麻布十番駅","徒歩1",NA,"東京都",3,4.33333333333333
"7227738","護摩龍","〒169-0073 東京都新宿区百人町1-23-17 大久保南口共同ビル1F",35.69992,139.697566,"ＪＲ中央本線（東京-塩尻）","大久保（東京都）駅","徒歩1",NA,"東京都",2,NA
"5499043","元木屋","〒192-0055 東京都八王子市八木町7-11 ",35.661567,139.323116,"ＪＲ中央本線（東京-塩尻）","西八王子駅","徒歩16",NA,"東京都",0,NA
"7151738","らーめんまる玉 大島店","〒136-0072 東京都江東区大島4-8-13 ",35.689366,139.832149,"都営新宿線","大島（東京都）駅","徒歩2",NA,"東京都",2,NA
"5399561","仙楽園","〒124-0022 東京都葛飾区奥戸2-14-32 ",35.736247,139.855734,"京成押上線","京成立石駅","徒歩10",NA,"東京都",0,NA
"5499710","美イ美","〒197-0822 東京都あきる野市小川東3-10-4 ",35.720238,139.32225,"JR五日市線","東秋留駅","徒歩18",NA,"東京都",0,NA
"5498542","武蔵家 板橋店","〒174-0071 東京都板橋区常盤台1-63-9 ",35.758244,139.694122,"東武東上線","中板橋駅","徒歩5",NA,"東京都",2,3
"7686379","札幌本舗 クレアタワー店","〒105-0013 東京都港区浜松町2-3-1 日本生命浜松町クレアタワー B1F",NA,NA,"都営大江戸線（環状部）","大門（東京都）駅","徒歩2",NA,"東京都",1,4.5
"7578907","菜香苑 新御茶ノ水・神田店","〒101-0052 東京都千代田区神田小川町1-7 2F",35.694048,139.765731,"地下鉄千代田線","新御茶ノ水駅","徒歩1",NA,"東京都",0,NA
"7268816","BASSO 江戸川橋","〒162-0801 東京都新宿区山吹町130-15 ",35.707145,139.730507,"地下鉄有楽町線","江戸川橋駅","徒歩6",NA,"東京都",0,NA
"7433064","陽はまたのぼる","〒120-0005 東京都足立区綾瀬2-1-4 ",35.758044,139.826155,"東京メトロ千代田線","綾瀬駅","徒歩8",NA,"東京都",0,NA
"6393166","麺や越","〒112-0001 東京都文京区白山5-36-2 ",35.721483,139.752041,"都営三田線","白山（東京都）駅","徒歩1",NA,"東京都",0,NA
"6193738","麺屋 とみ吉","〒160-0017 東京都新宿区左門町3-1 左門イレブンビル1F",35.687233,139.720067,"東京メトロ丸ノ内線","四谷三丁目駅","徒歩1",NA,"東京都",0,NA
"6747102","いとうや","〒140-0004 東京都品川区南品川5-9-26 ",35.611384,139.740121,"京急本線","青物横丁駅","徒歩4",NA,"東京都",0,NA
"7182255","九州博多らーめん麺屋悟空","〒190-0023 東京都立川市柴崎町3-6-29 アレアレア2 3F ラーメンスクエア",35.696271,139.413138,"多摩都市モノレール線","立川南駅","徒歩1",NA,"東京都",0,NA
"7641905","長尾中華そば 神田店","〒150-0002 東京都千代田区神田小川町1-7 神田小川町ハイツ108",35.694042,139.765834,"地下鉄丸ノ内線","淡路町駅","徒歩2",NA,"東京都",0,NA
"7382098","辛っとろ麻婆麺 あかずきん","〒157-0073 東京都世田谷区砧8-6-27 ",35.640791,139.608009,"小田急小田原線","祖師ヶ谷大蔵駅","徒歩3",NA,"東京都",0,NA
"5499019","弁慶","〒192-0045 東京都八王子市大和田町3-7-15 ",35.662401,139.354024,"JR八高線（八王子-高麗川）","北八王子駅","徒歩15",NA,"東京都",0,NA
"5498699","ひさごや","〒121-0075 東京都足立区一ツ家2-13-9 ",35.783836,139.810928,"つくばエクスプレス","六町駅","徒歩14",NA,"東京都",0,NA
"7754802","熟成味噌タンメン 蔵味噌屋","〒103-0025 東京都中央区日本橋茅場町1-12-1 新井ビルB1．1F",35.679488,139.780654,"東京メトロ日比谷線","茅場町駅","徒歩1",NA,"東京都",0,NA
"7646966","麺や そめいよしの 西荻窪店","〒167-0053 東京都杉並区西荻南3-10-9 NSツインビル1F",35.703214,139.599935,"JR中央本線（東京-塩尻）","西荻窪駅","徒歩1",NA,"東京都",0,NA
"7115290","俺流塩らーめん 東急本店前","〒150-0043 東京都渋谷区道玄坂2-23-1 小池ビル1F",35.660221,139.696356,"東京メトロ半蔵門線","渋谷駅","徒歩3",NA,"東京都",0,NA
"5661055","大勝軒 まるいち 赤羽店","〒115-0045 東京都北区赤羽1-5-2 スガイガーデンビル1F",35.778323,139.722155,"JR京浜東北線","赤羽駅","徒歩1",NA,"東京都",0,NA
"7563225","節骨麺たいぞう 葛西店","〒134-0083 東京都江戸川区中葛西5-19-18 ニューステージKASAIビル1F",35.663562,139.871261,"東京メトロ東西線","葛西駅","徒歩1",NA,"東京都",0,NA
"6961781","味噌らーめん 宮本太郎。","〒174-0076 東京都板橋区上板橋3-10-1 ",35.764731,139.675101,"東武東上線","上板橋駅","徒歩3",NA,"東京都",0,NA
"6308261","ロジェ カフェヌードル","〒113-0034 東京都文京区湯島2-3-15 田丸ビル1F",35.703349,139.76589,"東京メトロ丸ノ内線","御茶ノ水駅","徒歩7",NA,"東京都",0,NA
"7480819","らーめん一力堂 三田店","〒108-0014 東京都港区芝5-22-6 ",35.647894,139.746483,"都営三田線","三田（東京都）駅","徒歩2",NA,"東京都",0,NA
"7685664","ラーメン凪 田町店","〒108-0023 東京都港区芝浦3-1-30 ",35.644675,139.748547,"JR京浜東北線","田町（東京都）駅","徒歩2",NA,"東京都",0,NA
"5668071","串とろ","〒106-0032 東京都港区六本木7-12-3 パワーハウスビル1F",35.664375,139.730556,"都営大江戸線（環状部）","六本木駅","徒歩1",NA,"東京都",1,4
"6167605","麺や天鳳 方南町店","〒168-0062 東京都杉並区方南2-18-3 ",35.684118,139.659773,"東京メトロ丸ノ内線（中野坂上-方南町）","方南町駅","徒歩2",NA,"東京都",0,NA
"6211857","神保町 可以","〒101-0051 東京都千代田区神田神保町2-2-12 サンエスビル1F",35.696336,139.757403,"東京メトロ半蔵門線","神保町駅","徒歩1",NA,"東京都",9,2
"7646491","麺ハチイチ／81 NOODLE BAR","〒180-0004 東京都武蔵野市吉祥寺本町2-21-10 モミジ第三ビル1F",35.703244,139.575798,"京王井の頭線","吉祥寺駅","徒歩5",NA,"東京都",0,NA
"7257419","麺屋 ふじ田","〒116-0014 東京都荒川区東日暮里5-52-5 ",35.727391,139.772264,"JR京浜東北線","日暮里駅","徒歩2",NA,"東京都",2,3.5
"1005450","たつみ","〒182-0026 東京都調布市小島町1-14-2 ドミンゴ101",35.654239,139.542563,"京王線","調布駅","徒歩3",NA,"東京都",1,3
"7198268","百家","〒158-0097 東京都世田谷区用賀4-3-7 西村ビル1階",35.626876,139.634316,"東急田園都市線","用賀駅","徒歩1",NA,"東京都",0,NA
"6372676","長浜らーめん","〒192-0034 東京都八王子市大谷町355-2 ",35.677194,139.354326,"JR八高線（八王子-高麗川）","北八王子駅","徒歩19",NA,"東京都",0,NA
"7686726","特濃中華そば 龍桜","〒121-0064 東京都足立区保木間5-25-23 ",35.804533,139.802677,"東武伊勢崎線","谷塚駅","徒歩16",NA,"東京都",5,3.5
"5497572","ラーメン隊","〒153-0062 東京都目黒区三田2-7-18 ",35.639727,139.711178,"ＪＲ山手線","目黒駅","徒歩10",NA,"東京都",0,NA
"5498604","丸源ラーメン 練馬関町店","〒177-0051 東京都練馬区関町北5-7-5 ",35.731466,139.571831,"西武新宿線","武蔵関駅","徒歩10",NA,"東京都",5,3.7
"7582871","札幌ラーメン どさん子 千住一丁目店","〒120-0034 東京都足立区千住1-23-11 ",35.747588,139.801552,"地下鉄千代田線","北千住駅","徒歩6",NA,"東京都",0,NA
"7104935","カシムラ","〒105-0021 東京都港区東新橋2-10-2 中銀新橋マンシオン1F",35.661343,139.756554,"都営大江戸線（環状部）","汐留駅","徒歩3",NA,"東京都",0,NA
"6155389","昭島 大勝軒","〒196-0015 東京都昭島市昭和町2-1-15 ",35.713293,139.361149,"JR青梅線","昭島駅","徒歩1",NA,"東京都",1,4
"6436785","八海ラーメン","〒183-0016 東京都府中市八幡町2-19-22 ",35.669643,139.487754,"京王競馬場線","府中競馬正門前駅","徒歩5",NA,"東京都",0,NA
"7084012","山川屋","〒179-0083 東京都練馬区平和台2-28-7 ",35.762467,139.662086,"東京メトロ有楽町線","平和台（東京都）駅","徒歩12",NA,"東京都",0,NA
"6952290","いなり","〒180-0006 東京都武蔵野市中町1-19-9 ",35.704941,139.562891,"JR中央本線（東京-塩尻）","三鷹駅","徒歩5",NA,"東京都",1,3
"7734268","なおじ 新橋店","〒105-0004 東京都港区新橋4-15-3 ",35.664528,139.75704,"JR京浜東北線","新橋駅","徒歩2",NA,"東京都",0,NA
"7433390","三足 聖蹟桜ヶ丘店","〒206-0011 東京都多摩市関戸1-1-5 スクエア1F",35.651835,139.445936,"京王線","聖蹟桜ヶ丘駅","徒歩3",NA,"東京都",0,NA
"6186150","ラーメン二郎 新宿小滝橋通り店","〒160-0023 東京都新宿区西新宿7-5-5 1F",NA,NA,"西武新宿線","西武新宿駅","徒歩3",NA,"東京都",1,NA
"5396933","中華三原","〒104-0061 東京都中央区銀座5-9-5 ",35.670289,139.765636,"東京メトロ日比谷線","東銀座駅","徒歩1",NA,"東京都",5,3.5
"7069838","味の天徳 分倍河原店","〒183-0021 東京都府中市片町2-20-13 ",35.668984,139.469042,"京王線","分倍河原駅","徒歩1",NA,"東京都",0,NA
"7378430","初代えーいち","〒178-0063 東京都練馬区東大泉6-52-11 1F",NA,NA,"西武池袋線","大泉学園駅","徒歩4",NA,"東京都",0,NA
"5499645","みよし","〒208-0021 東京都武蔵村山市三ツ藤1-20-9 ",NA,NA,"","","",NA,"東京都",0,NA
"5498049","藤華","〒164-0001 東京都中野区中野5-2-2 ",35.706746,139.672354,"東京メトロ東西線","中野（東京都）駅","徒歩8",NA,"東京都",0,NA
"7509973","らーめん酒場 青山","〒161-0033 東京都新宿区下落合4-27-9 ",35.722026,139.697382,"西武池袋線","椎名町駅","徒歩8",NA,"東京都",0,NA
"7645873","麺匠 きんいろ 水道橋","〒101-0061 東京都千代田区神田三崎町2-14-6 会澤ビル1F",35.700449,139.753178,"JR中央本線（東京-塩尻）","水道橋駅","徒歩3",NA,"東京都",0,NA
"6742048","ラーメン 吉田屋","〒135-0006 東京都江東区常盤2-10-8 ",35.685505,139.798241,"都営新宿線","森下（東京都）駅","徒歩2",NA,"東京都",0,NA
"7397751","KaneKitchen Noodles","〒171-0052 東京都豊島区南長崎5-26-15 マチテラス南長崎2FA",35.728977,139.682732,"西武池袋線","東長崎駅","徒歩1",NA,"東京都",0,NA
"5498865","ちりめん亭 中葛西店","〒134-0083 東京都江戸川区中葛西5-15-9 ",35.662959,139.867614,"東京メトロ東西線","葛西駅","徒歩7",NA,"東京都",1,3
"7644242","江戸前つけ麺 銀座 魄瑛","〒104-0061 東京都中央区銀座4-10-1 holon-ginza 2F",35.670772,139.767535,"ＪＲ","有楽町駅","徒歩8",NA,"東京都",0,NA
"5839943","めん処 さんば","〒103-0026 東京都中央区日本橋兜町11-11 ニッシンビル1F",35.679755,139.776177,"東京メトロ日比谷線","茅場町駅","徒歩3",NA,"東京都",0,NA
"5497315","らーめんごっこ山小屋","〒130-0011 東京都墨田区石原4-14-6 ",NA,NA,"ＪＲ総武本線（東京-銚子）","錦糸町駅","徒歩12",NA,"東京都",0,NA
"7710352","田中そば店 武蔵境店","〒180-0022 東京都武蔵野市境2-2-22 宮城屋ビル",35.703324,139.544054,"西武多摩川線","武蔵境駅","徒歩2",NA,"東京都",0,NA
"5499555","シナノヤ","〒197-0011 東京都福生市大字福生977-18 ",35.745049,139.325501,"JR青梅線","福生駅","徒歩5",NA,"東京都",0,NA
"5498885","万来軒","〒133-0057 東京都江戸川区西小岩2-7-8 ",35.734151,139.873594,"ＪＲ総武本線（東京-銚子）","小岩駅","徒歩11",NA,"東京都",0,NA
"5499498","くるまやラーメン 東村山店","〒189-0002 東京都東村山市青葉町3-2-4 ",35.766349,139.490598,"JR武蔵野線（府中本町-南船橋）","新秋津駅","徒歩20",NA,"東京都",0,NA
"5399393","珍来 竹の塚西口店","〒121-0822 東京都足立区西竹の塚1-13-6 ",35.794089,139.789307,"東武伊勢崎線","竹ノ塚駅","徒歩2",NA,"東京都",0,NA
"7726917","博多長浜ラーメン 風び 国立店","〒186-0002 東京都国立市東1-15-32 市川ビル1F",35.697097,139.448442,"JR中央本線（東京-塩尻）","国立駅","徒歩4",NA,"東京都",0,NA
"5619419","大田屋","〒144-0056 東京都大田区西六郷4-17-2-202 ",35.541535,139.706707,"京急本線","六郷土手駅","徒歩2",NA,"東京都",0,NA
"6364825","自家製麺 伊藤 浅草店","〒111-0032 東京都台東区浅草1-24-4 ",35.712382,139.792682,"つくばエクスプレス","浅草（つくばエクスプレス）駅","徒歩2",NA,"東京都",0,NA
"5499588","ごてん","〒207-0013 東京都東大和市向原4-7-17 ",35.738384,139.444683,"西武拝島線","東大和市駅","徒歩14",NA,"東京都",0,NA
"7523865","麺家 六三四","〒133-0057 東京都江戸川区西小岩1-6-19 ",35.730094,139.876811,"JR総武本線（東京-銚子）","小岩駅","徒歩7",NA,"東京都",0,NA
"7669278","らーめん 藪づか","〒110-0005 東京都台東区上野3-13-1 西武ビル1F",35.705124,139.773118,"東京メトロ銀座線","末広町（東京都）駅","徒歩4",NA,"東京都",0,NA
"6186231","エース軒","〒140-0011 東京都品川区東大井5-7-8 ",35.607076,139.738299,"JR京浜東北線","大井町駅","徒歩4",NA,"東京都",0,NA
"7472213","北海道らーめん 伝丸 羽村店","〒205-0002 東京都羽村市栄町1-12-4 ",35.774359,139.306841,"JR青梅線","小作駅","徒歩7",NA,"東京都",0,NA
"6125018","桂園 本郷三丁目店","〒113-0033 東京都文京区本郷3-34-4 田中ビル1F",35.707276,139.760839,"地下鉄丸ノ内線","本郷三丁目駅","徒歩2",2500,"東京都",0,NA
"5496484","中華そば青葉 飯田橋店","〒102-0071 東京都千代田区富士見2-12-16 ",35.698874,139.744603,"JR中央本線（東京-塩尻）","飯田橋駅","徒歩3",800,"東京都",5,3.9
"7085490","由丸 九段下店","〒102-0073 東京都千代田区九段北1-4-6 九段河合ビル1F",35.696574,139.7514,"東京メトロ東西線","九段下駅","徒歩2",NA,"東京都",0,NA
"7523896","らーめん 高はし","〒154-0004 東京都世田谷区太子堂4-23-4 ",35.643884,139.67052,"東急田園都市線","三軒茶屋駅","徒歩1",NA,"東京都",0,NA
"7380857","Pal","〒143-0016 東京都大田区大森北1-33-10 ",35.585214,139.726804,"JR京浜東北線","大森（東京都）駅","徒歩6",NA,"東京都",0,NA
"5498652","くるまやラーメン 青井店","〒121-0012 東京都足立区青井5-5-15 ",35.778281,139.817097,"つくばエクスプレス","青井駅","徒歩12",NA,"東京都",0,NA
"7745621","しゅういち 恵比寿店","〒150-0021 東京都渋谷区恵比寿西1-9-2 YAMAビルB1",35.647215,139.70832,"地下鉄日比谷線","恵比寿駅","徒歩1",NA,"東京都",2,NA
"7199934","麺処 花札","〒111-0032 東京都台東区浅草2-19-7 浅草永谷ビル1F",35.717018,139.793135,"つくばエクスプレス","浅草（つくばエクスプレス）駅","徒歩5",NA,"東京都",0,NA
"7660324","ど みそ グランデュオ立川店","〒190-0023 東京都立川市柴崎町3-2-1 グランデュオ立川7F",35.697387,139.414832,"","","",NA,"東京都",0,NA
"7690925","和歌山ラーメン まる岡","〒125-0061 東京都葛飾区亀有5-20-14 ",35.767852,139.845873,"JR常磐線","亀有駅","徒歩4",NA,"東京都",0,NA
"5713456","らあめん花月嵐 羽村店","〒205-0023 東京都羽村市神明台1-17-6 ",35.755379,139.320704,"JR青梅線","羽村駅","徒歩8",NA,"東京都",1,4
"6718319","らーめん村","〒130-0003 東京都墨田区横川3-11-20 桑田ビル1F",35.704517,139.814111,"東京メトロ半蔵門線","押上［スカイツリー前］駅","徒歩6",NA,"東京都",0,NA
"7586001","手包み餃子 中華酒菜たなか 池袋店","〒171-0014 東京都豊島区池袋2-23-1 藤西ビル1F",35.732754,139.704715,"地下鉄副都心線","池袋駅","徒歩3",NA,"東京都",1,5
"7073665","らーめん道 八王子","〒193-0813 東京都八王子市四谷町1917-47 ",35.679889,139.298414,"","","",NA,"東京都",0,NA
"7623565","ひるがお人形町店","〒103-0013 東京都中央区日本橋人形町3-6-7 共同ビル1F",35.686988,139.781462,"東京メトロ日比谷線","人形町駅","徒歩1",NA,"東京都",0,NA
"5498650","熊ぼっこ","〒121-0072 東京都足立区保塚町1-16 ",35.785816,139.810811,"つくばエクスプレス","六町駅","徒歩14",NA,"東京都",0,NA
"6185688","助六","〒113-0033 東京都文京区本郷2-18-10 ",35.705015,139.758335,"東京メトロ丸ノ内線","本郷三丁目駅","徒歩4",NA,"東京都",0,NA
"6441153","つけ麺 結心","〒152-0035 東京都目黒区自由が丘1-11-3 ",35.608271,139.669408,"東急大井町線","自由が丘（東京都）駅","徒歩1",NA,"東京都",5,3.75
"6127542","油そば専門店 春日亭 池袋本店","〒171-0021 東京都豊島区西池袋1-5-4 ",35.727881,139.70843,"東京メトロ副都心線","池袋駅","徒歩3",NA,"東京都",3,3
"6426066","らあめん花月嵐 西蒲田店","〒144-0051 東京都大田区西蒲田8-24-7 ",35.559933,139.714478,"ＪＲ京浜東北線","蒲田駅","徒歩3",NA,"東京都",0,NA
"7287492","札幌ラーメン どさん子 新木場店","〒136-0082 東京都江東区新木場1-6 ",35.645844,139.825982,"ＪＲ京葉線","新木場駅","徒歩4",NA,"東京都",0,NA
"7135294","ラーメン魁力屋 イオンモール多摩平の森店","〒191-0062 東京都日野市多摩平2-4-1 1Fフードコート内",NA,NA,"JR中央本線（東京-塩尻）","豊田駅","徒歩2",NA,"東京都",0,NA
"6913288","ラーメン専門味一","〒202-0014 東京都西東京市富士町4-17-7 片井木ビル1F",35.729224,139.565148,"西武新宿線","東伏見駅","徒歩1",NA,"東京都",1,3.5
"5841998","金竜本店","〒170-0005 東京都豊島区南大塚3-42-7 ",35.729104,139.72822,"都電荒川線","大塚駅前駅","徒歩3",NA,"東京都",0,NA
"7270718","旭屋","〒125-0052 東京都葛飾区柴又1-24-3 ",35.755627,139.87161,"京成金町線","柴又駅","徒歩5",NA,"東京都",0,NA
"6090102","由丸 溜池店","〒107-0052 東京都港区赤坂1-5-15 アネックスビル2F",35.670608,139.743177,"東京メトロ南北線","溜池山王駅","徒歩1",NA,"東京都",10,3
"6384909","葛西大勝軒","〒134-0083 東京都江戸川区中葛西1-31-5 ",35.668239,139.870861,"東京メトロ東西線","葛西駅","徒歩8",NA,"東京都",5,1
"7655956","秦唐記","〒104-0033 東京都中央区新川1-13-6 ",35.675989,139.782579,"JR京葉線","八丁堀（東京都）駅","徒歩4",NA,"東京都",0,NA
"7272663","ラーメン春樹 日暮里店","〒116-0014 東京都荒川区東日暮里5-50-11 ザオービル1F",35.72778,139.772383,"ＪＲ京浜東北線","日暮里駅","徒歩2",NA,"東京都",0,NA
"7361163","煮干し中華そば はるいち","〒150-0002 東京都渋谷区渋谷2-9-10 青山台ビルB1F",35.660741,139.70738,"東京メトロ副都心線","渋谷駅","徒歩6",NA,"東京都",0,NA
"7277485","麺屋大和田","〒150-0043 東京都渋谷区道玄坂1-6-7 ",35.657683,139.699109,"京王井の頭線","渋谷駅","徒歩1",NA,"東京都",0,NA
"6369925","幸楽苑 足立佐野店","〒121-0053 東京都足立区佐野1-35-5 ",35.790155,139.841386,"東京メトロ千代田線（綾瀬-北綾瀬）","北綾瀬駅","徒歩26",NA,"東京都",0,NA
"5498982","たからや食堂","〒192-0042 東京都八王子市中野山王3-23-16 ",35.675276,139.320274,"","","",NA,"東京都",0,NA
"5499400","ラーメンと餃子の店 水岡","〒194-0013 東京都町田市原町田4-4-16 1Ｆ",35.542214,139.447766,"JR横浜線","町田駅","徒歩2",NA,"東京都",0,NA
"6369928","らーめん武蔵堂","〒194-0211 東京都町田市相原町3155-7 ",35.605959,139.303517,"","","",800,"東京都",2,3.5
"7092152","麺屋 求","〒152-0011 東京都目黒区原町1-8-9 ",35.615685,139.698178,"東急目黒線","西小山駅","徒歩1",NA,"東京都",1,5
"7277536","麺花ラーメン","〒121-0801 東京都足立区東伊興1-7-5 ",35.802699,139.782724,"東武伊勢崎線（東武スカイツリーライン）","竹ノ塚駅","徒歩15",NA,"東京都",0,NA
"6663260","めん処羽鳥","〒116-0013 東京都荒川区西日暮里2-28-8 ",35.73061,139.771567,"都営日暮里・舎人ライナー","日暮里駅","徒歩3",NA,"東京都",0,NA
"7645884","麺屋 淳陛屋","〒125-0061 東京都葛飾区亀有2-68-5 サンハイツ亀有105",35.762561,139.852253,"JR常磐線","亀有駅","徒歩8",NA,"東京都",0,NA
"6403155","国立 大和家","〒186-0002 東京都国立市東1-14-10 ",NA,NA,"JR中央本線（東京-塩尻）","国立駅","徒歩5",NA,"東京都",0,NA
"7055835","AFURI 六本木交差点","〒106-0032 東京都港区六本木4-9-4 UFビル4 1F",35.663669,139.732614,"都営大江戸線（環状部）","六本木駅","徒歩1",NA,"東京都",0,NA
"5497100","尾道ラーメン 麺一筋 新大塚店","〒112-0012 東京都文京区大塚4-52-5 青山ビル1F",35.725854,139.730279,"東京メトロ丸ノ内線","新大塚駅","徒歩1",NA,"東京都",0,NA
"7382596","中洲屋台ラーメン 一竜 池袋東口店","〒171-0022 東京都豊島区南池袋1-22-5 ニューナカノビルB1・1F",35.729306,139.712505,"東京メトロ丸ノ内線","池袋駅","徒歩1",NA,"東京都",0,NA
"7515970","栄龍軒","〒123-0864 東京都足立区鹿浜1-13-4 ",35.778013,139.751197,"都営日暮里・舎人ライナー","西新井大師西駅","徒歩26",NA,"東京都",0,NA
"7228325","味噌中華そば ムタヒロ","〒185-0013 東京都国分寺市西恋ケ窪2-6-5 ",35.699939,139.465077,"JR中央本線（東京-塩尻）","西国分寺駅","徒歩1",NA,"東京都",0,NA
"7647419","けんけん商店","〒121-0836 東京都足立区入谷2-12-14 ",35.805857,139.764109,"都営日暮里・舎人ライナー","舎人駅","徒歩7",NA,"東京都",0,NA
"5398556","ごくうらーめん大千元","〒167-0021 東京都杉並区井草4-21-6 ",35.729406,139.613613,"西武新宿線","井荻駅","徒歩7",NA,"東京都",0,NA
"7677045","油そば専門店 ぶらぶら 秋葉原店","〒101-0021 東京都千代田区外神田3-11-4 アパホテル電気街口 1F",35.700677,139.770621,"東京メトロ銀座線","末広町（東京都）駅","徒歩4",NA,"東京都",0,NA
"7414019","つけめんTETSU 京王モール新宿店","〒160-0023 東京都新宿区西新宿1 京王モール",NA,NA,"都営大江戸線（環状部）","新宿西口駅","徒歩1",NA,"東京都",0,NA
"7371053","こってりらーめん せきやけ","〒124-0025 東京都葛飾区西新小岩1-9-1 ",35.717811,139.857538,"JR総武本線（東京-銚子）","新小岩駅","徒歩1",NA,"東京都",0,NA
"6053936","広州市場 五反田店","〒141-0022 東京都品川区東五反田1-21-10 ",35.625901,139.7262,"東急池上線","五反田駅","徒歩3",NA,"東京都",15,3.82142857142857
"6106703","味噌一 大原店","〒174-0061 東京都板橋区大原町31-2 ",35.767629,139.698363,"都営三田線","本蓮沼駅","徒歩5",NA,"東京都",0,NA
"6972272","そば 栄家","〒120-0013 東京都足立区弘道1-22-18 ",35.768632,139.813092,"東武伊勢崎線","五反野駅","徒歩7",NA,"東京都",0,NA
"7304999","味噌蔵","〒169-0072 東京都新宿区大久保1-7-20 ",35.700953,139.705612,"東京メトロ副都心線","東新宿駅","徒歩3",NA,"東京都",0,NA
"7745973","伊蔵八味噌らーめん","〒150-0002 東京都渋谷区渋谷3-21-3 SHIBUYA STREAM 2F",35.657328,139.703036,"","","",NA,"東京都",0,NA
"7358082","アヤムヤ御徒町店","〒110-0016 東京都台東区台東4-10-1 山田ビル1F",35.70626,139.776837,"東京メトロ日比谷線","仲御徒町駅","徒歩1",NA,"東京都",1,3.5
"5603527","武蔵村山 大勝軒","〒208-0003 東京都武蔵村山市中央2-128-2 ",35.749731,139.395162,"多摩都市モノレール線","上北台駅","徒歩25",NA,"東京都",1,4
"7735208","ろく月","〒111-0053 東京都台東区浅草橋2-4-5 ",35.698906,139.785333,"都営浅草線","浅草橋駅","徒歩2",NA,"東京都",2,NA
"7154392","秋津商店2号店 ひばりヶ丘北口店","〒202-0002 東京都西東京市ひばりが丘北3-3-14 ",35.751991,139.545407,"西武池袋線","ひばりヶ丘（東京都）駅","徒歩1",NA,"東京都",0,NA
"7270847","三ちゃん","〒167-0054 東京都杉並区松庵3-38-20 ",35.702675,139.599291,"ＪＲ中央本線（東京-塩尻）","西荻窪駅","徒歩2",NA,"東京都",0,NA
"6271492","らーめん大 堀切店","〒124-0006 東京都葛飾区堀切4-57-14 ",35.748568,139.827047,"京成本線","堀切菖蒲園駅","徒歩2",NA,"東京都",0,NA
"6277561","麺屋武蔵武仁","〒101-0021 東京都千代田区神田佐久間町2-18-5 アークビル1F",NA,NA,"","","",NA,"東京都",6,3.8
"6566455","よつ葉","〒156-0054 東京都世田谷区経堂4-10-12 B1F",35.647382,139.626604,"小田急小田原線","千歳船橋駅","徒歩3",NA,"東京都",0,NA
"7748737","中華そば 堀川","〒152-0035 東京都目黒区自由が丘3-7-1 ",35.609165,139.665525,"","","",NA,"東京都",0,NA
"5497740","きらく","〒157-0066 東京都世田谷区成城6-16-5 カサローザ成城2F",35.640757,139.597399,"小田急小田原線","成城学園前駅","徒歩2",NA,"東京都",0,NA
"7355167","立石担担麺火のき","〒124-0012 東京都葛飾区立石7-2-1 ",35.739017,139.849368,"京成押上線","京成立石駅","徒歩1",NA,"東京都",0,NA
"7054561","麺屋 楽坊主","〒190-0032 東京都立川市上砂町2-1-6 ",35.721801,139.393088,"西武拝島線","武蔵砂川駅","徒歩14",NA,"東京都",0,NA
"5498048","哲ちゃん","〒165-0024 東京都中野区松が丘2-32-18 ",35.723422,139.673478,"西武新宿線","新井薬師前駅","徒歩12",NA,"東京都",0,NA
"6441195","中華ソバ 素和可","〒166-0003 東京都杉並区高円寺南4-4-12 アルページュ　1F",35.702602,139.651394,"ＪＲ中央本線（東京-塩尻）","高円寺駅","徒歩4",NA,"東京都",2,NA
"5496861","七番","〒106-0031 東京都港区西麻布1-4-14 ",35.661861,139.725396,"東京メトロ日比谷線","六本木駅","徒歩6",NA,"東京都",2,NA
"5499558","つけめん 美豚","〒197-0003 東京都福生市熊川689-40-2 ",35.725604,139.334826,"JR五日市線","熊川駅","徒歩5",NA,"東京都",0,NA
"7617241","スタミナ中華ソバ とみ坂","〒190-0012 東京都立川市曙町2-11-8 ",35.700137,139.41522,"JR中央本線（東京-塩尻）","立川駅","徒歩3",NA,"東京都",0,NA
"7327367","かみの屋","〒120-0014 東京都足立区西綾瀬2-7-9 西綾瀬プラザ104",35.763641,139.814262,"東武伊勢崎線","五反野駅","徒歩8",NA,"東京都",0,NA
"7337496","武道家 賢斗","〒136-0076 東京都江東区南砂2-1-4 Marcos東陽町1F",35.669471,139.819879,"東京メトロ東西線","東陽町駅","徒歩1",NA,"東京都",0,NA
"7507779","中華料理 練馬臧家","〒176-0001 東京都練馬区練馬1-23-4 ",35.738867,139.656366,"西武池袋線","練馬駅","徒歩3",NA,"東京都",0,NA
"5917530","小川流 八王子みなみ野店","〒192-0914 東京都八王子市片倉町1919-7 ",35.630874,139.337299,"JR横浜線","八王子みなみ野駅","徒歩9",NA,"東京都",0,NA
"5498781","大清軒","〒125-0051 東京都葛飾区新宿4-19-18 ",35.763073,139.861607,"京成金町線","京成金町駅","徒歩14",NA,"東京都",0,NA
"7581747","横浜家系ラーメン 希家 早稲田店","〒162-0045 東京都新宿区馬場下町6 田中ビル1F",35.705847,139.719833,"東京メトロ東西線","早稲田〔東西線〕駅","徒歩1",NA,"東京都",0,NA
"7449430","らーめん大 荻窪店","〒167-0051 東京都杉並区荻窪4-32-8 ",35.704334,139.623783,"東京メトロ丸ノ内線","荻窪駅","徒歩3",NA,"東京都",0,NA
"5497479","のりや食堂","〒140-0011 東京都品川区東大井5-19-9 東大井アーバンハイム101",35.605665,139.735922,"JR京浜東北線","大井町駅","徒歩2",NA,"東京都",1,NA
"7638215","麺 うら裏","〒151-0063 東京都渋谷区富ヶ谷1-45-13 シズナビル1F",35.667784,139.690023,"東京メトロ千代田線","代々木公園駅","徒歩3",NA,"東京都",0,NA
"7467803","麺屋福丸","〒151-0072 東京都渋谷区幡ヶ谷1-9-6 リッツ幡ヶ谷1F",35.675553,139.672077,"京王新線","幡ヶ谷駅","徒歩6",NA,"東京都",0,NA
"5498118","ことぶき食堂","〒167-0034 東京都杉並区桃井1-13-16 ",35.710675,139.614681,"JR中央本線（東京-塩尻）","荻窪駅","徒歩12",NA,"東京都",0,NA
"7523878","のっけご飯と中華そば95","〒144-0041 東京都大田区羽田空港3-3-4 羽田空港国内線第2旅客ターミナル3F",NA,NA,"東京モノレール","羽田空港第1ビル（モノレール）駅","徒歩2",NA,"東京都",1,2
"6390346","ラーメン大 蒲田店","〒144-0052 東京都大田区蒲田5-1-5 ",35.564066,139.716978,"東急多摩川線","蒲田駅","徒歩2",NA,"東京都",1,NA
"5894929","博雅","〒175-0082 東京都板橋区高島平7-30-2 ",35.791556,139.656535,"都営三田線","新高島平駅","徒歩5",NA,"東京都",0,NA
"6155445","麺屋 一刻","〒174-0046 東京都板橋区蓮根3-5-2 ",35.785765,139.676525,"都営三田線","西台駅","徒歩4",NA,"東京都",0,NA
"7151746","大勝軒next 上野店","〒110-0005 東京都台東区上野2-12-9 サンプラザ上野ビル1F",35.709343,139.771887,"東京メトロ銀座線","上野広小路駅","徒歩2",NA,"東京都",2,NA
"7659166","とんこつラーメン 藤参","〒108-0073 東京都港区三田3-1-13 三田石田ビル1F",NA,NA,"都営三田線","三田（東京都）駅","徒歩3",NA,"東京都",0,NA
"7625276","麺屋もろ 分倍河原店","〒183-0045 東京都府中市美好町3-9-10 ",35.671659,139.467125,"京王線","分倍河原駅","徒歩6",NA,"東京都",0,NA
"7089371","超こってりら～めん つばめ","〒132-0035 東京都江戸川区平井5-21-2 朝日生命平井ビル1F",35.707484,139.842045,"JR総武本線（東京-銚子）","平井（東京都）駅","徒歩1",NA,"東京都",0,NA
"7685028","中華ソバ ちゃるめ","〒144-0047 東京都大田区萩中2-1-4 丸栄ビルEAST1F",35.553209,139.730316,"京急空港線","糀谷駅","徒歩2",NA,"東京都",0,NA
"7751586","和風ラーメン 鈴華","〒124-0021 東京都葛飾区細田1-17-10 ",35.74047,139.871849,"","","",NA,"東京都",0,NA
"5498779","せきぐちラーメン 末広店","〒125-0042 東京都葛飾区金町4-25-3 ",35.768225,139.865704,"京成金町線","京成金町駅","徒歩6",NA,"東京都",0,NA
"6324747","食龍","〒188-0012 東京都西東京市南町4-4-2 プリンスプラザ田無1F",35.727021,139.540686,"西武新宿線","田無駅","徒歩2",NA,"東京都",0,NA
"5499359","グラバー亭","〒194-0033 東京都町田市木曽町280 ",NA,NA,"","","",NA,"東京都",0,NA
"5713184","麺匠 竹虎 本店","〒160-0021 東京都新宿区歌舞伎町2-36-3 新宿アシベ1F",35.695895,139.702394,"西武新宿線","西武新宿駅","徒歩4",NA,"東京都",10,3.77777777777778
"7705552","Renge no Gotoku","〒150-0031 東京都渋谷区桜丘町16-7 鈴木ビル1F",35.656408,139.701092,"東京メトロ銀座線","渋谷駅","徒歩2",NA,"東京都",0,NA
"6375975","冨士中華そば","〒167-0043 東京都杉並区上荻1-6-1 ",35.704806,139.621453,"東京メトロ丸ノ内線","荻窪駅","徒歩1",NA,"東京都",0,NA
"6990626","スタミナラーメン のぶちゃん","〒180-0002 東京都武蔵野市吉祥寺東町1-18-18 ",35.70508,139.584473,"ＪＲ中央本線（東京-塩尻）","吉祥寺駅","徒歩6",NA,"東京都",0,NA
"7416815","麺家 歩輝勇","〒145-0071 東京都大田区田園調布1-52-3 1F",35.58909,139.668634,"東急多摩川線","多摩川駅","徒歩1",NA,"東京都",0,NA
"7626135","麺処 直清","〒123-0842 東京都足立区栗原1-12-22 ",35.780627,139.789457,"東武伊勢崎線","西新井駅","徒歩5",NA,"東京都",0,NA
"7632604","博多水炊きらーめん うかんむり","〒176-0012 東京都練馬区豊玉北6-2-1 ディアマークスキャピタルタワー 1F 102",35.736584,139.652293,"西武有楽町線","練馬駅","徒歩2",NA,"東京都",0,NA
"6995978","羽田大勝軒","〒144-0041 東京都大田区羽田空港3-3-2 羽田空港 国内線 第1旅客ターミナル 2F",35.549084,139.783987,"東京モノレール","羽田空港第１ビル（モノレール）駅","徒歩1",NA,"東京都",0,NA
"6566462","麺場 voyage","〒144-0052 東京都大田区蒲田4-18-1 ",35.560994,139.721997,"京急本線","京急蒲田駅","徒歩2",NA,"東京都",3,3
"7378233","ラーメン逢","〒191-0012 東京都日野市日野389-1 滝瀬ビル106",35.672557,139.40262,"JR中央本線（東京-塩尻）","日野（東京都）駅","徒歩15",NA,"東京都",0,NA
"7715271","中華食べ飲み放題 華しん園（カシンエン）","〒136-0071 東京都江東区亀戸5-15-4 510ビル1F",35.700171,139.825627,"東武亀戸線","亀戸駅","徒歩4",NA,"東京都",0,NA
"5496514","幸楽苑 平河町店","〒101-0027 東京都千代田区神田平河町4 ",35.698478,139.775817,"","","",NA,"東京都",1,4.5
"7223500","らーめん縁","〒196-0015 東京都昭島市昭和町5-12-11 コーポアサイ1F",35.711659,139.358791,"ＪＲ青梅線","昭島駅","徒歩4",NA,"東京都",0,NA
"5398865","とんぼ亭","〒114-0003 東京都北区豊島8-6-3 ",35.764117,139.739387,"東京メトロ南北線","王子神谷駅","徒歩5",NA,"東京都",0,NA
"5498587","大盛軒","〒179-0072 東京都練馬区光が丘5-1-1 光が丘IMAB1F",35.758892,139.628719,"都営大江戸線（放射部）","光が丘駅","徒歩1",NA,"東京都",0,NA
"7065739","中華そば青葉 東大和店","〒207-0004 東京都東大和市清水6-1096-3 ",35.747086,139.444261,"西武多摩湖線（萩山-西武遊園地）","武蔵大和駅","徒歩14",NA,"東京都",0,NA
"7425785","横浜家系ラーメン 松田家 東武練馬店","〒179-0081 東京都練馬区北町2-20-8 ",35.767525,139.662938,"東武東上線","東武練馬駅","徒歩3",NA,"東京都",0,NA
"7671494","らーめん砦 アリオ亀有店","〒125-0061 東京都葛飾区亀有3-49-3 アリオ亀有1F",35.764647,139.851931,"JR常磐線","亀有駅","徒歩6",NA,"東京都",1,4.5
"6161296","ラーメンya","〒136-0071 東京都江東区亀戸6-35-8 ",35.694652,139.830599,"JR総武本線（東京-銚子）","亀戸駅","徒歩6",NA,"東京都",0,NA
"6839333","中華料理 やまだ","〒134-0091 東京都江戸川区船堀7-6-18 ",35.677616,139.869388,"都営新宿線","船堀駅","徒歩12",NA,"東京都",0,NA
"5497508","らーめん荏原一正","〒142-0053 東京都品川区中延6-1-20 ",35.603242,139.710396,"東急大井町線","荏原町駅","徒歩3",NA,"東京都",0,NA
"7649252","八重桜","〒114-0002 東京都北区王子1-15-5 ",35.75504,139.73776,"東京メトロ南北線","王子駅","徒歩1",NA,"東京都",0,NA
"7427490","銀座 朧月","〒104-0061 東京都中央区銀座6-3-5 ",35.671666,139.761347,"東京メトロ丸ノ内線","銀座駅","徒歩2",NA,"東京都",0,NA
"7634381","輝道家","〒165-0027 東京都中野区野方5-24-6 松金ビル1F",35.718647,139.652788,"西武新宿線","野方駅","徒歩2",NA,"東京都",0,NA
"5830810","万世パーコーメン日比谷シティ店","〒100-0011 東京都千代田区内幸町2-2-3 日比谷国際ビルB2F",35.670397,139.754354,"都営三田線","内幸町駅","徒歩2",NA,"東京都",3,3.16666666666667
"6202654","河童軒","〒114-0024 東京都北区西ケ原1-26-6 ",35.744086,139.745702,"JR京浜東北線","上中里駅","徒歩4",NA,"東京都",0,NA
"7500759","三田製麺所 蒲田東口店","〒144-0052 東京都大田区蒲田5-8-9 リバーサイド蒲田1F",35.563033,139.718983,"東急多摩川線","蒲田駅","徒歩3",NA,"東京都",0,NA
"7001274","味道屋","〒110-0014 東京都台東区北上野2-31-6 ",35.719437,139.784727,"東京メトロ日比谷線","入谷（東京都）駅","徒歩1",NA,"東京都",2,NA
"7106428","らーめん喜丸","〒100-0006 東京都千代田区有楽町1-3-8 1F",35.673311,139.760709,"東京メトロ日比谷線","日比谷駅","徒歩1",NA,"東京都",0,NA
"5638549","町屋大勝軒 孤珀","〒116-0001 東京都荒川区町屋2-17-2 ",35.743814,139.777246,"都電荒川線","町屋二丁目駅","徒歩1",NA,"東京都",1,5
"6425946","麺処 晴","〒110-0004 東京都台東区下谷1-11-7 ",35.719753,139.783336,"東京メトロ日比谷線","入谷（東京都）駅","徒歩1",NA,"東京都",0,NA
"5497372","東煌ラーメン","〒135-0024 東京都江東区清澄3-4-10 ",35.681847,139.798241,"東京メトロ半蔵門線","清澄白河駅","徒歩1",NA,"東京都",1,5
"7742448","らぁ麺 みうら 上野毛店","〒158-0093 東京都世田谷区上野毛1-13-9 ",35.611957,139.638657,"東急大井町線","上野毛駅","徒歩1",NA,"東京都",0,NA
"7433372","豚骨一燈 本郷店","〒113-0033 東京都文京区本郷2-26-1 福重ビル1F",35.704874,139.760819,"東京メトロ丸ノ内線","本郷三丁目駅","徒歩3",NA,"東京都",0,NA
"6192968","本格中華麺店 光麺 原宿店","〒150-0001 東京都渋谷区神宮前6-2-8 ",35.667751,139.706189,"東京メトロ副都心線","明治神宮前駅","徒歩2",NA,"東京都",5,3.4
"7218087","壱角堂 池袋西口店","〒171-0021 東京都豊島区西池袋1-20-4 第七三宅ビル1F",35.7315,139.709522,"東京メトロ丸ノ内線","池袋駅","徒歩1",NA,"東京都",4,3
"7617231","かずまちゃんラーメン","〒162-0825 東京都新宿区神楽坂4-2-30 ",35.701951,139.739546,"都営大江戸線（環状部）","牛込神楽坂駅","徒歩3",NA,"東京都",0,NA
"7345486","壱角家 御徒町店","〒110-0005 東京都台東区上野6-2-1 ミヤマビル1F",35.707871,139.775606,"都営大江戸線（環状部）","上野御徒町駅","徒歩1",NA,"東京都",0,NA
"7255219","新潟 三宝亭","〒153-0051 東京都目黒区上目黒2-44-5 ",35.641618,139.696671,"東京メトロ日比谷線","中目黒駅","徒歩5",NA,"東京都",0,NA
"6033258","三ツ矢堂製麺 中目黒","〒153-0051 東京都目黒区上目黒3-3-9 第二牡丹ビル1F",35.644101,139.698363,"東京メトロ日比谷線","中目黒駅","徒歩1",NA,"東京都",13,3.375
"7680155","竹麓輔らーめん創作工房 竹麓らーめん","〒164-0001 東京都中野区中野3-33-12 中野3丁目ビル",35.703783,139.665382,"東京メトロ東西線","中野（東京都）駅","徒歩3",NA,"東京都",0,NA
"6347615","とうかんや","〒136-0076 東京都江東区南砂5-21-4 ",35.675243,139.833675,"東京メトロ東西線","南砂町駅","徒歩9",850,"東京都",2,5
"0089199","らうめん 麺坊","〒174-0052 東京都板橋区蓮沼町26-1 ",35.769451,139.705293,"都営三田線","本蓮沼駅","徒歩3",NA,"東京都",0,NA
"6343013","手作りの味噌らーめん 味噌樽","〒135-0061 東京都江東区豊洲3-4-8 スーパービバホーム豊洲店2F",35.656908,139.798267,"東京メトロ有楽町線","豊洲駅","徒歩3",NA,"東京都",2,4
"6266264","百麺","〒156-0053 東京都世田谷区桜3-18-9 ",35.639981,139.634332,"東急世田谷線","上町駅","徒歩16",NA,"東京都",3,4.5
"5497781","天下一品 池尻店","〒154-0001 東京都世田谷区池尻3-30-3 ",35.647936,139.678811,"東急田園都市線","池尻大橋駅","徒歩7",NA,"東京都",2,3.75
"7210309","一圓本店","〒180-0004 東京都武蔵野市吉祥寺本町2-17-2 ",35.704188,139.575909,"京王井の頭線","吉祥寺駅","徒歩4",NA,"東京都",4,4.375
"6163951","流石","〒135-0016 東京都江東区東陽5-3-9 ",35.671343,139.811032,"東京メトロ東西線","木場駅","徒歩6",NA,"東京都",0,NA
"7647397","油そば 東京油組総本店 飯田橋組","〒102-0072 東京都千代田区飯田橋3-6-8 ",35.701763,139.746223,"東京メトロ南北線","飯田橋駅","徒歩1",NA,"東京都",0,NA
"7726705","舎鈴 イオンモール東久留米","〒203-0023 東京都東久留米市南沢5-17-62 イオンモール東久留米3F",35.745038,139.52737,"西武池袋線","ひばりヶ丘（東京都）駅","徒歩27",NA,"東京都",0,NA
"5499249","さか本","〒183-0027 東京都府中市本町4-6-6 ",35.665598,139.469306,"京王線","分倍河原駅","徒歩7",NA,"東京都",0,NA
"7104601","大治飯店","〒143-0013 東京都大田区大森南5-1-25 ",35.563467,139.746931,"東京モノレール","昭和島駅","徒歩17",NA,"東京都",0,NA
"7154035","麺屋 どうげんぼうず","〒164-0012 東京都中野区本町4-30-11 アーク新中野 1F",35.69595,139.669891,"東京メトロ丸ノ内線","新中野駅","徒歩3",NA,"東京都",0,NA
"7463516","ヌードルボウルマゼ","〒194-0021 東京都町田市中町1-21-11 中一ビル 1F",35.549436,139.446476,"小田急小田原線","町田駅","徒歩7",NA,"東京都",0,NA
"5499601","満北亭新青梅街道 東大和店","〒207-0004 東京都東大和市清水6-1100-52 ",35.746686,139.442691,"西武多摩湖線（萩山-西武遊園地）","武蔵大和駅","徒歩15",NA,"東京都",0,NA
"6211385","支那麺 はしご 銀座 4丁目店","〒104-0061 東京都中央区銀座4-13-1 ",35.669711,139.769002,"都営浅草線","東銀座駅","徒歩2",NA,"東京都",0,NA
"7250209","麺通 若林店","〒154-0023 東京都世田谷区若林3-15-1 若林ヴィラージュ1F",35.64227,139.656694,"東急世田谷線","松陰神社前駅","徒歩4",NA,"東京都",0,NA
"6266261","横浜家系ラーメン 目黒 魂心家","〒153-0063 東京都目黒区目黒1-4-8 ",35.634222,139.714161,"ＪＲ山手線","目黒駅","徒歩2",NA,"東京都",4,3.375
"5397701","龍","〒136-0072 東京都江東区大島7-38-36 ",35.690541,139.841843,"都営新宿線","東大島駅","徒歩5",NA,"東京都",0,NA
"7726914","麺屋むてき","〒115-0051 東京都北区浮間3-1-38 蛯沢ビル1F",35.787235,139.704626,"JR埼京線","北赤羽駅","徒歩1",NA,"東京都",0,NA
"7733978","新福菜館 浅草店","〒111-0032 東京都台東区浅草2-12-8 ",35.715115,139.792874,"","","",NA,"東京都",0,NA
"7245886","麺屋武士道 本店","〒133-0056 東京都江戸川区南小岩7-26-18 ",35.73326,139.882862,"JR総武本線（東京-銚子）","小岩駅","徒歩1",NA,"東京都",0,NA
"6742503","福義","〒170-0013 東京都豊島区東池袋1-9-8 ",35.731233,139.714296,"東京メトロ丸ノ内線","池袋駅","徒歩1",NA,"東京都",0,NA
"7660130","東京オイルヌードル油田","〒192-0904 東京都八王子市子安町4-26-6 とちの木ビル1F",35.652835,139.338271,"JR中央本線（東京-塩尻）","八王子駅","徒歩3",NA,"東京都",0,NA
"7232699","品川甚作本店","〒101-0061 東京都千代田区三崎町2-21-10 正大ビル",35.701641,139.75373,"ＪＲ中央本線（東京-塩尻）","水道橋駅","徒歩2",NA,"東京都",0,NA
"5801585","二代目武道家","〒164-0001 東京都中野区中野3-34-32 ",35.704002,139.665279,"東京メトロ東西線","中野（東京都）駅","徒歩2",NA,"東京都",1,3
"5499571","ラーメンハウス ドラゴン","〒197-0004 東京都福生市南田園3-2-1 ",35.728399,139.330591,"ＪＲ五日市線","熊川駅","徒歩12",NA,"東京都",0,NA
"7100199","MENSHO TOKYO","〒112-0003 東京都文京区春日1-15-9 1F",35.708284,139.751416,"東京メトロ丸ノ内線","後楽園駅","徒歩1",NA,"東京都",0,NA
"5497782","天下一品駒沢店","〒154-0012 東京都世田谷区駒沢1-5-14 ドエルクレイン1F",35.632596,139.660549,"東急田園都市線","駒沢大学駅","徒歩1",NA,"東京都",2,3
"7523769","北海道らーめん みそ熊 築地店","〒104-0045 東京都中央区築地6-10-5 ",35.664256,139.77323,"東京メトロ日比谷線","築地駅","徒歩6",NA,"東京都",0,NA
"7151757","横浜家系ラーメン 檜家","〒150-0002 東京都渋谷区渋谷3-7-5 大石ビル1F",35.657578,139.704622,"東京メトロ副都心線","渋谷駅","徒歩2",NA,"東京都",2,NA
"5497555","ひふみ亭","〒152-0021 東京都目黒区東が丘1-16-19 ",35.628188,139.668213,"東急田園都市線","駒沢大学駅","徒歩12",NA,"東京都",0,NA
"7506838","一圓 三鷹北口店","〒180-0013 東京都武蔵野市西久保1-6-21 ",35.707135,139.560669,"ＪＲ中央線","三鷹駅","徒歩7",750,"東京都",0,NA
"6713104","天心ラーメン 東尾久店","〒116-0012 東京都荒川区東尾久1-21-8 ",35.738106,139.771189,"京成本線","新三河島駅","徒歩4",NA,"東京都",0,NA
"6743008","らーめん 紫龍","〒104-0061 東京都中央区銀座3-10-18 ",35.671528,139.768225,"都営浅草線","東銀座駅","徒歩1",NA,"東京都",0,NA
"7685268","真鯛ラーメン麺魚 錦糸町パルコ店","〒130-0022 東京都墨田区江東橋4-27-14 錦糸町パルコ1F",35.696346,139.815717,"東京メトロ半蔵門線","錦糸町駅","徒歩1",NA,"東京都",0,NA
"6163967","武蔵家","〒175-0094 東京都板橋区成増2-17-21 ",35.777379,139.631093,"東武東上線","成増駅","徒歩2",NA,"東京都",0,NA
"7617288","中華そば ムタヒロ 錦糸町店","〒130-0022 東京都墨田区江東橋2-6-14 エスカイア錦糸町プラザ 1F",35.693846,139.812845,"JR総武本線（東京-銚子）","錦糸町駅","徒歩5",NA,"東京都",0,NA
"7624999","横浜家系ラーメン春樹 青物横丁店","〒140-0004 東京都品川区南品川3-6-4 トーシンビル",35.610698,139.744801,"京急本線","青物横丁駅","徒歩3",NA,"東京都",0,NA
"6132283","camino","〒154-0005 東京都世田谷区三宿2-11-33 ",35.652566,139.677244,"東急田園都市線","池尻大橋駅","徒歩10",NA,"東京都",2,3
"5497719","一風堂 駒沢公園店","〒156-0043 東京都世田谷区深沢2-19-20 ",35.623141,139.660577,"東急田園都市線","駒沢大学駅","徒歩17",NA,"東京都",2,3.25
"5911014","ラーメン 登嶋家","〒198-0084 東京都青梅市住江町42-32 ",35.78969,139.260527,"JR青梅線","青梅駅","徒歩3",NA,"東京都",0,NA
"6431683","麺爺あぶら 西早稲田店","〒169-0072 東京都新宿区大久保2-2-13 ",35.703281,139.708698,"東京メトロ副都心線","東新宿駅","徒歩4",NA,"東京都",1,NA
"7721883","麺や えいちつー","〒134-0088 東京都江戸川区西葛西5-5-13 ",35.6651,139.860906,"東京メトロ東西線","西葛西駅","徒歩3",NA,"東京都",1,5
"5399646","ウーメン","〒132-0023 東京都江戸川区西一之江3-13-3 ",35.694242,139.876145,"都営新宿線","一之江駅","徒歩16",NA,"東京都",0,NA
"7751103","麺や縁","〒124-0013 東京都葛飾区東立石3-11-6 ",35.736178,139.843613,"","","",NA,"東京都",0,NA
"6039451","ファミリーラーメン","〒134-0083 東京都江戸川区中葛西6-2-7 ",35.660809,139.86435,"東京メトロ東西線","西葛西駅","徒歩10",NA,"東京都",0,NA
"7746073","らーめん 北の大地","〒150-0012 東京都渋谷区広尾1-16-2 ",35.648637,139.711156,"","","",NA,"東京都",0,NA
"6388560","力","〒114-0032 東京都北区中十条1-27-10 ",35.761222,139.727094,"JR京浜東北線","東十条駅","徒歩3",780,"東京都",0,NA
"5497855","らあめん英 下高井戸店","〒156-0044 東京都世田谷区赤堤5-24-7 ",35.664531,139.636459,"京王線","下高井戸駅","徒歩6",NA,"東京都",3,3
"6155384","龍王","〒184-0015 東京都小金井市貫井北町3-17-33 ",35.708644,139.495852,"JR中央本線（東京-塩尻）","武蔵小金井駅","徒歩20",NA,"東京都",0,NA
"7667232","ラーメン豚山","〒194-0013 東京都町田市原町田6-20-3 あさのビル 1F",35.543717,139.447654,"小田急小田原線","町田駅","徒歩3",NA,"東京都",0,NA
"7208004","博多らーめん 濱田屋 北千住店","〒120-0034 東京都足立区千住2-62 富士ビル1F",35.749253,139.80388,"東京メトロ千代田線","北千住駅","徒歩1",NA,"東京都",2,NA
"5103382","今ちやん","〒125-0052 東京都葛飾区柴又1-13-2 ",35.754921,139.87081,"京成金町線","柴又駅","徒歩7",NA,"東京都",0,NA
"7633151","RAMEN火影 produced by 麺処ほん田","〒140-0014 東京都品川区大井1-1-9 東急大井町線大井町駅高架下",NA,NA,"りんかい線","大井町駅","徒歩1",NA,"東京都",0,NA
"6745604","東京名物油そば 新宿東口アルタ裏店","〒160-0022 東京都新宿区新宿3-21-2 柳屋角筈ビル1F・B1F",35.692885,139.702141,"東京メトロ丸ノ内線","新宿駅","徒歩1",NA,"東京都",0,NA
"7665342","東京煮干し らーめん玉","〒100-0005 東京都千代田区丸の内1-9-1 東京駅一番街 B1F 東京ラーメンストリート",35.681832,139.766788,"JR上越新幹線","東京駅","徒歩1",NA,"東京都",0,NA
"7622835","熊本ラーメン 桂花 池袋東武店","〒171-8512 東京都豊島区西池袋1-1-25 東武百貨店池袋店 ダイニングシティスパイス13F",35.729714,139.710246,"ＪＲ","池袋駅","徒歩1",NA,"東京都",0,NA
"5654620","中華そば 青葉 府中店","〒183-0027 東京都府中市本町1-3-8 ",35.668351,139.476872,"JR南武線（川崎-立川）","府中本町駅","徒歩3",NA,"東京都",0,NA
"7426218","元祖博多 中洲屋台ラーメン 一竜 大井町東口店","〒140-0011 東京都品川区東大井5-3-9 ",35.607451,139.735511,"JR京浜東北線","大井町駅","徒歩1",NA,"東京都",0,NA
"7158381","壱角家 西新宿本店","〒160-0023 東京都新宿区西新宿1-15-1 桜木ビル2F",35.689216,139.697363,"京王新線","新宿駅","徒歩2",NA,"東京都",1,2.5
"5497590","インディアン 池上店","〒146-0082 東京都大田区池上6-5-11 ",35.572057,139.704806,"東急池上線","池上駅","徒歩3",NA,"東京都",0,NA
"7677211","麺屋 太陽","〒131-0046 東京都墨田区京島1-24-6 ",35.716194,139.819344,"京成押上線","京成曳舟駅","徒歩3",NA,"東京都",0,NA
"7475698","新橋元楽","〒105-0004 東京都港区新橋5-12-1 越田ビル1F",35.663267,139.756757,"都営浅草線","新橋駅","徒歩4",NA,"東京都",0,NA
"7111471","こころ 高田馬場店","〒169-0051 東京都新宿区西早稲田2-21-7 ",35.710586,139.709939,"地下鉄副都心線","西早稲田駅","徒歩5",NA,"東京都",0,NA
"6343022","らあめん花月嵐 笹塚店","〒151-0073 東京都渋谷区笹塚1-59-8 ",35.673575,139.665147,"京王新線","笹塚駅","徒歩3",NA,"東京都",0,NA
"6426117","ラーメン大山家 昭島店","〒196-0015 東京都昭島市昭和町2-7-6 ",35.713193,139.359366,"JR青梅線","昭島駅","徒歩2",NA,"東京都",4,3.75
"6126051","世界の龍ちゃん よしき坊","〒168-0063 東京都杉並区和泉1-3-15 ",35.672666,139.658129,"京王線","代田橋駅","徒歩4",NA,"東京都",1,NA
"7353794","濃厚鶏そば 暁月 荻窪店","〒167-0051 東京都杉並区荻窪5-28-10 B1F",35.704103,139.621025,"東京メトロ丸ノ内線","荻窪駅","徒歩1",NA,"東京都",0,NA
"6211707","函館らーめん 大門","〒164-0001 東京都中野区中野5-64-8 乙女屋ビル",35.706846,139.665641,"東京メトロ東西線","中野（東京都）駅","徒歩1",NA,"東京都",0,NA
"6128567","博多ラーメン 長浜や 府中店","〒183-0022 東京都府中市宮西町2-1-1 ",35.670784,139.478899,"京王線","府中（東京都）駅","徒歩3",NA,"東京都",1,3
"1048653","東京ラーメン 大番 上板橋店","〒174-0071 東京都板橋区常盤台4-32-3 ",35.763762,139.677162,"東武東上線","上板橋駅","徒歩1",NA,"東京都",0,NA
"6898915","大島","〒134-0091 東京都江戸川区船堀6-7-13 ",NA,NA,"都営新宿線","船堀駅","徒歩9",NA,"東京都",3,3.5
"6287097","らあめん花月嵐 錦糸町北口店","〒130-0013 東京都墨田区錦糸3-5-7 ",35.698465,139.814734,"東京メトロ半蔵門線","錦糸町駅","徒歩1",NA,"東京都",0,NA
"6196110","らーめん 喰心坊","〒131-0042 東京都墨田区東墨田2-8-3 ",35.719799,139.830509,"京成押上線","八広駅","徒歩12",NA,"東京都",6,4.41666666666667
"7123348","喜多方ラーメン 坂内 浜松町ハマサイト店","〒105-0022 東京都港区海岸1-2-20 汐留ビルディングハマサイトグルメ2F",35.656926,139.759532,"JR京浜東北線","浜松町駅","徒歩4",NA,"東京都",1,5
"6129965","ちりちりラーメン 風鈴屋","〒104-0061 東京都中央区銀座8-5 銀座ナイン1 1F",NA,NA,"東京メトロ銀座線","新橋駅","徒歩3",NA,"東京都",0,NA
"7172519","郎郎郎 調布店","〒182-0024 東京都調布市布田1-45-6 ライオンズマンション1F",35.652388,139.545756,"京王相模原線","調布駅","徒歩2",NA,"東京都",0,NA
"5499424","江川亭 小金井本店","〒184-0013 東京都小金井市前原町5-9-11 ",35.689619,139.501322,"JR中央本線（東京-塩尻）","武蔵小金井駅","徒歩18",NA,"東京都",2,4
"6384938","喜多方ラーメン 坂内 新宿西口思い出横丁店","〒160-0023 東京都新宿区西新宿1-2-8 ",35.69271,139.699494,"都営大江戸線（環状部）","新宿西口駅","徒歩1",NA,"東京都",0,NA
"7065568","麺屋 のろし","〒101-0024 東京都千代田区神田和泉町2-8 ",35.698775,139.780145,"JR総武線各停（御茶ノ水-錦糸町）","浅草橋駅","徒歩5",NA,"東京都",1,NA
"7111512","らあめん花月嵐 分倍河原店","〒183-0021 東京都府中市片町2-18-48 ",35.669348,139.46927,"京王線","分倍河原駅","徒歩1",NA,"東京都",0,NA
"1010104","味の彩華","〒181-0013 東京都三鷹市下連雀3-23-16 OOMORISTATIONBOX1F",35.701216,139.561572,"JR中央本線（東京-塩尻）","三鷹駅","徒歩3",NA,"東京都",4,3.375
"7094082","麺処 穂し乃","〒179-0074 東京都練馬区春日町6-17-14 ",35.753437,139.632811,"都営大江戸線（放射部）","練馬春日町駅","徒歩8",NA,"東京都",0,NA
"6459994","香家中 目黒店","〒153-0042 東京都目黒区青葉台1-28-1 ",35.647431,139.695049,"東京メトロ日比谷線","中目黒駅","徒歩7",NA,"東京都",0,NA
"7427318","博多豚骨ラーメン田原","〒124-0006 東京都葛飾区堀切5-4-1 ",35.748532,139.827436,"京成本線","堀切菖蒲園駅","徒歩2",NA,"東京都",0,NA
"6001100","中華そば つけ麺 甲斐","〒168-0082 東京都杉並区久我山2-27-1 ",35.687474,139.600086,"京王井の頭線","久我山駅","徒歩1",NA,"東京都",2,4
"6712558","味の店 よし野","〒179-0084 東京都練馬区氷川台3-28-14 ",35.750966,139.665936,"東京メトロ有楽町線","氷川台駅","徒歩3",NA,"東京都",0,NA
"7739323","らぁ麺田じま","〒150-0042 東京都渋谷区宇田川町31-9 ハナテイビル1F",35.661202,139.697931,"","","",NA,"東京都",0,NA
"6852071","多摩利屋","〒198-0052 東京都青梅市長淵7-383-1 ",35.782946,139.264094,"JR青梅線","青梅駅","徒歩15",NA,"東京都",0,NA
"7625312","中華そば ユー リー","〒120-0001 東京都足立区大谷田3-1-15 亀有ダイヤモンドマンション",35.776871,139.840184,"東京メトロ千代田線（綾瀬-北綾瀬）","北綾瀬駅","徒歩9",NA,"東京都",0,NA
"6470378","鬼そば 藤谷","〒150-0042 東京都渋谷区宇田川町24-6 渋ビルヂング5F",35.660252,139.699364,"東京メトロ半蔵門線","渋谷駅","徒歩1",NA,"東京都",4,3.66666666666667
"0044466","手もみラーメン ジロー 東武練馬イオン前店","〒175-0083 東京都板橋区徳丸3-1-22 朝日ハイツ1F",35.769289,139.660524,"東武東上線","東武練馬駅","徒歩1",NA,"東京都",0,NA
"7739692","極品 辣味","〒110-0005 東京都台東区上野6-16-7 D・B上野2ビル5F",35.710696,139.776114,"","","",NA,"東京都",0,NA
"5497384","らーめん弁慶 門前仲町店","〒135-0033 東京都江東区深川1-1-8 ",35.674511,139.795772,"都営大江戸線（環状部）","門前仲町駅","徒歩1",NA,"東京都",2,4
"7734380","銀座 篝 六本木ヒルズ店","〒106-0032 東京都港区六本木6-4-1 六本木ヒルズ メトロハット ハリウッドプラザB2",35.661356,139.730114,"東京メトロ日比谷線","六本木駅","徒歩1",NA,"東京都",0,NA
"6155392","みそ神楽","〒162-0821 東京都新宿区津久戸町3-12 ",35.703356,139.740854,"東京メトロ南北線","飯田橋駅","徒歩3",NA,"東京都",0,NA
