"ID","Name","Address","Latitude","Longitude","Line","Station","Walk","Budget","Pref","ScoreN","Score"
"gf4z200","北京ダック食べ放題 本格中華 福招門 川口店","〒332-0017 埼玉県川口市栄町3-12-6 1F",35.80466,139.72015,"ＪＲ京浜東北線","川口駅","4",2000,"埼玉県",0,NA
"gfun200","寿製麺 よしかわ 川越店","〒350-1151 埼玉県川越市今福1738-14",35.876034,139.474454,"西武新宿線","南大塚駅","車10",1000,"埼玉県",0,NA
"gdv6148","ラーメン山岡家 鷲宮店","〒340-0206 埼玉県久喜市西大輪206-5",36.097471,139.674566,"ＪＲ宇都宮線","東鷲宮駅","14",800,"埼玉県",0,NA
"gfxv100","麺処 有彩","〒332-0021 埼玉県川口市西川口1-8-5",35.816038,139.703207,"ＪＲ京浜東北線","西川口駅","2",1000,"埼玉県",0,NA
"gdv6163","ラーメン山岡家 羽生店","〒348-0036 埼玉県羽生市砂山1393-1",36.150865,139.538717,"東武伊勢崎線","羽生駅","車8",800,"埼玉県",0,NA
"gdv6146","ラーメン山岡家 熊谷店","〒360-0841 埼玉県熊谷市新堀1029-2",36.180438,139.325669,"ＪＲ高崎線","籠原駅","11",800,"埼玉県",0,NA
"gdv6150","ラーメン山岡家 さいたま丸ヶ崎店","〒337-0001 埼玉県さいたま市見沼区丸ヶ崎1077-1",35.958419,139.656383,"ＪＲ宇都宮線","蓮田駅","車9",800,"埼玉県",3,3
"gdv6143","ラーメン山岡家 春日部店","〒344-0042 埼玉県春日部市増戸746-1",35.95501,139.726321,"東武野田線（東武アーバンパークライン）","豊春駅","車8",800,"埼玉県",1,4
"a625706","七匹の子ぶた さいたま新都心店","〒330-0843 埼玉県さいたま市大宮区吉敷町4-262-18 さいたま新都心駅東口ビル1F",35.894306,139.633814,"ＪＲ","さいたま新都心駅","1",1500,"埼玉県",1,4
"ggnp700","麺匠大悟","〒343-0845 埼玉県越谷市南越谷1-26-13",35.876581,139.791396,"ＪＲ武蔵野線","南越谷駅","2",1000,"埼玉県",0,NA
"gdv6149","ラーメン山岡家 さいたま宮前店","〒331-0046 埼玉県さいたま市西区宮前町733-1",35.924289,139.583433,"ＪＲ川越線","西大宮駅","8",800,"埼玉県",1,5
"gdv6151","ラーメン山岡家 越谷レイクタウン店","〒343-0825 埼玉県越谷市大成町3-233-1",35.884146,139.817202,"ＪＲ武蔵野線","越谷レイクタウン駅","18",800,"埼玉県",0,NA
"ggk3001","麺処景虎 produced by ほん田 新越谷ヴァリエ店","〒343-0845 埼玉県越谷市南越谷1-11-4 新越谷VARIE4F",35.87548,139.789819,"東武伊勢崎線（東武スカイツリーライン）","新越谷駅","1",900,"埼玉県",0,NA
"gex1600","本格中華居酒屋餃子坊","〒350-0214 埼玉県坂戸市千代田1-2-28",35.956301,139.400417,"東武東上線","坂戸駅","5",1500,"埼玉県",1,5
"ggpw600","華や","〒336-0929 埼玉県さいたま市緑区東浦和4-8-9",35.867057,139.702857,"ＪＲ武蔵野線","東浦和駅","5",1500,"埼玉県",0,NA
"gar8703","担々麺 侘寂美 WASABI","〒343-0845 埼玉県越谷市南越谷1-16-3 中央第12南越谷ビル1F",35.875147,139.791732,"ＪＲ武蔵野線","南越谷駅","3",1500,"埼玉県",0,NA
"gdv6147","ラーメン山岡家 上尾店","〒362-0001 埼玉県上尾市上字堤下291-1",35.994242,139.576424,"ＪＲ高崎線","上尾駅","35",800,"埼玉県",1,3
"b216813","香麦","〒350-0821 埼玉県川越市福田59-1",35.951902,139.473258,"ＪＲ川越線","川越駅","",3000,"埼玉県",0,NA
"gdv6166","ラーメン山岡家 鶴ヶ島店","〒350-2217 埼玉県鶴ケ島市大字三ツ木194-1",35.934191,139.390386,"東武越生線","一本松駅","29",800,"埼玉県",0,NA
"e378906","雲林坊 川口店","〒332-0017 埼玉県川口市栄町3-5-16",35.803871,139.718713,"ＪＲ京浜東北線","川口駅","4",1000,"埼玉県",0,NA
"gfwv800","らーめん こてつ","〒359-1111 埼玉県所沢市緑町2-1-14",35.804722,139.456933,"西武新宿線","新所沢駅","3",1000,"埼玉県",0,NA
"gdv6145","ラーメン山岡家 狭山店","〒350-1323 埼玉県狭山市鵜の木22-31",35.847425,139.391751,"西武池袋線","稲荷山公園駅","10",800,"埼玉県",0,NA
"gdv6160","ラーメン山岡家 川島店","〒350-0158 埼玉県比企郡川島町伊草300-1",35.968552,139.470143,"首都圏中央連絡自動車道","川島I.C.","車3",800,"埼玉県",0,NA
"7498513","マルキン本舗 新越谷店","〒343-0845 埼玉県越谷市南越谷1-17-9 ",35.874939,139.791483,"ＪＲ武蔵野線","南越谷駅","徒歩3",1000,"埼玉県",1,4
"7426716","横浜家系ラーメン 稲田家 深谷店","〒366-0051 埼玉県深谷市上柴町東4-16-3 ",36.181015,139.30186,"ＪＲ高崎線","深谷駅","車10",1000,"埼玉県",0,NA
"7431533","風風ラーメン 和光店","〒351-0114 埼玉県和光市本町6-5 ",35.788126,139.610696,"東武東上線","和光市駅","徒歩2",1200,"埼玉県",0,NA
"7711920","越後秘蔵麺 無尽蔵　レイクタウンKAZE店","〒343-0828 埼玉県越谷市レイクタウン4-2-2 イオンレイクタウンKAZE 3F",35.8778,139.824596,"JR","越谷レイクタウン駅","徒歩5",1000,"埼玉県",0,NA
"7164308","もちもちの木 川越店","〒350-1121 埼玉県川越市脇田新町1-1 ",35.906183,139.474239,"","","",906,"埼玉県",2,4.5
"7637386","楊喜家","〒367-0046 埼玉県本庄市栄1-5-14 ",36.237634,139.170876,"関越自動車道","本庄児玉I.C.","車5",950,"埼玉県",2,4.5
"5914504","とん太 熊谷西店","〒360-0855 埼玉県熊谷市高柳39-1 ",36.172478,139.342429,"ＪＲ高崎線","籠原駅","車2",800,"埼玉県",0,NA
"7431542","風風ラーメン 朝霞東口店","〒351-0006 埼玉県朝霞市仲町1-1-30 ",35.79793,139.600555,"東武東上線","朝霞駅","徒歩2",1200,"埼玉県",0,NA
"7377102","一蘭 東大宮店","〒337-0001 埼玉県さいたま市見沼区丸ヶ崎1059-1 ",35.958789,139.654162,"ＪＲ宇都宮線","東大宮駅","徒歩25",800,"埼玉県",2,NA
"7431549","風風ラーメン 浦和道場店","〒338-0835 埼玉県さいたま市桜区道場3-15-23 ",35.857759,139.614671,"ＪＲ武蔵野線","西浦和駅","徒歩8",1200,"埼玉県",0,NA
"7736523","大楽亭","〒351-0022 埼玉県朝霞市東弁財1-3-9 ",35.813893,139.586385,"東武東上線","朝霞台駅","徒歩2",2000,"埼玉県",0,NA
"7711948","越後秘蔵麺 無尽蔵 かわぐち家","〒333-0842 埼玉県川口市前川1-1-11 イオンモール川口前川1F",35.833462,139.707467,"JR","蕨駅","車6",1000,"埼玉県",0,NA
"7140627","麒麟","〒344-0011 埼玉県春日部市藤塚2171-141 ",35.968331,139.781168,"","","",800,"埼玉県",2,4.5
"7431460","風風ラーメン 西川口店","〒332-0034 埼玉県川口市並木3-10-13 ",35.816591,139.705006,"ＪＲ京浜東北線","西川口駅","徒歩2",1200,"埼玉県",0,NA
"6995041","ら～麺酒房 心楽","〒332-0021 埼玉県川口市西川口1-8-3 丸今第三ビル1F",35.815909,139.703353,"ＪＲ京浜東北線","西川口駅","徒歩1",1000,"埼玉県",0,NA
"7431540","風風ラーメン 志木南口店","〒352-0001 埼玉県新座市東北2-30-26 ",35.82091,139.573287,"東武東上線","志木駅","徒歩2",1200,"埼玉県",0,NA
"7624652","永楽 星川店","〒360-0043 埼玉県熊谷市星川1-33-2 ",36.143105,139.385893,"ＪＲ","熊谷駅","徒歩8",2000,"埼玉県",0,NA
"5305065","まるこう","〒360-0043 埼玉県熊谷市星川1-81 ",36.142899,139.384059,"ＪＲ高崎線","熊谷駅","徒歩8",900,"埼玉県",0,NA
"7414817","らーめん たつ","〒359-1101 埼玉県所沢市北中2-150-3 ",35.808117,139.436868,"西武池袋線","小手指駅","徒歩10",800,"埼玉県",0,NA
"7112723","麺屋 冽","〒331-0812 埼玉県さいたま市北区宮原町3-262 ",35.938939,139.610139,"ＪＲ高崎線","宮原駅","徒歩1",1000,"埼玉県",0,NA
"5394731","裕華","〒333-0863 埼玉県川口市在家町26-32 ",35.856296,139.708162,"","","",1500,"埼玉県",0,NA
"7056091","上海家庭料理 常来吃","〒335-0023 埼玉県戸田市本町5-13-18 ",35.806611,139.6775,"JR埼京線","戸田公園駅","徒歩1",3000,"埼玉県",0,NA
"7498515","マルキン本舗 大間野店","〒343-0844 埼玉県越谷市大間野町3-120-3 ",35.868084,139.776487,"ＪＲ武蔵野線","南越谷駅","車8",1000,"埼玉県",1,4
"7431545","風風ラーメン 熊谷南口店","〒360-0036 埼玉県熊谷市桜木町1-1-1 ",36.139095,139.388854,"ＪＲ","熊谷駅","徒歩2",1200,"埼玉県",0,NA
"7431535","風風ラーメン 朝霞南口店","〒351-0011 埼玉県朝霞市本町2-5-34 ",35.797069,139.598505,"東武東上線","朝霞駅","徒歩2",1200,"埼玉県",0,NA
"7560445","中華料理 麒麟","〒343-0002 埼玉県越谷市平方2859-3 1F",35.946292,139.782413,"東武伊勢崎線（東武スカイツリーライン）","せんげん台駅","車10",1500,"埼玉県",0,NA
"7431528","風風ラーメン 朝霞台店","〒351-0022 埼玉県朝霞市東弁財1-5-8 ",35.814331,139.585806,"東武東上線","朝霞台駅","徒歩2",1200,"埼玉県",5,2.2
"7469354","つけ麺 粋人 秩父店","〒368-0046 埼玉県秩父市宮側町7-12 ",35.999524,139.085608,"秩父鉄道秩父本線","秩父駅","徒歩3",3000,"埼玉県",0,NA
"7431664","銀座 篝 アトレ 浦和","〒330-0063 埼玉県さいたま市浦和区高砂1-16-12 アトレ浦和2F",35.85898,139.657023,"ＪＲ","浦和駅","徒歩1",800,"埼玉県",0,NA
"7108959","鶴亀堂","〒350-2213 埼玉県鶴ケ島市脚折町6-35-15 ",35.942074,139.393281,"東武東上線","若葉駅","車9",1000,"埼玉県",0,NA
"7469345","麺家酒場 粋人 熊谷店","〒360-0043 埼玉県熊谷市星川2-57 1F",36.141927,139.388242,"ＪＲ","熊谷駅","徒歩5",1500,"埼玉県",0,NA
"7377121","一蘭 越谷イオンレイクタウン店","〒343-0828 埼玉県越谷市レイクタウン3-1-1 ",35.882261,139.828207,"ＪＲ武蔵野線","越谷レイクタウン駅","徒歩10",800,"埼玉県",2,3.5
"7512451","ばんから 熊谷店","〒360-0833 埼玉県熊谷市広瀬265-1 ",36.151271,139.360582,"秩父鉄道秩父本線","石原駅","徒歩11",900,"埼玉県",0,NA
"7164574","沖縄しまんちゅ料理と琉球泡盛 おいしい時間","〒350-1123 埼玉県川越市脇田本町6-31 3F",35.906015,139.48205,"東武東上線","川越駅","徒歩2",3000,"埼玉県",0,NA
"7209569","酒と肴と晩ご飯 なか屋","〒359-1115 埼玉県所沢市御幸町2-9 ",35.791764,139.469088,"西武新宿線","所沢駅","徒歩9",2000,"埼玉県",1,4
"7155771","大明神 本店","〒333-0833 埼玉県川口市西新井宿983-1 ",35.849792,139.734013,"埼玉高速鉄道","新井宿駅","徒歩12",800,"埼玉県",2,5
"7431555","風風ラーメン 北朝霞店","〒351-0034 埼玉県朝霞市西原1-2-48 ",35.815583,139.586906,"ＪＲ武蔵野線","北朝霞駅","徒歩1",1200,"埼玉県",0,NA
"7126637","居酒屋 あいづ","〒334-0001 埼玉県川口市桜町1-5-30 ",35.835197,139.736075,"埼玉高速鉄道線","鳩ヶ谷駅","徒歩8",2000,"埼玉県",0,NA
"7711946","越後秘蔵麺 無尽蔵 はにゅう家","〒348-0039 埼玉県羽生市川崎2-281-3 イオンモール羽生1F",36.143082,139.5421,"東武伊勢崎線","南羽生駅","車5",1000,"埼玉県",0,NA
"7512188","中華そば専門 頓知房","〒350-1245 埼玉県日高市栗坪26-46 ",35.886614,139.312406,"","","",800,"埼玉県",0,NA
"7498518","マルキン本舗 幸手店","〒340-0156 埼玉県幸手市南1-6-9 ",36.0709,139.719042,"東武日光線","幸手駅","徒歩7",1000,"埼玉県",0,NA
"7498517","マルキン本舗 春日部店","〒344-0011 埼玉県春日部市藤塚1278-1 ",35.975849,139.777529,"東武野田線（東武アーバンパークライン）","藤の牛島駅","徒歩10",1000,"埼玉県",0,NA
"0321426","らーめんランド 壱番館","〒337-0051 埼玉県さいたま市見沼区東大宮4-18-9 ",35.949329,139.640005,"ＪＲ宇都宮線・ＪＲ上野東京ライン","東大宮駅","徒歩1",NA,"埼玉県",0,NA
"7605770","旨辛らぁめん屋 サンジ","〒350-1305 埼玉県狭山市入間川1-3-2 スカイテラス1F",35.857972,139.412342,"西武新宿線","狭山市（埼玉県）駅","徒歩2",NA,"埼玉県",0,NA
"7341424","幸楽苑 フォレオ菖蒲店","〒346-0106 埼玉県久喜市菖蒲町菖蒲6006-1 ",36.072042,139.617355,"","","",NA,"埼玉県",0,NA
"6963541","ラーメンきたの","〒369-1203 埼玉県大里郡寄居町寄居369-4 ",36.115101,139.190345,"東武東上線","寄居駅","徒歩8",NA,"埼玉県",0,NA
"7315981","ラーメン雷豚 三芳店","〒354-0043 埼玉県入間郡三芳町竹間沢90-3 ",35.822774,139.538205,"東武東上線","みずほ台駅","徒歩28",NA,"埼玉県",0,NA
"5494534","中華そば専門店  まるいち","〒359-1127 埼玉県所沢市星の宮1-2-8 ",35.78579,139.463749,"西武新宿線","所沢駅","徒歩10",NA,"埼玉県",1,3.5
"7255032","優勝軒 草加店","〒340-0046 埼玉県草加市北谷1-2-17 ",35.841362,139.788236,"東武伊勢崎線（東武スカイツリーライン）","獨協大学前駅","徒歩17",NA,"埼玉県",0,NA
"7740841","ハイカロリー学園","〒359-1123 埼玉県所沢市日吉町10-20 ",35.787718,139.47199,"西武新宿線","所沢駅","徒歩2",NA,"埼玉県",0,NA
"5712886","王将","〒338-0832 埼玉県さいたま市桜区西堀7-7-9 ",35.861,139.628965,"ＪＲ埼京線","南与野駅","徒歩13",NA,"埼玉県",0,NA
"6280401","優勝軒 所沢店","〒359-0034 埼玉県所沢市東新井町280-1 ",35.796139,139.481041,"西武新宿線","所沢駅","徒歩18",NA,"埼玉県",0,NA
"5494381","喜多方ラーメン 坂内 川口東口店","〒332-0017 埼玉県川口市栄町3-10-14 ",35.803739,139.719899,"ＪＲ京浜東北線","川口駅","徒歩4",NA,"埼玉県",1,4
"5251555","東扇坊","〒355-0110 埼玉県比企郡吉見町東野6-14-1 ",36.03677,139.47338,"","","",NA,"埼玉県",0,NA
"6394042","ラーメンショップ幸手 金田亭","〒340-0114 埼玉県幸手市東2-15-19 さくらコーポ",36.070726,139.723565,"東武日光線","幸手駅","徒歩11",NA,"埼玉県",0,NA
"7094406","ラーメン青木亭 八潮店","〒340-0823 埼玉県八潮市古新田446 ",35.803949,139.843021,"つくばエクスプレス","八潮駅","徒歩5",750,"埼玉県",0,NA
"6796434","匠亭","〒352-0001 埼玉県新座市東北2-32-12 イオン新座店",35.820411,139.575146,"東武東上線","志木駅","徒歩3",NA,"埼玉県",0,NA
"6899661","三四郎","〒354-0025 埼玉県富士見市関沢2-25-56 ",35.841189,139.53764,"東武東上線","鶴瀬駅","徒歩6",NA,"埼玉県",0,NA
"7433517","丸源ラーメン 大宮バイパス宮原店","〒331-0822 埼玉県さいたま市北区奈良町55-1 ",35.94071,139.602506,"JR高崎線","宮原駅","徒歩9",NA,"埼玉県",0,NA
"5494619","らーめん高下","〒355-0013 埼玉県東松山市小松原町17-17 ",36.044504,139.412871,"東武東上線","東松山駅","徒歩23",NA,"埼玉県",0,NA
"7604175","和風らーめん 味のほうさく","〒369-0201 埼玉県深谷市岡2769 ",36.213458,139.240295,"JR高崎線","岡部駅","徒歩11",NA,"埼玉県",0,NA
"6899665","麺屋 樹真","〒351-0114 埼玉県和光市本町12-33 ",35.786574,139.610106,"東京メトロ有楽町線","和光市駅","徒歩4",NA,"埼玉県",0,NA
"7604589","節骨麺たいぞう 越谷レイクタウン店","〒343-0828 埼玉県越谷市レイクタウン6-26-2 ",NA,NA,"JR武蔵野線（府中本町-南船橋）","越谷レイクタウン駅","徒歩7",NA,"埼玉県",0,NA
"7407856","らーめん 那の福","〒369-0317 埼玉県児玉郡上里町五明若宮836-1 関越自動車道上里サービスエリア上り線内",NA,NA,"","","",NA,"埼玉県",0,NA
"7306383","麺ダイニング Kazu 屋","〒359-1141 埼玉県所沢市小手指町3-32-18 ",35.799321,139.440311,"西武池袋線","小手指駅","徒歩4",NA,"埼玉県",0,NA
"7378521","三徳軒","〒340-0015 埼玉県草加市高砂2-12-10 ぽんぽこフォレスト1F",35.82955,139.804804,"東武伊勢崎線","草加駅","徒歩2",NA,"埼玉県",0,NA
"7710114","食煅 もみじ","〒346-0025 埼玉県久喜市樋ノ口584 ",36.03998,139.650251,"","","",NA,"埼玉県",0,NA
"5495143","光月軒","〒342-0041 埼玉県吉川市保558-3 ",35.879673,139.847899,"JR武蔵野線（府中本町-南船橋）","吉川駅","徒歩8",NA,"埼玉県",0,NA
"6266227","集楽","〒343-0026 埼玉県越谷市北越谷1-2-16 ",35.896053,139.781434,"東武伊勢崎線","北越谷駅","徒歩10",NA,"埼玉県",0,NA
"5494094","ラーメンカラオケすずの家","〒331-0052 埼玉県さいたま市西区三橋6-183 ",35.911113,139.590536,"ＪＲ川越線","西大宮駅","徒歩23",NA,"埼玉県",0,NA
"6294119","どさん子大将","〒345-0827 埼玉県南埼玉郡宮代町本田5-10-17 ",36.027125,139.719112,"東武伊勢崎線","東武動物公園駅","徒歩9",NA,"埼玉県",0,NA
"5494471","めんはうす健","〒361-0054 埼玉県行田市城南6-5 ",36.131534,139.457658,"秩父鉄道線","行田市駅","徒歩19",NA,"埼玉県",0,NA
"5494361","東京とんこつ とんとら 熊谷店","〒360-0015 埼玉県熊谷市肥塚1195-2 ",36.165703,139.384968,"","","",NA,"埼玉県",2,3.75
"5828209","嘉藤","〒350-1316 埼玉県狭山市南入曽1009-3 ",35.827793,139.415365,"西武池袋線","武蔵藤沢駅","徒歩12",NA,"埼玉県",0,NA
"7184808","麺や芽ぶき","〒350-1155 埼玉県川越市大字下赤坂68‐2 ",35.859428,139.470274,"","","",NA,"埼玉県",0,NA
"7132250","ばんだい 吉川店","〒342-0038 埼玉県吉川市美南1-7-1 ",35.873013,139.848124,"JR武蔵野線（府中本町-南船橋）","吉川駅","徒歩9",NA,"埼玉県",0,NA
"5643189","めん丸 川越店","〒350-1175 埼玉県川越市笠幡186-1 ",35.912461,139.424267,"JR川越線","的場駅","徒歩17",NA,"埼玉県",0,NA
"7270798","大門","〒350-0856 埼玉県川越市問屋町5-9 ",35.923431,139.513006,"","","",NA,"埼玉県",0,NA
"7461761","来来亭 本庄店","〒367-0051 埼玉県本庄市本庄4-7-14 ",NA,NA,"JR高崎線","本庄駅","徒歩17",NA,"埼玉県",0,NA
"0093295","手もみラーメン 十八番","〒335-0014 埼玉県戸田市喜沢南2-4-19 ",35.806627,139.692162,"ＪＲ埼京線","戸田公園駅","徒歩17",NA,"埼玉県",0,NA
"5828977","きのこ山ラーメン","〒345-0024 埼玉県北葛飾郡杉戸町堤根4105-2 ",36.015344,139.751865,"東武伊勢崎線","姫宮駅","徒歩23",NA,"埼玉県",0,NA
"7279850","壱角家 蕨店","〒335-0002 埼玉県蕨市塚越1-4-10 ヤマナカビル1F",35.827278,139.692028,"JR京浜東北線","蕨駅","徒歩3",NA,"埼玉県",0,NA
"5494587","どさん娘 児玉店","〒367-0212 埼玉県本庄市児玉町児玉1186-5 ",36.184656,139.146454,"JR八高線（高麗川-倉賀野）","児玉駅","徒歩18",NA,"埼玉県",0,NA
"6928346","ジャンクガレッジ 大宮駅前店","〒330-0846 埼玉県さいたま市大宮区大門町1-24-1 1F",35.906773,139.626214,"ＪＲ上越新幹線","大宮（埼玉県）駅","徒歩2",NA,"埼玉県",2,NA
"6966091","ラーメン創房 玄","〒348-0039 埼玉県羽生市川崎2-281-3 イオンモール羽生3F",36.142871,139.541856,"東武伊勢崎線","南羽生駅","徒歩22",NA,"埼玉県",0,NA
"7681097","極煮干し本舗 久喜店","〒349-1125 埼玉県久喜市高柳1169-1 ",36.110464,139.671765,"","","",NA,"埼玉県",0,NA
"5494265","てんだん","〒339-0056 埼玉県さいたま市岩槻区加倉1-19-1 ",35.947467,139.690165,"東武野田線","岩槻駅","徒歩6",NA,"埼玉県",0,NA
"5495039","岡ちゃんラーメン","〒354-0031 埼玉県富士見市勝瀬1581 ",35.856075,139.514603,"東武東上線","ふじみ野駅","徒歩13",NA,"埼玉県",0,NA
"7133335","烈","〒343-0023 埼玉県越谷市東越谷8-92-101 ",35.89667,139.805376,"東武伊勢崎線","越谷駅","徒歩24",NA,"埼玉県",0,NA
"7380592","九ツ家 高坂サービスエリア店","〒355-0053 埼玉県東松山市大字田木 関越自動車道下り線高坂サービスエリア",NA,NA,"","","",NA,"埼玉県",0,NA
"6266226","龍が如し","〒340-0034 埼玉県草加市氷川町845 ",35.826478,139.800774,"東武伊勢崎線","草加駅","徒歩4",NA,"埼玉県",1,3
"5495083","手もみらーめん 十八番","〒350-0274 埼玉県坂戸市溝端町2-20 ",35.971559,139.396006,"東武東上線","北坂戸駅","徒歩2",NA,"埼玉県",1,4
"5494527","所沢大勝軒","〒359-1111 埼玉県所沢市緑町4-5-4 ",35.806638,139.452382,"西武新宿線","新所沢駅","徒歩5",NA,"埼玉県",0,NA
"6454128","中華蕎麦 瑞山","〒351-0011 埼玉県朝霞市本町2-8-15 ",35.799102,139.59596,"東武東上線","朝霞駅","徒歩8",NA,"埼玉県",2,3.75
"5494328","ラーメン ひかり","〒350-0834 埼玉県川越市鹿飼1426-6 ",35.948209,139.505983,"","","",NA,"埼玉県",2,3.5
"5395484","ラーメンとさっ子","〒350-0233 埼玉県坂戸市南町21-11 ",35.953711,139.396292,"東武東上線","坂戸駅","徒歩7",NA,"埼玉県",0,NA
"5494961","幸楽苑 新座店","〒352-0016 埼玉県新座市馬場3-1-33 ",35.780605,139.572398,"","","",NA,"埼玉県",0,NA
"5844942","一代元 宮原西口店","〒331-0812 埼玉県さいたま市北区宮原町3-550-6 ",35.939613,139.608125,"ＪＲ高崎線","宮原駅","徒歩2",NA,"埼玉県",0,NA
"7463891","（無）さぼり家","〒349-1125 埼玉県久喜市高柳2257-4 ",36.11873,139.676609,"","","",NA,"埼玉県",0,NA
"5495165","東京とんこつ とんとら 伊奈店","〒362-0805 埼玉県北足立郡伊奈町栄1-154 ",35.97126,139.635268,"埼玉新都市交通ニューシャトル","沼南駅","徒歩18",NA,"埼玉県",2,2
"6359726","840","〒340-0822 埼玉県八潮市大瀬849-1 高速道路6号三郷線上り 八潮パーキングエリア内",35.809936,139.842404,"つくばエクスプレス","八潮駅","徒歩6",NA,"埼玉県",0,NA
"5251282","幸楽苑 武里店","〒344-0032 埼玉県春日部市備後東5-373 ",35.950019,139.775796,"東武伊勢崎線","武里駅","徒歩10",NA,"埼玉県",0,NA
"5494465","日昇亭","〒361-0023 埼玉県行田市長野2-11-17 ",36.138256,139.471506,"秩父鉄道線","東行田駅","徒歩15",NA,"埼玉県",0,NA
"7691071","麺処 青野","〒369-1221 埼玉県大里郡寄居町保田原215-1 ",36.118348,139.210313,"東武東上線","鉢形駅","徒歩8",NA,"埼玉県",0,NA
"6412105","きむら屋","〒350-2204 埼玉県鶴ヶ島市鶴ヶ丘434-1 ",35.930084,139.414869,"東武東上線","鶴ヶ島駅","徒歩15",NA,"埼玉県",0,NA
"5495249","大酋長ラーメン 菖蒲店","〒346-0115 埼玉県久喜市菖蒲町小林846-4 ",36.048291,139.585542,"","","",NA,"埼玉県",0,NA
"5494588","どんたく","〒367-0226 埼玉県本庄市児玉町宮内1097 ",36.186815,139.088246,"","","",NA,"埼玉県",0,NA
"7105302","麺や 雫","〒343-0026 埼玉県越谷市北越谷2-17-16 ",35.899969,139.77884,"東武伊勢崎線（東武スカイツリーライン）","北越谷駅","徒歩23",NA,"埼玉県",0,NA
"5494793","珍来 新田イトーヨーカドー前店","〒340-0053 埼玉県草加市旭町6-2-17 ",35.851389,139.794799,"東武伊勢崎線","新田（埼玉県）駅","徒歩4",NA,"埼玉県",0,NA
"6716969","らーめん 正直もん","〒337-0051 埼玉県さいたま市見沼区東大宮3-3-30 ",35.95302,139.632419,"ＪＲ東北本線〔宇都宮線〕（上野-黒磯）","東大宮駅","徒歩12",NA,"埼玉県",0,NA
"7464739","麺 くら馬","〒330-0856 埼玉県さいたま市大宮区三橋1-727-2 ",35.907049,139.603468,"埼玉新都市交通ニューシャトル","大宮（埼玉県）駅","徒歩23",NA,"埼玉県",0,NA
"6993431","弁多津","〒348-0004 埼玉県羽生市弥勒字五軒1686 東北自動車道 羽生パーキングエリア（上り） 鬼平江戸処",NA,NA,"","","",NA,"埼玉県",0,NA
"6276623","三ツ矢堂製麺 深谷花園店","〒369-1246 埼玉県深谷市小前田540-1 ",36.120221,139.229506,"秩父鉄道線","小前田駅","徒歩20",NA,"埼玉県",0,NA
"5495218","龍門","〒369-0306 埼玉県児玉郡上里町七本木2923-65 ",36.236569,139.150788,"","","",NA,"埼玉県",0,NA
"5495273","萬来 杉戸南店","〒345-0024 埼玉県北葛飾郡杉戸町堤根3972 ",36.01325,139.754537,"東武伊勢崎線","姫宮駅","徒歩27",NA,"埼玉県",0,NA
"7375528","支那そば華","〒340-0006 埼玉県草加市八幡町748-1 ",35.854439,139.804845,"東武伊勢崎線","新田（埼玉県）駅","徒歩12",NA,"埼玉県",0,NA
"5494551","くるまやラーメン 飯能南町店","〒357-0036 埼玉県飯能市南町5-9 ",35.849496,139.318775,"西武池袋線","飯能駅","徒歩3",NA,"埼玉県",0,NA
"6194618","らーめんの小池さん","〒353-0002 埼玉県志木市中宗岡3-9-3 ",35.838388,139.594069,"","","",NA,"埼玉県",0,NA
"7692892","豚骨らーめん 一指禅 ふじみ野店","〒354-0035 埼玉県富士見市ふじみ野西1-18-1 徳新ビル1F",35.859822,139.52138,"東武東上線","ふじみ野駅","徒歩3",NA,"埼玉県",0,NA
"6271432","ラー麺専門店こしがや","〒343-0813 埼玉県越谷市越ヶ谷1-12-19 ",35.886457,139.789251,"東武伊勢崎線","越谷駅","徒歩7",NA,"埼玉県",5,3.6
"5494801","福よし 草加店","〒340-0025 埼玉県草加市谷塚仲町488 ビバホーム草加店1F",35.817106,139.794078,"東武伊勢崎線","谷塚駅","徒歩10",NA,"埼玉県",3,3.5
"7103078","来来亭 東川口店","〒333-0811 埼玉県川口市戸塚2-25-5 ",NA,NA,"埼玉高速鉄道線","東川口駅","徒歩3",NA,"埼玉県",0,NA
"5495011","くるまやラーメン 北本店","〒364-0013 埼玉県北本市中丸9-2-3 ",NA,NA,"ＪＲ高崎線","北本駅","徒歩30",NA,"埼玉県",0,NA
"7014902","川崎屋 平方店","〒343-0002 埼玉県越谷市平方961-5 ",35.945642,139.796161,"","","",NA,"埼玉県",2,4.5
"7648863","来来亭 坂戸店","〒350-0231 埼玉県坂戸市泉町2-7-9 ",35.965018,139.389979,"東武東上線","坂戸駅","徒歩13",NA,"埼玉県",0,NA
"5683498","麺屋英","〒356-0058 埼玉県ふじみ野市大井中央4-8-13 ",35.859911,139.502051,"東武東上線","上福岡駅","徒歩24",NA,"埼玉県",0,NA
"6361509","柳明館 戸田店","〒335-0031 埼玉県戸田市美女木7-1-4 ",35.827393,139.63733,"ＪＲ武蔵野線直通（大宮）","西浦和駅","徒歩26",NA,"埼玉県",0,NA
"7341298","一代元加須三俣店","〒347-0006 埼玉県加須市上三俣849-1 ",NA,NA,"","","",NA,"埼玉県",0,NA
"5494603","幸楽苑 東松山店","〒355-0005 埼玉県東松山市大字松山836-1 ",36.041551,139.415301,"東武東上線","東松山駅","徒歩22",NA,"埼玉県",0,NA
"5494482","くまぎ","〒368-0032 埼玉県秩父市熊木町20-17 ",35.992684,139.086809,"秩父鉄道直通（横瀬-御花畑）","御花畑駅","徒歩5",NA,"埼玉県",0,NA
"7152062","豚丼 博多とんこつ ばりかた屋 アリオ川口店","〒332-0033 埼玉県川口市並木元町1-79 アリオ川口",35.807811,139.713804,"JR京浜東北線","川口駅","徒歩11",NA,"埼玉県",1,4
"6769848","緑風軒","〒350-1137 埼玉県川越市砂新田158-10 ",35.895176,139.48977,"東武東上線","新河岸駅","徒歩12",NA,"埼玉県",0,NA
"5494318","勇成ラーメン 本店","〒350-1121 埼玉県川越市脇田新町12-23 ",35.906532,139.474154,"東武東上線","川越駅","徒歩12",NA,"埼玉県",0,NA
"6746594","老坊担担麺","〒359-1167 埼玉県所沢市林3-553-17 ",35.808947,139.40417,"西武池袋線","狭山ヶ丘駅","徒歩17",NA,"埼玉県",0,NA
"7186075","ラーメン勝武","〒354-0041 埼玉県入間郡三芳町藤久保740-16 ",35.83505,139.529465,"東武東上線","鶴瀬駅","徒歩20",NA,"埼玉県",0,NA
"6266219","メガガンジャ","〒350-1122 埼玉県川越市脇田町5-5 ",35.909696,139.482123,"東武東上線","川越駅","徒歩4",NA,"埼玉県",1,4
"5494284","幸楽苑 西川越店","〒350-1104 埼玉県川越市小ヶ谷259-1 ",35.918777,139.455594,"JR川越線","西川越駅","徒歩5",NA,"埼玉県",0,NA
"6393951","らあめん花月嵐 戸田美女木店","〒335-0031 埼玉県戸田市美女木8-2-6 ",35.828237,139.636588,"ＪＲ武蔵野線直通（大宮）","西浦和駅","徒歩25",NA,"埼玉県",0,NA
"7104763","麺屋 心","〒333-0842 埼玉県川口市前川1-1-11 イオンモール川口前川店1F",35.834188,139.707071,"JR京浜東北線","蕨駅","徒歩25",NA,"埼玉県",0,NA
"7382610","幸楽苑 加須店","〒347-0062 埼玉県加須市睦町2-5-35 ",36.127672,139.605729,"東武伊勢崎線","加須駅","徒歩15",NA,"埼玉県",0,NA
"6426427","幸楽苑 本庄店","〒367-0023 埼玉県本庄市寿3-5-13 ",36.233236,139.210087,"JR高崎線","本庄駅","徒歩29",NA,"埼玉県",0,NA
"5023405","味噌屋 門左衛門","〒354-0011 埼玉県富士見市大字水子字薬師下4177-1 ",NA,NA,"","","",NA,"埼玉県",0,NA
"6189426","東京ラーメン本丸","〒343-0022 埼玉県越谷市東大沢1-46-13 ",35.904235,139.786242,"東武伊勢崎線（東武スカイツリーライン）","北越谷駅","徒歩7",NA,"埼玉県",0,NA
"6189815","ポパイラーメン","〒339-0073 埼玉県さいたま市岩槻区上野2-2-6 ",35.970287,139.701893,"東武野田線","東岩槻駅","徒歩17",NA,"埼玉県",0,NA
"7491786","麺屋蕾 大宮本店","〒330-0802 埼玉県さいたま市大宮区宮町1-44 1F",35.908533,139.625044,"ＪＲ","大宮駅","徒歩4",800,"埼玉県",0,NA
"5494413","珍来 西川口西口店","〒332-0021 埼玉県川口市西川口1-3-14 ",35.815026,139.704327,"ＪＲ京浜東北線","西川口駅","徒歩1",NA,"埼玉県",0,NA
"7279853","麺屋まさと","〒347-0017 埼玉県加須市南篠崎2250-1 ",36.120684,139.62766,"東武伊勢崎線（東武スカイツリーライン）","花崎駅","徒歩22",NA,"埼玉県",0,NA
"6752268","幸楽苑 深谷東方町店","〒366-0042 埼玉県深谷市東方町3-35-1 ",36.186102,139.314998,"JR高崎線","籠原駅","徒歩26",NA,"埼玉県",0,NA
"6155255","東池袋 大勝軒 弁天店","〒340-0004 埼玉県草加市弁天2-22-9 滝沢ビル102",35.842674,139.815508,"東武伊勢崎線（東武スカイツリーライン）","獨協大学前駅","徒歩21",NA,"埼玉県",0,NA
"7382367","ドライブイン福屋","〒368-0005 埼玉県秩父市大野原269-1 ",36.019634,139.096232,"秩父鉄道線","大野原駅","徒歩4",NA,"埼玉県",0,NA
"7234724","中村屋総本山","〒350-0855 埼玉県川越市伊佐沼397-3 ",35.932594,139.510767,"","","",NA,"埼玉県",0,NA
"6902253","ラーメンのまめぞう 浦和店","〒336-0932 埼玉県さいたま市緑区中尾238-1 ",35.872172,139.68028,"","","",NA,"埼玉県",2,NA
"5494458","くりやらーめん","〒361-0045 埼玉県行田市押上町15-1 ",36.116702,139.435402,"JR高崎線","行田駅","徒歩6",NA,"埼玉県",0,NA
"6911687","ばりかた屋 与野店","〒338-0004 埼玉県さいたま市中央区本町西5-2-9 イオンモール与野3F",35.891393,139.614609,"ＪＲ埼京線","北与野駅","徒歩21",NA,"埼玉県",0,NA
"6346551","幸楽苑 大宮本郷店","〒331-0802 埼玉県さいたま市北区本郷町328 ",35.940557,139.62899,"JR宇都宮線・JR上野東京ライン","土呂駅","徒歩14",NA,"埼玉県",0,NA
"7103081","麺屋 藤吉郎","〒343-0841 埼玉県越谷市蒲生東町15-10 ",35.870417,139.801458,"東武伊勢崎線","蒲生駅","徒歩15",NA,"埼玉県",0,NA
"5495144","ニュー ラーメンハウス","〒342-0024 埼玉県吉川市半割13-1 ",35.88341,139.882512,"","","",NA,"埼玉県",0,NA
"7152102","ジャンクガレッジ 白岡店","〒349-0205 埼玉県白岡市西10-1-6 ",36.024318,139.652234,"JR宇都宮線・JR上野東京ライン","白岡駅","徒歩23",NA,"埼玉県",2,4
"7636121","麺屋 十王","〒343-0843 埼玉県越谷市蒲生茜町18-2 寿し政ビル1F",35.865959,139.790804,"東武伊勢崎線","蒲生駅","徒歩2",NA,"埼玉県",0,NA
"6769350","歩・歩","〒362-0047 埼玉県上尾市今泉225-1 ",35.963395,139.573082,"ＪＲ高崎線","上尾駅","徒歩24",NA,"埼玉県",0,NA
"7582879","札幌ラーメン どさん子 別所店","〒368-0054 埼玉県秩父市別所471-1 ",35.990604,139.065305,"秩父鉄道直通（横瀬-御花畑）","御花畑駅","徒歩27",NA,"埼玉県",0,NA
"5494905","いるまラーメン店","〒358-0051 埼玉県入間市牛沢町1-7 ",35.841354,139.375385,"西武池袋線","入間市駅","徒歩18",NA,"埼玉県",0,NA
"5494225","康麺","〒336-0025 埼玉県さいたま市南区文蔵2-27-17 ",35.841128,139.667068,"JR京浜東北線","南浦和駅","徒歩11",NA,"埼玉県",0,NA
"7710129","ラーメン すくえ屋","〒369-0301 埼玉県児玉郡上里町金久保666-1 ",36.262508,139.135513,"JR高崎線","神保原駅","徒歩24",NA,"埼玉県",0,NA
"6842152","麺屋 ORIGAMI","〒330-0062 埼玉県さいたま市浦和区仲町2-10-12 ",35.860867,139.650691,"ＪＲ京浜東北線","浦和駅","徒歩10",NA,"埼玉県",1,NA
"5494648","味噌屋 せいべえ 春日部店","〒344-0059 埼玉県春日部市西八木崎2-1-11 ",35.974401,139.738929,"東武野田線","八木崎駅","徒歩8",NA,"埼玉県",0,NA
"7472460","背脂らーめん宮本 志木店","〒352-0001 埼玉県新座市東北2-31-5 クリオ志木駅前102",35.820892,139.573755,"東武東上線","志木駅","徒歩2",NA,"埼玉県",0,NA
"5494592","らーめん亭","〒367-0041 埼玉県本庄市駅南1-2-25 ",36.235718,139.187288,"JR高崎線","本庄駅","徒歩2",NA,"埼玉県",0,NA
"7543168","越谷濃厚タンメン マルキン商店","〒343-0825 埼玉県越谷市大成町2-70-5 ",35.884849,139.817759,"JR武蔵野線（府中本町-南船橋）","越谷レイクタウン駅","徒歩20",NA,"埼玉県",0,NA
"5023663","松並亭","〒354-0041 埼玉県入間郡三芳町藤久保1104-4 ",35.830654,139.532616,"東武東上線","みずほ台駅","徒歩26",NA,"埼玉県",0,NA
"7727034","百歩ラーメン 川越店","〒350-1133 埼玉県川越市砂831-5 ",35.893245,139.491792,"東武東上線","新河岸駅","徒歩8",NA,"埼玉県",0,NA
"7103062","中華そば 葵","〒333-0848 埼玉県川口市芝下3-9-21 ",35.840226,139.699429,"JR京浜東北線","蕨駅","徒歩24",NA,"埼玉県",0,NA
"5494650","めんや焔","〒344-0067 埼玉県春日部市中央2-27-15 ",35.979131,139.746825,"東武伊勢崎線","春日部駅","徒歩8",NA,"埼玉県",0,NA
"6183172","榮ラーメン","〒346-0106 埼玉県久喜市菖蒲町菖蒲512-1 ",36.07012,139.606873,"","","",NA,"埼玉県",2,3.75
"6741148","金萬","〒334-0063 埼玉県川口市東本郷1239-1 ",35.82673,139.764602,"都営日暮里・舎人ライナー","見沼代親水公園駅","徒歩20",NA,"埼玉県",0,NA
"5494604","西華","〒355-0062 埼玉県東松山市西本宿571 ",36.002691,139.388691,"東武東上線","高坂駅","徒歩10",NA,"埼玉県",2,3.75
"7132310","たくみ家 加須店","〒347-0042 埼玉県加須市志多見1382-20 ",36.134628,139.55373,"東武伊勢崎線","南羽生駅","徒歩26",NA,"埼玉県",0,NA
"7632824","濃厚味噌ラーメン 味噌道場 戸田支部","〒335-0022 埼玉県戸田市上戸田1-19-16 ",35.81827,139.677329,"JR埼京線","戸田（埼玉県）駅","徒歩9",NA,"埼玉県",0,NA
"5495195","とんちん館","〒350-0314 埼玉県比企郡鳩山町楓ケ丘2-3-3 ",35.98815,139.355136,"","","",NA,"埼玉県",0,NA
"7143186","武蔵 ベニバナウォーク桶川店","〒363-0025 埼玉県桶川市下日出谷147-1 ベニバナウォーク桶川 1F",35.995791,139.551311,"ＪＲ高崎線","桶川駅","徒歩18",NA,"埼玉県",0,NA
"5662639","じれっ亭","〒344-0067 埼玉県春日部市中央1-12-3 ",35.980206,139.749594,"東武伊勢崎線（東武スカイツリーライン）","春日部駅","徒歩4",NA,"埼玉県",0,NA
"5494997","ニューラーメンショップ 主水","〒346-0024 埼玉県久喜市北青柳79-1 ",36.05549,139.665151,"東武伊勢崎線","久喜駅","徒歩21",NA,"埼玉県",0,NA
"6429095","ばり馬 狭山ヶ丘店","〒359-1106 埼玉県所沢市東狭山ヶ丘6-802-5 ",35.815188,139.422554,"西武池袋線","狭山ヶ丘駅","徒歩11",NA,"埼玉県",0,NA
"5494667","新ラーメンショップ 狭山店","〒350-1322 埼玉県狭山市下広瀬799-4 ",35.875498,139.389757,"","","",NA,"埼玉県",0,NA
"5022334","十勝ラーメン 花崎店","〒347-0032 埼玉県加須市花崎1-30-4 ",36.109175,139.635238,"東武伊勢崎線","花崎駅","徒歩2",NA,"埼玉県",0,NA
"6998865","龍門","〒340-0002 埼玉県草加市青柳7-49-13 ",35.858536,139.822747,"","","",NA,"埼玉県",0,NA
"7167046","横浜家系ラーメン 誠家 三郷店","〒341-0026 埼玉県三郷市幸房1450-1 ",35.835857,139.878123,"","","",NA,"埼玉県",1,3.5
"6390818","横浜家系ラーメン 松田家志木店","〒352-0001 埼玉県新座市東北2-37-10 高野ビル1F",35.822425,139.573816,"東武東上線","志木駅","徒歩1",NA,"埼玉県",1,3
"5494759","メロディー","〒362-0033 埼玉県上尾市栄町5-30 ",35.960827,139.599983,"JR高崎線","上尾駅","徒歩24",NA,"埼玉県",0,NA
"7432075","麺や 唯桜","〒350-0223 埼玉県坂戸市八幡1-3-22 ",35.959886,139.403369,"東武東上線","坂戸駅","徒歩14",NA,"埼玉県",0,NA
"7743460","札幌ラーメン 北の大地","〒356-0056 埼玉県ふじみ野市うれし野2-10-87 ショッピングセンター ソヨカふじみ野 1F",35.857489,139.524524,"","","",NA,"埼玉県",0,NA
"5395493","来集軒 幸手店","〒340-0115 埼玉県幸手市中2-12-31 ",36.072709,139.720799,"東武日光線","幸手駅","徒歩8",NA,"埼玉県",0,NA
"7511317","蘭州料理 ‐ ザムザムの泉","〒332-0021 埼玉県川口市西川口3-32-9 メゾン里山東側",35.812141,139.702869,"JR京浜東北線","西川口駅","徒歩7",NA,"埼玉県",0,NA
"7617105","油そば専門店 斬","〒339-0005 埼玉県さいたま市岩槻区東岩槻1-9-15 ",35.964343,139.712526,"東武野田線","東岩槻駅","徒歩2",NA,"埼玉県",0,NA
"7652844","博多ラーメン 弐代目 清水屋","〒340-0023 埼玉県草加市谷塚町587-4 ベルメゾンタナカ 102",35.813804,139.799397,"","","",NA,"埼玉県",0,NA
"5494369","札幌マルコウ","〒360-0032 埼玉県熊谷市銀座1-52-3 ",36.142173,139.394668,"JR上越新幹線","熊谷駅","徒歩8",NA,"埼玉県",0,NA
"7665627","自家製手もみ麺 鈴ノ木","〒359-1161 埼玉県所沢市狭山ヶ丘1-3003-83 ",35.809706,139.415813,"西武池袋線","狭山ヶ丘駅","徒歩2",NA,"埼玉県",0,NA
"6349086","拉人","〒337-0032 埼玉県さいたま市見沼区東新井295-4 ",35.909226,139.669974,"東武野田線","大和田（埼玉県）駅","徒歩17",NA,"埼玉県",1,NA
"6316537","雅狼","〒340-0005 埼玉県草加市中根3-23-13 第三守久ビル1F",35.84797,139.811367,"東武伊勢崎線（東武スカイツリーライン）","獨協大学前駅","徒歩16",NA,"埼玉県",0,NA
"5495179","大海軒 毛呂山店","〒350-0451 埼玉県入間郡毛呂山町毛呂本郷657-6 ",35.939469,139.309753,"JR八高線（高麗川-倉賀野）","毛呂駅","徒歩2",NA,"埼玉県",0,NA
"6155249","めん業一筋 善龍","〒350-0046 埼玉県川越市菅原町2-38 コーポ米須1F",35.908752,139.48677,"東武東上線","川越駅","徒歩6",NA,"埼玉県",0,NA
"5495232","九州熊本ラーメンみち丸","〒349-1212 埼玉県加須市麦倉1700-8 ",36.187064,139.656474,"","","",NA,"埼玉県",0,NA
"7153569","だるま","〒360-0203 埼玉県熊谷市弥藤吾172-1 ",36.220641,139.377597,"","","",NA,"埼玉県",0,NA
"7705735","ラーメン屋まる","〒344-0067 埼玉県春日部市中央2-1-2 A",35.977879,139.748222,"東武伊勢崎線","春日部駅","徒歩7",NA,"埼玉県",0,NA
"7643162","ジャンクガレッジ 川越小堤店","〒350-0811 埼玉県川越市小堤183-1 ",35.936078,139.440017,"東武東上線","霞ヶ関（埼玉県）駅","徒歩19",NA,"埼玉県",0,NA
"5494481","うらやまラーメン店","〒368-0046 埼玉県秩父市宮側町23-18 ",35.999884,139.083317,"秩父鉄道線","秩父駅","徒歩3",NA,"埼玉県",0,NA
"7381962","蔵仕込らーめん KURA","〒369-0317 埼玉県児玉郡上里町五明若宮825-1 上里サービスエリア（下り線）フードコート内",36.254074,139.119457,"","","",NA,"埼玉県",0,NA
"7536736","丸源ラーメン 春日部16号バイパス店","〒344-0056 埼玉県春日部市新方袋537 ",NA,NA,"","","",NA,"埼玉県",0,NA
"6189429","丸長","〒350-0233 埼玉県坂戸市南町15-14 ",35.956736,139.394604,"東武東上線","坂戸駅","徒歩2",NA,"埼玉県",0,NA
"6839909","中華 喜楽","〒337-0016 埼玉県さいたま市見沼区東門前330-1 ",35.932612,139.672172,"東武野田線","七里駅","徒歩11",NA,"埼玉県",0,NA
"7413980","横浜家系ラーメン 誠家","〒340-0114 埼玉県幸手市東2-20 ",NA,NA,"東武日光線","幸手駅","徒歩9",NA,"埼玉県",0,NA
"7189889","らぁめん豊作や","〒360-0161 埼玉県熊谷市万吉1889-1 ",36.115289,139.371802,"","","",NA,"埼玉県",0,NA
"6893345","来来亭 ユリノキ通り店","〒344-0038 埼玉県春日部市大沼4-18-1 ",35.969544,139.756394,"東武伊勢崎線（東武スカイツリーライン）","春日部駅","徒歩18",NA,"埼玉県",0,NA
"6348392","一風堂 大宮店","〒338-0004 埼玉県さいたま市中央区本町西3-7-7 ",35.885702,139.615154,"JR埼京線","与野本町駅","徒歩17",NA,"埼玉県",1,3.5
"7371231","ジャパニーズ ヌードル ハッパ","〒333-0801 埼玉県川口市東川口2-2-21 ",35.876746,139.745468,"埼玉高速鉄道線","東川口駅","徒歩3",NA,"埼玉県",0,NA
"5394481","宝来軒","〒339-0002 埼玉県さいたま市岩槻区裏慈恩寺35-6 ",35.978816,139.699327,"東武野田線","東岩槻駅","徒歩30",NA,"埼玉県",0,NA
"6587659","中華一推","〒355-0216 埼玉県比企郡嵐山町むさし台1-5-1 101",NA,NA,"東武東上線","武蔵嵐山駅","徒歩5",NA,"埼玉県",0,NA
"7617107","横浜家系ラーメン 町田商店 所沢店","〒359-0026 埼玉県所沢市牛沼472-6 ",35.798309,139.490571,"西武新宿線","所沢駅","徒歩29",NA,"埼玉県",0,NA
"7160598","日高","〒350-1122 埼玉県川越市脇田町24-9 エキア川越川越3F",35.907135,139.48309,"東武東上線","川越駅","徒歩1",NA,"埼玉県",0,NA
"7162369","稀水 浦和大門店","〒336-0963 埼玉県さいたま市緑区大門1746-10 ",35.88378,139.724128,"埼玉高速鉄道線","浦和美園駅","徒歩18",NA,"埼玉県",2,NA
"6966112","常勝軒 TOKIO 島忠ホームズ草加舎人店","〒340-0032 埼玉県草加市遊馬町2-1 ホームズ草加舎人店1F",35.818294,139.76878,"都営日暮里・舎人ライナー","見沼代親水公園駅","徒歩8",NA,"埼玉県",4,3.625
"7003211","門左衛門 朝霞台店","〒351-0022 埼玉県朝霞市東弁財1-4-11 ",35.814182,139.586932,"東武東上線","朝霞台駅","徒歩1",NA,"埼玉県",0,NA
"6900503","しなそば彩","〒332-0025 埼玉県川口市原町13-18 ",35.799578,139.705719,"JR京浜東北線","川口駅","徒歩18",NA,"埼玉県",0,NA
"5683496","ヒマラヤラーメン 東口店","〒364-0006 埼玉県北本市北本2-46 ",36.033064,139.53678,"ＪＲ高崎線","北本駅","徒歩3",NA,"埼玉県",0,NA
"6164986","ばんだい 嵐山店","〒355-0221 埼玉県比企郡嵐山町菅谷682-1 ",36.03715,139.324801,"東武東上線","武蔵嵐山駅","徒歩12",NA,"埼玉県",1,4.5
"5494792","たつやくん","〒340-0022 埼玉県草加市瀬崎5-9-21 ",35.813893,139.811193,"東武伊勢崎線（東武スカイツリーライン）","谷塚駅","徒歩12",NA,"埼玉県",0,NA
"6013604","なかじま","〒330-0063 埼玉県さいたま市浦和区高砂1-10-18 ",35.857634,139.655563,"ＪＲ京浜東北線","浦和駅","徒歩3",NA,"埼玉県",0,NA
"6746094","らーめん 天き","〒350-0233 埼玉県坂戸市南町5-9 ミナミファイブ101",35.953927,139.393695,"東武東上線","坂戸駅","徒歩5",NA,"埼玉県",0,NA
"5494937","はましょうらーめん","〒351-0033 埼玉県朝霞市浜崎1-1-1 ",35.815396,139.587115,"JR武蔵野線（府中本町-南船橋）","北朝霞駅","徒歩1",NA,"埼玉県",0,NA
"7181323","ちゃーしゅうや武蔵　モラージュ菖蒲","〒346-0106 埼玉県久喜市菖蒲町菖蒲6005-1 ",36.075034,139.611334,"","","",NA,"埼玉県",0,NA
"5626505","天下一品 三郷店","〒341-0022 埼玉県三郷市大広戸909-3 ",35.846764,139.876311,"JR武蔵野線（府中本町-南船橋）","三郷（埼玉県）駅","徒歩11",NA,"埼玉県",0,NA
"5494322","ラーメン・ショップ味源","〒350-1177 埼玉県川越市かわつる三芳野1 ",NA,NA,"ＪＲ川越線","笠幡駅","徒歩27",NA,"埼玉県",0,NA
"5654580","おおぎやラーメン 熊谷籠原店","〒360-0841 埼玉県熊谷市新堀885 ",36.176851,139.333461,"ＪＲ高崎線","籠原駅","徒歩6",NA,"埼玉県",0,NA
"7653135","らーめん ふくのや 与野店","〒330-0071 埼玉県さいたま市浦和区上木崎1-2-15 ",35.885298,139.639694,"","","",NA,"埼玉県",0,NA
"6361519","ラーメンみちのく","〒351-0012 埼玉県朝霞市栄町5-7-14 ",35.787682,139.594129,"東武東上線","朝霞駅","徒歩17",NA,"埼玉県",0,NA
"6768203","伏竜 本店","〒352-0016 埼玉県新座市馬場1-8-5 ",35.781413,139.57264,"","","",NA,"埼玉県",0,NA
"5494822","嵐","〒343-0015 埼玉県越谷市花田6-4-9 ",35.903111,139.803726,"","","",NA,"埼玉県",1,5
"6925924","幸楽苑 三郷中央店","〒341-0038 埼玉県三郷市中央2-3-4 ",35.820767,139.88024,"つくばエクスプレス","三郷中央駅","徒歩8",NA,"埼玉県",0,NA
"5654589","珍達そば 横瀬店","〒368-0072 埼玉県秩父郡横瀬町大字横瀬5291 ",NA,NA,"","","",NA,"埼玉県",0,NA
"5640545","大勝軒しのや","〒345-0021 埼玉県北葛飾郡杉戸町北蓮沼497 ",36.013756,139.772858,"","","",NA,"埼玉県",1,3.5
"5495110","萬来 幸手店","〒340-0114 埼玉県幸手市東3-5-10 ",36.076445,139.724984,"東武日光線","幸手駅","徒歩15",NA,"埼玉県",0,NA
"5494353","昇龍","〒360-0037 埼玉県熊谷市筑波2-56-1 ",36.141167,139.389349,"秩父鉄道線","熊谷駅","徒歩2",NA,"埼玉県",0,NA
"7315044","幸楽苑 ウニクス南古谷店","〒350-0026 埼玉県川越市泉町3-1 ",35.906064,139.512429,"JR川越線","南古谷駅","徒歩12",NA,"埼玉県",0,NA
"7591142","みすず","〒334-0059 埼玉県川口市安行1014 ",35.848138,139.756213,"埼玉高速鉄道線","戸塚安行駅","徒歩15",NA,"埼玉県",0,NA
"7181319","壱角家 越谷店","〒343-0807 埼玉県越谷市赤山町2-59-7 1F",35.884554,139.783348,"東武伊勢崎線（東武スカイツリーライン）","越谷駅","徒歩7",NA,"埼玉県",0,NA
"7705774","らあめん花月嵐 草加バイパス店","〒340-0055 埼玉県草加市清門町1-401-1 ",35.85381,139.783992,"東武伊勢崎線","新田（埼玉県）駅","徒歩17",NA,"埼玉県",0,NA
"7358858","自家製麺 ラーメン慶","〒354-0015 埼玉県富士見市東みずほ台2-10-26 GSハイツ1 1F",35.840872,139.550163,"東武東上線","みずほ台駅","徒歩6",NA,"埼玉県",3,5
"6839942","こむぎ","〒343-0813 埼玉県越谷市越ヶ谷2-8-22 エースビル1F",35.890309,139.790217,"東武伊勢崎線（東武スカイツリーライン）","越谷駅","徒歩6",1000,"埼玉県",1,5
"7351999","Trigo","〒352-0001 埼玉県新座市東北1-12-1 南志木ハイム101",35.821836,139.570894,"東武東上線","志木駅","徒歩5",NA,"埼玉県",0,NA
"5898751","ちゃーしゅうや武蔵 ピオニウォーク東松山店","〒355-0048 埼玉県東松山市あずま町4-3 ピオニウォーク東松山1F",36.005636,139.410744,"東武東上線","高坂駅","徒歩17",NA,"埼玉県",0,NA
"5494200","ラーメンショップ 埼大店","〒338-0823 埼玉県さいたま市桜区栄和4-24-3 ",35.867765,139.614841,"ＪＲ埼京線","南与野駅","徒歩21",NA,"埼玉県",1,3.5
"7456532","らあめん花月嵐 浦和美園店","〒336-0967 埼玉県さいたま市緑区美園6-10-12 ",NA,NA,"","","",NA,"埼玉県",0,NA
"5494818","ほくしん 草加谷塚店","〒340-0024 埼玉県草加市谷塚上町623-1 ",35.816287,139.792239,"東武伊勢崎線（東武スカイツリーライン）","谷塚駅","徒歩12",NA,"埼玉県",4,3.66666666666667
"5801539","小樽らーめん 豆の木 蓮田店","〒349-0128 埼玉県蓮田市山ノ内4-2 ",35.98455,139.644637,"JR宇都宮線・JR上野東京ライン","蓮田駅","徒歩14",NA,"埼玉県",0,NA
"6711813","ラーメン天天","〒359-0037 埼玉県所沢市くすのき台1-12-1 ",35.785293,139.473498,"西武新宿線","所沢駅","徒歩2",NA,"埼玉県",0,NA
"5646041","らーめんけいぶ","〒368-0046 埼玉県秩父市宮側町7-2 ",35.999492,139.085378,"秩父鉄道線","秩父駅","徒歩2",NA,"埼玉県",0,NA
"6431806","幸楽苑 飯能店","〒357-0023 埼玉県飯能市岩沢125-1 ",35.846333,139.338538,"西武池袋線","元加治駅","徒歩14",NA,"埼玉県",0,NA
"6986412","中華三島屋","〒332-0006 埼玉県川口市末広2-15-1 ",35.803698,139.736819,"埼玉高速鉄道線","川口元郷駅","徒歩10",NA,"埼玉県",0,NA
"7584968","濃厚コク旨ラーメン ときすけ","〒343-0833 埼玉県越谷市蒲生南町16-6 ",35.856403,139.807031,"東武伊勢崎線","新田（埼玉県）駅","徒歩16",NA,"埼玉県",0,NA
"7345153","ラーメンとん太 坂戸店","〒350-0209 埼玉県坂戸市塚越1439-15 ",35.961158,139.413268,"東武東上線","若葉駅","徒歩23",NA,"埼玉県",0,NA
"6282642","珍来 三郷駅前店","〒341-0024 埼玉県三郷市三郷1-2-7 ",35.844175,139.886752,"ＪＲ武蔵野線（府中本町-南船橋）","三郷（埼玉県）駅","徒歩2",NA,"埼玉県",0,NA
"6436966","麺や豊","〒344-0062 埼玉県春日部市粕壁東1-3-1 ",35.981048,139.754572,"東武伊勢崎線（東武スカイツリーライン）","春日部駅","徒歩2",NA,"埼玉県",0,NA
"6205782","らぁめん 味斗","〒366-0801 埼玉県深谷市上野台2542-1 ",36.177774,139.27741,"ＪＲ高崎線","深谷駅","徒歩22",NA,"埼玉県",0,NA
"6280258","一心亭 飯塚店","〒332-0023 埼玉県川口市飯塚4-5-27 ",35.797998,139.709833,"ＪＲ京浜東北線","川口駅","徒歩3",NA,"埼玉県",0,NA
"7691274","もちもちの木 イオンモール春日部店","〒344-0122 埼玉県春日部市下柳420-1 イオンモール春日部 2F",35.987698,139.788177,"東武野田線","藤の牛島駅","徒歩23",NA,"埼玉県",0,NA
"6994494","龍キ楼","〒340-0831 埼玉県八潮市南後谷3-5 ",35.827922,139.817542,"東武伊勢崎線（東武スカイツリーライン）","草加駅","徒歩16",NA,"埼玉県",0,NA
"6752326","鶏白湯ラーメン とりの助 上里店","〒369-0305 埼玉県児玉郡上里町神保原町2201 ",36.256537,139.156051,"ＪＲ高崎線","神保原駅","徒歩19",NA,"埼玉県",0,NA
"7121569","大宮豚骨 一番軒","〒330-0854 埼玉県さいたま市大宮区桜木町2-6 DOMビルPart2 909",NA,NA,"埼玉新都市交通ニューシャトル","大宮（埼玉県）駅","徒歩2",NA,"埼玉県",0,NA
"7759715","博多らーめん ひまわり","〒359-0015 埼玉県所沢市大字日比田110-4 ",35.805725,139.510975,"JR武蔵野線（府中本町-南船橋）","東所沢駅","徒歩19",NA,"埼玉県",0,NA
"5907193","ありが10","〒343-0845 埼玉県越谷市南越谷4-8-6 ",35.874841,139.788137,"東武伊勢崎線","新越谷駅","徒歩3",NA,"埼玉県",4,3
"5495214","おおぎやラーメン 上里店","〒369-0300 埼玉県児玉郡上里町神保原町892-3 ",36.25959,139.14905,"JR高崎線","神保原駅","徒歩9",NA,"埼玉県",0,NA
"7652364","麺家紫極","〒330-0835 埼玉県さいたま市大宮区北袋町1-328-2 ",35.889853,139.637169,"JR京浜東北線","さいたま新都心駅","徒歩7",NA,"埼玉県",0,NA
"5495255","もるげん","〒346-0113 埼玉県久喜市菖蒲町下栢間2037-1 ",36.038476,139.579482,"","","",NA,"埼玉県",0,NA
"6426417","ラーメンショップ 三芳町店","〒354-0044 埼玉県入間郡三芳町北永井361-10 ",35.829237,139.515454,"","","",NA,"埼玉県",0,NA
"5494262","大勝軒 東岩槻店","〒339-0005 埼玉県さいたま市岩槻区東岩槻1-4-9 ",35.963568,139.710732,"東武野田線","東岩槻駅","徒歩2",NA,"埼玉県",0,NA
"7187075","法隆","〒344-0065 埼玉県春日部市谷原1-17-55 ",35.968644,139.744515,"東武野田線","八木崎駅","徒歩17",NA,"埼玉県",0,NA
"6189425","らーめんショップ 夢や","〒338-0014 埼玉県さいたま市中央区上峰2-3-2 ",35.87412,139.617096,"ＪＲ埼京線","与野本町駅","徒歩16",NA,"埼玉県",0,NA
"7617099","Ramen611","〒358-0014 埼玉県入間市宮寺611 ",35.792729,139.380011,"","","",NA,"埼玉県",0,NA
"6415168","麺屋 時茂","〒340-0015 埼玉県草加市高砂2-5-5 ",35.826717,139.803535,"東武伊勢崎線","草加駅","徒歩2",NA,"埼玉県",1,4
"6908055","凛","〒368-0025 埼玉県秩父市桜木町12-28 ",36.004852,139.081939,"秩父鉄道線","秩父駅","徒歩12",NA,"埼玉県",5,3.6
"5835975","おおぎやラーメン 児玉店","〒367-0212 埼玉県本庄市児玉町児玉1747-1 ",36.1898,139.145341,"ＪＲ八高線（高麗川-倉賀野）","児玉駅","徒歩14",NA,"埼玉県",0,NA
"5910968","ラーメンマルタツ・竜","〒350-0465 埼玉県入間郡毛呂山町岩井西3-11-5 ",35.941888,139.314541,"東武越生線","東毛呂駅","徒歩8",NA,"埼玉県",0,NA
"7754960","中華食堂 悟楼","〒340-0022 埼玉県草加市瀬崎7-11-6 ",35.81013,139.812268,"東武伊勢崎線","谷塚駅","徒歩16",NA,"埼玉県",0,NA
"5494396","寿","〒333-0842 埼玉県川口市前川4-8-1 ",35.839049,139.705426,"JR京浜東北線","蕨駅","徒歩28",NA,"埼玉県",0,NA
"7403290","と多？食堂","〒357-0016 埼玉県飯能市下加治173-3 ",35.864422,139.334096,"西武秩父線","東飯能駅","徒歩23",NA,"埼玉県",0,NA
"6316536","ラーメン魁力屋 草加店","〒340-0044 埼玉県草加市花栗4-24-10 ",35.836651,139.790355,"東武伊勢崎線（東武スカイツリーライン）","獨協大学前駅","徒歩18",NA,"埼玉県",0,NA
"6254164","つけめん102 大宮店","〒330-0854 埼玉県さいたま市大宮区桜木町2-446 ",35.907769,139.618528,"埼玉新都市交通ニューシャトル","大宮（埼玉県）駅","徒歩5",NA,"埼玉県",10,4.2
"5826982","らあめん花月嵐 朝霞田島店","〒351-0032 埼玉県朝霞市田島2-6 ",NA,NA,"JR武蔵野線（府中本町-南船橋）","北朝霞駅","徒歩27",NA,"埼玉県",0,NA
"7160988","ジャンプ","〒344-0064 埼玉県春日部市南5-1-56 ",35.969958,139.759702,"東武伊勢崎線","一ノ割駅","徒歩16",NA,"埼玉県",0,NA
"5494241","くるまやラーメン 浦和東大門店","〒336-0964 埼玉県さいたま市緑区東大門2-17 ",NA,NA,"埼玉高速鉄道線","東川口駅","徒歩12",NA,"埼玉県",1,3.5
"5494523","珍来 東所沢店","〒359-0011 埼玉県所沢市南永井619-1 ",35.815008,139.520471,"","","",NA,"埼玉県",0,NA
"7132215","アンダーグラウンドラーメン コクーン新都心店","〒330-0843 埼玉県さいたま市大宮区吉敷町4-267-2 コクーン新都心 北館 2F",35.894877,139.636102,"ＪＲ京浜東北線","さいたま新都心駅","徒歩3",NA,"埼玉県",1,3
"7463517","本格中華そば 會流裳","〒345-0044 埼玉県北葛飾郡杉戸町下野953--2 ",36.058854,139.703623,"東武日光線","杉戸高野台駅","徒歩19",NA,"埼玉県",0,NA
"5910963","らあめん花月嵐 朝霞駅前店","〒351-0011 埼玉県朝霞市本町2-13-1 ",35.79712,139.59977,"東武東上線","朝霞駅","徒歩1",NA,"埼玉県",1,3.5
"5495108","清水屋","〒340-0115 埼玉県幸手市中3-9-13 ",36.076748,139.720182,"東武日光線","幸手駅","徒歩10",NA,"埼玉県",0,NA
"5494623","来々軒","〒355-0028 埼玉県東松山市箭弓町2-11-13 1F",36.033696,139.400722,"東武東上線","東松山駅","徒歩3",NA,"埼玉県",0,NA
"7697972","麺屋しげる","〒334-0075 埼玉県川口市江戸袋1-14-2 ",35.817458,139.756487,"都営日暮里・舎人ライナー","見沼代親水公園駅","徒歩19",NA,"埼玉県",0,NA
"6734512","カインズキッチン 大利根店","〒349-1133 埼玉県加須市琴寄70 ",36.126935,139.684124,"東武日光線","栗橋駅","徒歩27",NA,"埼玉県",0,NA
"5494136","どさん子","〒330-0841 埼玉県さいたま市大宮区東町1-137 ",35.905692,139.631235,"JR上越新幹線","大宮（埼玉県）駅","徒歩9",NA,"埼玉県",0,NA
"6741448","和風楽麺 四代目 ひのでや","〒349-0123 埼玉県蓮田市本町2-21 田中電機ビル",35.981112,139.652128,"JR宇都宮線・JR上野東京ライン","蓮田駅","徒歩2",NA,"埼玉県",1,3.5
"5022318","蓬莱","〒357-0033 埼玉県飯能市稲荷町14-19 ",35.852756,139.314984,"西武池袋線","飯能駅","徒歩7",NA,"埼玉県",0,NA
"6717928","らあめん花月 嵐 高坂サービスエリア店","〒355-0053 埼玉県東松山市田木立野4-5 関越自動車道上り線 高坂SA内",NA,NA,"","","",NA,"埼玉県",0,NA
"7721463","マルキン本舗 百年味噌ラーメン 熊谷店","〒360-0023 埼玉県熊谷市佐谷田724-1 ",36.127925,139.415959,"秩父鉄道線","ソシオ流通センター駅","徒歩20",NA,"埼玉県",0,NA
"5494982","中華十八番 西口店","〒363-0021 埼玉県桶川市泉1-8-16 1F",35.999835,139.557374,"ＪＲ高崎線","桶川駅","徒歩9",NA,"埼玉県",0,NA
"5495231","らあめんハウス","〒347-0111 埼玉県加須市鴻茎72-1 ",NA,NA,"","","",NA,"埼玉県",0,NA
"5022565","チャーシュー専門店 チャーシュー力 新狭山店","〒350-1302 埼玉県狭山市東三ツ木62-1 ",35.871958,139.437323,"西武新宿線","新狭山駅","徒歩6",NA,"埼玉県",0,NA
"7624853","三代目らーめん梅丸","〒369-1101 埼玉県深谷市長在家468-2 ",36.150822,139.286688,"秩父鉄道線","武川駅","徒歩19",NA,"埼玉県",0,NA
"7665289","五穀みそらーめん 味噌屋蔵之介 東松山店","〒355-0073 埼玉県東松山市上野本1154-1 ",36.026409,139.405116,"東武東上線","東松山駅","徒歩13",NA,"埼玉県",0,NA
"5712963","らあめん花月嵐 志木南店","〒352-0003 埼玉県新座市北野1-2-16 ",35.814945,139.568436,"東武東上線","志木駅","徒歩13",NA,"埼玉県",0,NA
"5494928","大吉","〒334-0001 埼玉県川口市桜町3-1-19 ",NA,NA,"埼玉高速鉄道線","新井宿駅","徒歩8",NA,"埼玉県",0,NA
"7667282","洋食ラーメンBUONO！","〒340-0014 埼玉県草加市住吉1-6-1 italian NAHOH内",35.830177,139.80454,"東武伊勢崎線","草加駅","徒歩3",NA,"埼玉県",0,NA
"6957019","三ツ矢堂製麺 上福岡店","〒356-0045 埼玉県ふじみ野市鶴ヶ岡3-10-19 ",35.870304,139.504164,"東武東上線","上福岡駅","徒歩12",NA,"埼玉県",0,NA
"7382775","味噌ラーメン専門店 日月堂 三郷店","〒341-0004 埼玉県三郷市上彦名541-2 ",35.85001,139.856866,"JR武蔵野線（府中本町-南船橋）","新三郷駅","徒歩23",NA,"埼玉県",0,NA
"5808713","おおぎやラーメン 埼玉伊奈店","〒362-0802 埼玉県北足立郡伊奈町学園2-107 ",36.009805,139.610466,"埼玉新都市交通ニューシャトル","羽貫駅","徒歩4",NA,"埼玉県",3,1.66666666666667
"6410312","陣太鼓ラーメン","〒340-0011 埼玉県草加市栄町3-4-9 ",35.844212,139.801248,"東武伊勢崎線","獨協大学前［草加松原］駅","徒歩1",NA,"埼玉県",0,NA
"5494087","幸楽苑 指扇店","〒331-0047 埼玉県さいたま市西区大字指扇2385-3 ",35.914109,139.572426,"JR川越線","指扇駅","徒歩12",NA,"埼玉県",0,NA
"7283145","中華 森田","〒347-0115 埼玉県加須市上種足494-1 ",36.081759,139.55474,"","","",NA,"埼玉県",0,NA
"6280227","太古ダイニング","〒353-0005 埼玉県志木市幸町4-3-6 ",35.820181,139.563544,"東武東上線","志木駅","徒歩14",NA,"埼玉県",0,NA
"5395089","珍来 谷塚駅前店","〒340-0028 埼玉県草加市谷塚町1-2-30 ",NA,NA,"","","",NA,"埼玉県",0,NA
"5495208","めん郷","〒367-0101 埼玉県児玉郡美里町小茂田459-8 ",36.207168,139.185581,"JR上越新幹線","本庄早稲田駅","徒歩27",NA,"埼玉県",0,NA
"6710249","麺や 壽光","〒358-0026 埼玉県入間市小谷田385-4 ",35.820989,139.369072,"西武池袋線","仏子駅","徒歩29",NA,"埼玉県",0,NA
"7378897","ヒマラヤラーメン 西口本店","〒364-0035 埼玉県北本市西高尾1-34-2 ",36.033078,139.527322,"","","",NA,"埼玉県",0,NA
"5494831","光月軒","〒343-0023 埼玉県越谷市東越谷1-3-6 ",35.892495,139.795319,"東武伊勢崎線","越谷駅","徒歩12",NA,"埼玉県",0,NA
"6364805","える豚らーめん","〒343-0836 埼玉県越谷市蒲生寿町14-12 ",35.866381,139.794648,"東武伊勢崎線","蒲生駅","徒歩4",NA,"埼玉県",0,NA
"6770132","ラーメン武蔵家","〒350-0043 埼玉県川越市新富町2-1-10 ",35.913559,139.482901,"西武新宿線","本川越駅","徒歩2",NA,"埼玉県",0,NA
"5494675","東京とんこつとんとら 狭山入曽店","〒350-1305 埼玉県狭山市入間川3172-3 ",35.842996,139.422561,"西武新宿線","入曽駅","徒歩17",NA,"埼玉県",0,NA
"5494199","やまちやんラーメン","〒338-0812 埼玉県さいたま市桜区神田85-7 ",35.873812,139.611119,"ＪＲ埼京線","与野本町駅","徒歩23",NA,"埼玉県",0,NA
"5917486","大勝軒 赤ふじ 熊谷店","〒360-0804 埼玉県熊谷市代1052-12 ",36.174044,139.369936,"","","",NA,"埼玉県",0,NA
"5914508","らーめん五葉","〒356-0050 埼玉県ふじみ野市ふじみ野1-7-1 ",35.857039,139.514464,"東武東上線","ふじみ野駅","徒歩11",NA,"埼玉県",0,NA
"6973880","キャベツ館","〒338-0812 埼玉県さいたま市桜区神田44-5 ",35.874562,139.612302,"ＪＲ埼京線","与野本町駅","徒歩22",NA,"埼玉県",0,NA
"6740680","らーめん 楊貴亭","〒343-0816 埼玉県越谷市弥生町11-2 ",35.889659,139.787517,"東武伊勢崎線（東武スカイツリーライン）","越谷駅","徒歩2",NA,"埼玉県",0,NA
"7520102","ラーメン三食亭","〒367-0235 埼玉県児玉郡神川町新宿220-6 ",36.189862,139.068439,"","","",NA,"埼玉県",0,NA
"7593230","ゴールデンタイガー","〒360-0042 埼玉県熊谷市本町2-116 アイジマビル1F",36.142934,139.387755,"秩父鉄道線","熊谷駅","徒歩6",NA,"埼玉県",0,NA
"6460403","ラーメン魁力屋 三郷店","〒341-0004 埼玉県三郷市上彦名320-1 ",35.849218,139.852161,"ＪＲ武蔵野線（府中本町-南船橋）","新三郷駅","徒歩27",NA,"埼玉県",1,3.5
"5495151","馬鹿美味","〒356-0057 埼玉県ふじみ野市市沢1-4-17 ",35.855187,139.52323,"東武東上線","ふじみ野駅","徒歩11",NA,"埼玉県",2,4.5
"6719142","梅太郎","〒359-0032 埼玉県所沢市若松町827-1 ",35.799422,139.4801,"西武新宿線","航空公園駅","徒歩18",NA,"埼玉県",0,NA
"5495174","チャーシュー力 三芳店","〒354-0045 埼玉県入間郡三芳町上富1040-1 ",35.825612,139.507377,"","","",NA,"埼玉県",0,NA
"7704682","まかない へきる","〒336-0021 埼玉県さいたま市南区別所7-1-14 ",35.846055,139.649477,"ＪＲ","武蔵浦和駅","徒歩1",NA,"埼玉県",0,NA
"5494117","ラーメンショップニューシャトル 宮原店","〒331-0812 埼玉県さいたま市北区宮原町2-109 ",NA,NA,"埼玉新都市交通ニューシャトル","東宮原駅","徒歩1",NA,"埼玉県",0,NA
"7665628","ラーメン鴻","〒334-0062 埼玉県川口市榛松269-7 ",35.820351,139.768461,"都営日暮里・舎人ライナー","見沼代親水公園駅","徒歩11",NA,"埼玉県",0,NA
"6729385","客隆軒","〒369-1246 埼玉県深谷市小前田1211-1 ",36.124876,139.233224,"秩父鉄道線","小前田駅","徒歩16",NA,"埼玉県",0,NA
"5495271","幸楽苑 杉戸店","〒345-0024 埼玉県北葛飾郡杉戸町大字堤根4672 ",36.021529,139.743968,"東武伊勢崎線","東武動物公園駅","徒歩24",NA,"埼玉県",0,NA
"7666466","拉麺BARuでんすけ","〒360-0044 埼玉県熊谷市弥生2-66 イーホテル1F",36.141559,139.38818,"秩父鉄道線","熊谷駅","徒歩3",NA,"埼玉県",0,NA
"7124850","東京油組総本店 大宮組","〒330-0854 埼玉県さいたま市大宮区桜木町2-4-20 ",35.906328,139.620861,"JR上越新幹線","大宮（埼玉県）駅","徒歩3",NA,"埼玉県",0,NA
"5495035","ラーメンとん太 八条店","〒340-0801 埼玉県八潮市八條490-4 ",35.852212,139.834487,"","","",NA,"埼玉県",0,NA
"6514687","福よし 岩槻店","〒339-0042 埼玉県さいたま市岩槻区府内3-7-1 スーパービバホーム岩槻店内フードコート",35.944023,139.716412,"東武野田線","岩槻駅","徒歩29",NA,"埼玉県",0,NA
"7617098","横浜家系ラーメン春樹 吉川店","〒342-0045 埼玉県吉川市木売1-7-2 誠第7ビル1F",35.876848,139.844024,"JR武蔵野線（府中本町-南船橋）","吉川駅","徒歩1",NA,"埼玉県",0,NA
"7413903","小樽らーめん豆の木 越谷店","〒343-0806 埼玉県越谷市宮本町5-155-1 ",35.887304,139.772938,"東武伊勢崎線","越谷駅","徒歩20",NA,"埼玉県",0,NA
"5627131","梅丸ラーメン 上之総本店","〒360-0012 埼玉県熊谷市上之646-1 ",36.156661,139.410772,"","","",NA,"埼玉県",0,NA
"7072375","永太","〒333-0866 埼玉県川口市芝5-2-14 ",35.831474,139.691089,"ＪＲ京浜東北線","蕨駅","徒歩6",NA,"埼玉県",0,NA
"6310217","らーめん岡崎 鶴ヶ島店","〒350-2211 埼玉県鶴ヶ島市脚折町3-17-3 ",35.947747,139.389949,"東武東上線","坂戸駅","徒歩16",NA,"埼玉県",1,4
"7594702","壱角家見沼深作店","〒337-0003 埼玉県さいたま市見沼区深作1-27-2 ",35.950702,139.668314,"東武野田線","七里駅","徒歩27",NA,"埼玉県",0,NA
"5495025","ラーメン専科めんや","〒364-0007 埼玉県北本市東間3-100-22 ",36.039064,139.530113,"ＪＲ高崎線","北本駅","徒歩12",NA,"埼玉県",0,NA
"6769962","福よし 埼玉大井店","〒356-0044 埼玉県ふじみ野市西鶴ケ岡1-3-15 ビバモール埼玉大井 1F",35.863982,139.502315,"東武東上線","上福岡駅","徒歩20",NA,"埼玉県",0,NA
"6772832","担担麺 花さんしょう 日高店","〒350-1245 埼玉県日高市栗坪18-7 ",35.886272,139.313344,"西武秩父線","高麗駅","徒歩14",NA,"埼玉県",0,NA
"7179086","川越らーめん こひや","〒350-0066 埼玉県川越市連雀町9-1 ",35.919734,139.482648,"西武新宿線","本川越駅","徒歩8",750,"埼玉県",0,NA
"7690848","中華そば 葵 ララガーデン川口店","〒332-0028 埼玉県川口市宮町18-9 ララガーデン川口 1F",35.805408,139.698522,"JR京浜東北線","西川口駅","徒歩18",NA,"埼玉県",0,NA
"7378934","宮本商店 川口新井宿店","〒333-0833 埼玉県川口市大字西新井宿81-1 ドンキホーテ川口新井宿店",35.841074,139.734168,"埼玉高速鉄道線","新井宿駅","徒歩5",NA,"埼玉県",0,NA
"7727203","北海道ラーメン 龍源 所沢2号店","〒359-0014 埼玉県所沢市亀ヶ谷407-1 ",35.807683,139.512597,"JR武蔵野線（府中本町-南船橋）","東所沢駅","徒歩23",NA,"埼玉県",0,NA
"5251180","城西ラーメン","〒361-0057 埼玉県行田市城西3-7-21 ",36.135944,139.446447,"秩父鉄道線","持田駅","徒歩6",NA,"埼玉県",0,NA
"6460370","めんや 正明","〒353-0004 埼玉県志木市本町5-23-28 本町カトレア1F",35.824461,139.576029,"東武東上線","志木駅","徒歩2",NA,"埼玉県",0,NA
"7707132","きゃべとんラーメン入間インター店","〒358-0026 埼玉県入間市小谷田609-14 ",35.820426,139.376658,"","","",NA,"埼玉県",0,NA
"6164987","ラーメン ビック","〒337-0043 埼玉県さいたま市見沼区中川305-15 ",35.901493,139.66043,"","","",NA,"埼玉県",0,NA
"5395298","新京","〒351-0011 埼玉県朝霞市本町1-16-3 ",35.800131,139.594012,"東武東上線","朝霞駅","徒歩10",NA,"埼玉県",0,NA
"7628404","きくちひろき","〒360-0042 埼玉県熊谷市本町2-125 ",36.143236,139.388224,"秩父鉄道線","熊谷駅","徒歩6",NA,"埼玉県",1,5
"6369896","幸楽苑 さいたま大戸店","〒338-0012 埼玉県さいたま市中央区大戸3-15-24 ",35.865814,139.638942,"ＪＲ埼京線","南与野駅","徒歩11",NA,"埼玉県",0,NA
"7162371","ラーメン凪 大宮東口店","〒330-0846 埼玉県さいたま市大宮区大門町1-24-1 大一ビル1F",35.906786,139.626061,"JR上越新幹線","大宮（埼玉県）駅","徒歩2",NA,"埼玉県",2,NA
"7657901","ニュータンタンメン蕨店","〒335-0004 埼玉県蕨市中央1-8-6 ",35.826486,139.690189,"JR京浜東北線","蕨駅","徒歩3",NA,"埼玉県",0,NA
"6352092","田島 ラーメンフライ","〒361-0025 埼玉県行田市埼玉4606-8 ",36.107677,139.491778,"","","",NA,"埼玉県",0,NA
"6389485","らー麺つやつや","〒343-0846 埼玉県越谷市登戸町5-27 ",35.874278,139.801358,"ＪＲ武蔵野線（府中本町-南船橋）","南越谷駅","徒歩3",NA,"埼玉県",0,NA
"6752312","中華そば輝羅","〒346-0113 埼玉県久喜市菖蒲町下栢間2032-2 ",36.037867,139.579509,"","","",NA,"埼玉県",0,NA
"5494495","見晴亭 宮側店","〒368-0046 埼玉県秩父市宮側町3-9 ",35.998184,139.085251,"秩父鉄道線","秩父駅","徒歩2",NA,"埼玉県",0,NA
"5251609","門前飯店","〒340-0217 埼玉県久喜市鷲宮2-12-14 ",36.100713,139.659553,"東武伊勢崎線","鷲宮駅","徒歩6",NA,"埼玉県",0,NA
"5494509","幸楽苑 所沢美原店","〒359-0045 埼玉県所沢市美原町4-2964-3 ",35.814692,139.460656,"西武新宿線","新所沢駅","徒歩13",NA,"埼玉県",0,NA
"6460357","幸楽苑 川口上青木店","〒333-0845 埼玉県川口市上青木西2-14-21 ",35.825037,139.717126,"JR京浜東北線","西川口駅","徒歩23",NA,"埼玉県",0,NA
"7113623","壱角家 川越店","〒350-0043 埼玉県川越市新富町2-9-9 MAKOTOYA1F",35.912254,139.482717,"西武新宿線","本川越駅","徒歩4",NA,"埼玉県",0,NA
"5494165","手もみラーメン十八番","〒337-0016 埼玉県さいたま市見沼区東門前56 ",35.933018,139.665545,"東武野田線","七里駅","徒歩5",NA,"埼玉県",1,3.5
"5494192","でこラーメン","〒338-0823 埼玉県さいたま市桜区栄和4-23-5 ",35.868082,139.615766,"ＪＲ埼京線","南与野駅","徒歩20",NA,"埼玉県",0,NA
"5494912","十八番","〒358-0026 埼玉県入間市小谷田359 ",35.824116,139.368025,"西武池袋線","仏子駅","徒歩26",NA,"埼玉県",0,NA
"5494118","らーめんハウス味好","〒331-0823 埼玉県さいたま市北区日進町1-354 ",35.923048,139.605195,"ＪＲ川越線","日進（埼玉県）駅","徒歩13",NA,"埼玉県",0,NA
"7664850","中国ラーメン揚州商人 東大宮店","〒337-0051 埼玉県さいたま市見沼区東大宮1-86-1 ",35.939361,139.645116,"JR宇都宮線・JR上野東京ライン","東大宮駅","徒歩15",NA,"埼玉県",0,NA
"7640956","ごはん＆カフェ モーメント 杉戸店","〒345-0047 埼玉県北葛飾郡杉戸町高野台東2-4-1 パチンコ D’station杉戸店",36.048014,139.71805,"東武日光線","杉戸高野台駅","徒歩8",NA,"埼玉県",0,NA
"6164957","東京とんこつ とんとら 上尾店","〒362-0043 埼玉県上尾市西宮下2-298-1 ",35.961874,139.588114,"JR高崎線","上尾駅","徒歩19",NA,"埼玉県",0,NA
"6400695","つどい亭","〒344-0121 埼玉県春日部市上柳995 道の駅庄和 食彩館内",35.996797,139.794793,"","","",NA,"埼玉県",0,NA
"7728149","町田商店 浦和店","〒336-0932 埼玉県さいたま市緑区中尾303-1 ",35.873591,139.678091,"","","",NA,"埼玉県",0,NA
"7671591","ぶんぶんまる","〒363-0024 埼玉県桶川市鴨川2-4-5 ",35.993416,139.558605,"JR高崎線","桶川駅","徒歩10",NA,"埼玉県",0,NA
"5495012","幸楽苑 北本店","〒364-0001 埼玉県北本市深井7-225 ",36.05212,139.52841,"JR高崎線","鴻巣駅","徒歩29",NA,"埼玉県",0,NA
"5495142","くるまやラーメン 埼玉吉川店","〒342-0035 埼玉県吉川市高久1-26-16 ",35.866788,139.84483,"JR武蔵野線（府中本町-南船橋）","吉川駅","徒歩14",NA,"埼玉県",0,NA
"6306141","川口家","〒332-0016 埼玉県川口市幸町3-8-5 1F",35.805286,139.717451,"ＪＲ京浜東北線","川口駅","徒歩4",NA,"埼玉県",1,5
"7181318","麺場 田所商店 桶川店","〒363-0016 埼玉県桶川市寿2-15-9 ",36.004415,139.566895,"ＪＲ高崎線","桶川駅","徒歩11",NA,"埼玉県",0,NA
"6712251","どんどん 大宮東口店","〒330-0846 埼玉県さいたま市大宮区大門町1-3 鍵利ビル1F",35.907536,139.626219,"ＪＲ上越新幹線","大宮（埼玉県）駅","徒歩2",NA,"埼玉県",0,NA
"7219319","らーめん亭 壱柳 越谷駅前店","〒343-0816 埼玉県越谷市弥生町4-11 ",35.888146,139.786014,"東武伊勢崎線","越谷駅","徒歩1",NA,"埼玉県",0,NA
"5494629","くるまやラーメン 春日部16号店","〒344-0041 埼玉県春日部市増富736 ",35.967677,139.734529,"東武野田線","豊春駅","徒歩13",NA,"埼玉県",0,NA
"5394380","宝来軒","〒338-0812 埼玉県さいたま市桜区神田442-1 ",35.874353,139.604531,"ＪＲ埼京線","与野本町駅","徒歩28",NA,"埼玉県",0,NA
"5494311","福竜","〒350-1175 埼玉県川越市笠幡4864-1 ",35.908481,139.414484,"JR川越線","笠幡駅","徒歩9",NA,"埼玉県",0,NA
"7638408","麺や笑","〒352-0012 埼玉県新座市畑中1-13-8 ",35.787965,139.575556,"","","",NA,"埼玉県",0,NA
"7416791","壱角家 春日部店","〒344-0063 埼玉県春日部市緑町5-7-31 ",35.968819,139.768982,"東武伊勢崎線","一ノ割駅","徒歩9",NA,"埼玉県",0,NA
"5021640","北海道ラーメン 唐麺","〒350-0062 埼玉県川越市元町2-1-9 ",35.924211,139.482836,"西武新宿線","本川越駅","徒歩14",NA,"埼玉県",0,NA
"7563008","UNDERGROUND RAMEN","〒350-0065 埼玉県川越市仲町10-13 ",35.92167,139.481492,"西武新宿線","本川越駅","徒歩12",NA,"埼玉県",0,NA
"7124538","麺屋 鶏口","〒356-0004 埼玉県ふじみ野市上福岡6-5-4 ",35.871168,139.509233,"東武東上線","上福岡駅","徒歩6",NA,"埼玉県",0,NA
"6744790","あそ路","〒332-0012 埼玉県川口市本町4-1-10 ",35.801081,139.720204,"ＪＲ京浜東北線","川口駅","徒歩3",NA,"埼玉県",1,4
"5494841","珍来 蒲生店","〒343-0836 埼玉県越谷市蒲生寿町5-14 ",35.867073,139.794556,"東武伊勢崎線","蒲生駅","徒歩4",NA,"埼玉県",0,NA
"5494103","くるまやラーメン 大宮吉野店","〒331-0811 埼玉県さいたま市北区吉野町2-231-4 ",35.962824,139.608104,"埼玉新都市交通ニューシャトル","吉野原駅","徒歩21",NA,"埼玉県",0,NA
"7133612","ラーメン 春樹 イトーヨーカドー三郷店","〒341-0050 埼玉県三郷市天神2-22 イドーヨーカドー2F",NA,NA,"","","",NA,"埼玉県",1,4
"5494395","コシ屋","〒332-0035 埼玉県川口市西青木1-9-15 ",35.815349,139.714912,"JR京浜東北線","西川口駅","徒歩12",NA,"埼玉県",0,NA
"5494922","幸村","〒358-0003 埼玉県入間市豊岡5-4-9 ",35.835191,139.395783,"西武池袋線","入間市駅","徒歩12",NA,"埼玉県",0,NA
"6155259","煮干そば とみ田","〒340-0206 埼玉県久喜市西大輪3-20-10 ",36.087964,139.677307,"JR宇都宮線・JR上野東京ライン","東鷲宮駅","徒歩4",NA,"埼玉県",0,NA
"6743723","四華郷","〒360-0835 埼玉県熊谷市大麻生891-1 ",36.146715,139.331815,"秩父鉄道線","大麻生駅","徒歩3",NA,"埼玉県",0,NA
"5494573","ラーメンショップ 羽生インター店","〒347-0051 埼玉県加須市戸川1534 ",36.163473,139.594648,"","","",NA,"埼玉県",0,NA
"5495262","幸楽苑 鷲宮店","〒340-0206 埼玉県久喜市西大輪2-11-1 ",36.092364,139.675979,"JR宇都宮線・JR上野東京ライン","東鷲宮駅","徒歩8",NA,"埼玉県",0,NA
"7738006","炸醤面 まさ吉","〒359-1146 埼玉県所沢市小手指南5-30-7 ",35.785109,139.426746,"西武狭山線","下山口駅","徒歩22",NA,"埼玉県",0,NA
"7743497","六代目 蝦夷","〒350-0461 埼玉県入間郡毛呂山町中央2-13-3 ",35.941644,139.317911,"","","",NA,"埼玉県",0,NA
"5495001","香港栄華","〒346-0005 埼玉県久喜市本町6-13-18 ",36.073752,139.664251,"東武伊勢崎線","久喜駅","徒歩19",NA,"埼玉県",0,NA
"7633430","麺屋 やまと","〒336-0017 埼玉県さいたま市南区南浦和2-35-3 ",35.848783,139.670759,"JR京浜東北線","南浦和駅","徒歩2",NA,"埼玉県",0,NA
"5022731","ラーメンショップ 上柴西店","〒366-0052 埼玉県深谷市上柴町西7-16-15 ",36.175989,139.292992,"JR高崎線","深谷駅","徒歩30",NA,"埼玉県",0,NA
"7250215","春樹 東武霞が関店","〒350-1103 埼玉県川越市霞ヶ関東1-2-21 ",35.925271,139.442923,"東武東上線","霞ヶ関（埼玉県）駅","徒歩1",NA,"埼玉県",0,NA
"6436766","丸源ラーメン 所沢北野店","〒359-1152 埼玉県所沢市北野2-1-1 ",35.797127,139.426674,"西武池袋線","小手指駅","徒歩17",NA,"埼玉県",0,NA
"6981990","麺屋 甚支","〒331-0802 埼玉県さいたま市北区本郷町869 ",35.946165,139.621876,"埼玉新都市交通ニューシャトル","今羽駅","徒歩6",NA,"埼玉県",2,NA
"5494338","ラーメン永華","〒360-0801 埼玉県熊谷市中奈良744-1 ",36.187481,139.369905,"","","",NA,"埼玉県",0,NA
"7745850","幸楽苑 蓮田店","〒349-0141 埼玉県蓮田市西新宿2-128 ",36.005342,139.654576,"","","",NA,"埼玉県",0,NA
"5494888","幸楽苑 戸田店","〒335-0016 埼玉県戸田市下前2-12-12 ",35.807027,139.683482,"JR埼京線","戸田公園駅","徒歩8",NA,"埼玉県",3,2.5
"7070095","田所商店 岩槻店","〒339-0074 埼玉県さいたま市岩槻区本宿227-1 ",35.966898,139.694858,"東武野田線","東岩槻駅","徒歩25",NA,"埼玉県",0,NA
"5494949","幸楽苑 志木店","〒353-0002 埼玉県志木市中宗岡4-7-3 ",35.838515,139.587753,"東武東上線","志木駅","徒歩29",NA,"埼玉県",1,2.5
"5494723","花園バスラーメン","〒369-1244 埼玉県深谷市黒田385 ",36.130565,139.251067,"秩父鉄道線","永田（埼玉県）駅","徒歩12",NA,"埼玉県",0,NA
"5494324","でん","〒350-1123 埼玉県川越市脇田本町10-5 ",35.904977,139.480523,"東武東上線","川越駅","徒歩5",NA,"埼玉県",0,NA
"6436964","ふくのや 加納店","〒363-0001 埼玉県桶川市加納1780-5 ",36.030268,139.558603,"","","",NA,"埼玉県",0,NA
"7617096","横浜家系 クマガ家 熊谷駅前店","〒360-0037 埼玉県熊谷市筑波2-49 末広ビル1F",36.140984,139.389719,"秩父鉄道線","熊谷駅","徒歩2",NA,"埼玉県",0,NA
"5638533","将軍らーめん 三峰 深谷店","〒369-1245 埼玉県深谷市荒川671 ",36.120921,139.236516,"秩父鉄道線","小前田駅","徒歩23",NA,"埼玉県",0,NA
"7675557","歩家","〒350-0232 埼玉県坂戸市中富町65-1 中川マンション105",35.959304,139.38639,"東武東上線","坂戸駅","徒歩12",NA,"埼玉県",0,NA
"7354843","替玉 千里眼 志木店","〒353-0004 埼玉県志木市本町5-25-6 NK志木ビル1F",35.823814,139.575424,"東武東上線","志木駅","徒歩2",NA,"埼玉県",0,NA
"5494530","麺屋匠神","〒359-0044 埼玉県所沢市松葉町1-3 ",35.807276,139.45584,"西武新宿線","新所沢駅","徒歩1",NA,"埼玉県",1,5
"7519040","やまと軒","〒347-0107 埼玉県加須市正能493-43 ",36.108057,139.576193,"","","",NA,"埼玉県",0,NA
"5494298","てんこもりラーメン","〒350-0043 埼玉県川越市新富町1-3-9 ",35.916123,139.483114,"","","",NA,"埼玉県",0,NA
"5894857","麺や 桜木","〒330-0854 埼玉県さいたま市大宮区桜木町2-5-4 ",35.906703,139.621036,"","","",NA,"埼玉県",0,NA
"7524213","らーめん処 華酔","〒356-0004 埼玉県ふじみ野市上福岡1-8-21 ",35.875903,139.51138,"東武東上線","上福岡駅","徒歩4",NA,"埼玉県",0,NA
"5494542","ラーメン亭こぐま","〒359-1112 埼玉県所沢市泉町1846-3 ",35.800996,139.457827,"西武新宿線","新所沢駅","徒歩9",NA,"埼玉県",0,NA
"5023909","ラーメンばんらい 杉戸店","〒345-0036 埼玉県北葛飾郡杉戸町杉戸2-7-17 ",36.030242,139.730161,"東武伊勢崎線","東武動物公園駅","徒歩9",NA,"埼玉県",0,NA
"6752308","福ヤ 南越谷店","〒343-0845 埼玉県越谷市南越谷1-17-8 森林第3ビル1F",35.875166,139.791481,"JR武蔵野線（府中本町-南船橋）","南越谷駅","徒歩2",NA,"埼玉県",1,3.5
"5494958","江川亭 新座店","〒352-0031 埼玉県新座市西堀3-3-22 ",35.776557,139.543784,"西武池袋線","東久留米駅","徒歩27",NA,"埼玉県",0,NA
"5022810","ラーメンめん丸 上尾上店","〒362-0001 埼玉県上尾市上50-1 ",NA,NA,"","","",NA,"埼玉県",3,1.66666666666667
"5394683","珍来 川口店","〒332-0017 埼玉県川口市栄町3-5-16 ",35.803795,139.718629,"JR京浜東北線","川口駅","徒歩3",NA,"埼玉県",1,3
"7621158","大手門","〒339-0052 埼玉県さいたま市岩槻区太田3-1-1 市民会館いわつき1F",35.950734,139.709005,"東武野田線","岩槻駅","徒歩22",NA,"埼玉県",1,5
"5494956","らーめん屋さん ヤベツ","〒351-0115 埼玉県和光市新倉2-29-8 ",35.796679,139.623243,"東京メトロ有楽町線","和光市駅","徒歩19",NA,"埼玉県",0,NA
"5495053","青柳","〒341-0042 埼玉県三郷市谷口133-12 ",35.82443,139.868746,"つくばエクスプレス","三郷中央駅","徒歩13",NA,"埼玉県",0,NA
"6183173","らーめん 大雅","〒348-0047 埼玉県羽生市下新郷710 ",36.145548,139.52339,"","","",NA,"埼玉県",0,NA
"5495027","くるまやラーメン 八潮店","〒340-0815 埼玉県八潮市八潮2-2-10 ",35.817638,139.838549,"つくばエクスプレス","八潮駅","徒歩18",NA,"埼玉県",0,NA
"7236186","デカ盛り戦隊 豚レンジャー","〒351-0114 埼玉県和光市本町21-26 コンステラション1F",35.784691,139.607392,"東京メトロ有楽町線","和光市駅","徒歩9",NA,"埼玉県",0,NA
"5494669","寿楽 三号店","〒350-1320 埼玉県狭山市広瀬東4-13-20 ",35.865876,139.398604,"西武新宿線","狭山市駅","徒歩24",NA,"埼玉県",2,4
"5494568","十勝ラーメン","〒347-0055 埼玉県加須市中央1-8-32 ",36.124589,139.595341,"東武伊勢崎線","加須駅","徒歩2",NA,"埼玉県",0,NA
"6413580","華陽苑","〒358-0021 埼玉県入間市高倉4-13-14 ",35.834304,139.380118,"西武池袋線","入間市駅","徒歩18",NA,"埼玉県",0,NA
"7690834","竜庄家","〒367-0051 埼玉県本庄市本庄4-7-6 ",36.24582,139.193759,"JR高崎線","本庄駅","徒歩18",NA,"埼玉県",0,NA
"5494435","麺屋 番","〒334-0075 埼玉県川口市江戸袋1-11-3 ",35.818169,139.75562,"都営日暮里・舎人ライナー","見沼代親水公園駅","徒歩20",NA,"埼玉県",10,4.75
"7483287","中華そば 青葉 エキア志木店","〒352-0001 埼玉県新座市東北2-38-10 EQUiA志木202",35.822533,139.575291,"東武東上線","志木駅","徒歩1",NA,"埼玉県",0,NA
"7535550","すごい煮干ラーメン凪 川口東口駅前店","〒332-0017 埼玉県川口市栄町3-9-16 ",35.802962,139.719963,"JR京浜東北線","川口駅","徒歩3",NA,"埼玉県",0,NA
"6369899","幸楽苑 羽生店","〒348-0045 埼玉県羽生市下岩瀬523-1 ",36.160619,139.530023,"東武伊勢崎線","羽生駅","徒歩17",NA,"埼玉県",0,NA
"5712924","麺や一発","〒367-0072 埼玉県本庄市沼和田524-1 ",36.251241,139.18389,"JR高崎線","本庄駅","徒歩26",NA,"埼玉県",0,NA
"5494641","げんこつ武里店","〒344-0021 埼玉県春日部市大場1103 ",35.949582,139.769819,"東武伊勢崎線（東武スカイツリーライン）","武里駅","徒歩1",NA,"埼玉県",0,NA
"7181312","所沢大和家","〒359-1123 埼玉県所沢市日吉町11-2 ",35.786884,139.472265,"西武新宿線","所沢駅","徒歩1",NA,"埼玉県",0,NA
"5495212","麺飯珍","〒367-0232 埼玉県児玉郡神川町新里220-1 ",36.203861,139.089028,"JR八高線（高麗川-倉賀野）","丹荘駅","徒歩26",NA,"埼玉県",0,NA
"7345444","来来亭 鴻巣店","〒365-0075 埼玉県鴻巣市宮地1-6-12 ",36.066454,139.511772,"JR高崎線","鴻巣駅","徒歩14",NA,"埼玉県",0,NA
"7086522","てんがら 川越店","〒350-1151 埼玉県川越市今福2838-1 ",NA,NA,"","","",NA,"埼玉県",0,NA
"6280110","中華そば 青葉","〒350-0026 埼玉県川越市泉町1-1 ウニクス南古谷 シネマ棟1F",35.903609,139.515015,"ＪＲ川越線","南古谷駅","徒歩21",NA,"埼玉県",0,NA
"6193689","珍来総本店直営 八潮ドライブイン店","〒340-0801 埼玉県八潮市八條1512-1 ",35.846751,139.837492,"","","",NA,"埼玉県",0,NA
"7425479","らーめん五葉 上福岡西口駅前店","〒356-0006 埼玉県ふじみ野市霞ヶ丘1-4 コンフォール霞ヶ丘 12号棟 102",NA,NA,"東武東上線","上福岡駅","徒歩3",NA,"埼玉県",0,NA
"5495030","バンバン","〒340-0814 埼玉県八潮市南川崎287-9 ",35.813309,139.859892,"つくばエクスプレス","八潮駅","徒歩23",NA,"埼玉県",0,NA
"7433511","中華そば 弌","〒337-0051 埼玉県さいたま市見沼区東大宮5-30-3 ウィステリアタワー1F",35.948257,139.641516,"JR宇都宮線・JR上野東京ライン","東大宮駅","徒歩2",NA,"埼玉県",0,NA
"7403281","ラーメン ふくや 鳩山店","〒350-0321 埼玉県比企郡鳩山町赤沼2602 ",35.970263,139.340666,"","","",NA,"埼玉県",0,NA
"7647548","FCマルキン本舗 東松山店","〒355-0005 埼玉県東松山市大字松山1552-12 ",36.051342,139.411629,"","","",NA,"埼玉県",0,NA
"6152067","冨士屋","〒368-0025 埼玉県秩父市桜木町1-5 ",36.001611,139.085359,"秩父鉄道線","秩父駅","徒歩6",NA,"埼玉県",0,NA
"6929232","らーめん かねかつ","〒332-0023 埼玉県川口市飯塚2-14-23 ",35.798209,139.712102,"JR京浜東北線","川口駅","徒歩10",NA,"埼玉県",0,NA
"5494197","めんみん亭","〒338-0835 埼玉県さいたま市桜区道場3-15-14 ",35.857644,139.614178,"ＪＲ武蔵野線直通（大宮）","西浦和駅","徒歩28",NA,"埼玉県",0,NA
"5628974","名代らーめん六天閣","〒338-0001 埼玉県さいたま市中央区上落合2-2-11 ",35.889799,139.628569,"ＪＲ埼京線","北与野駅","徒歩1",NA,"埼玉県",0,NA
"7493332","あやラーメン","〒355-0375 埼玉県秩父郡東秩父村大字御堂441 道の駅和紙の里ひがしちちぶ内",36.052248,139.203483,"","","",NA,"埼玉県",0,NA
"6752264","らーめんDining三峰 熊谷","〒360-0801 埼玉県熊谷市中奈良1889-6 ",36.185892,139.370424,"","","",NA,"埼玉県",0,NA
"5495261","くるまやラーメン 鷲宮店","〒340-0206 埼玉県久喜市西大輪3-21-1 ",36.088103,139.676263,"JR宇都宮線・JR上野東京ライン","東鷲宮駅","徒歩5",NA,"埼玉県",0,NA
"7144613","麺屋 源丸","〒350-0811 埼玉県川越市小堤14-2 ",35.936956,139.43637,"東武東上線","鶴ヶ島駅","徒歩19",NA,"埼玉県",0,NA
"6848318","うまかっちゃん","〒350-1323 埼玉県狭山市鵜ノ木23-15 ",35.848392,139.391189,"西武池袋線","入間市駅","徒歩10",NA,"埼玉県",0,NA
"7179582","大空","〒344-0067 埼玉県春日部市中央4-8-9 ",35.972838,139.748242,"東武伊勢崎線","春日部駅","徒歩12",NA,"埼玉県",0,NA
"5023437","福よし 三郷店","〒341-0053 埼玉県三郷市彦倉2-111 ビバホーム三郷店1F",NA,NA,"","","",NA,"埼玉県",0,NA
"6274330","横浜らぁめん桜花","〒330-0854 埼玉県さいたま市大宮区桜木町2-192 ",35.906136,139.620425,"ＪＲ上越新幹線","大宮（埼玉県）駅","徒歩3",800,"埼玉県",0,NA
"5495270","くるまやラーメン 杉戸店","〒345-0024 埼玉県北葛飾郡杉戸町堤根4616 ",NA,NA,"","","",NA,"埼玉県",0,NA
"7648761","中華そば あおい","〒354-0018 埼玉県富士見市西みずほ台1-20-3 ",35.837037,139.549364,"東武東上線","みずほ台駅","徒歩2",NA,"埼玉県",0,NA
"7665624","あゆ次郎","〒364-0026 埼玉県北本市荒井4-26 ",36.019257,139.512091,"","","",NA,"埼玉県",0,NA
"6744674","伝家 志木店","〒353-0004 埼玉県志木市本町5-10-20 ",35.826833,139.576507,"東武東上線","志木駅","徒歩6",NA,"埼玉県",0,NA
"6721633","あじとら 狭山笹井店","〒350-1327 埼玉県狭山市笹井3-1-22 ",35.853855,139.377523,"西武池袋線","入間市駅","徒歩28",NA,"埼玉県",0,NA
"7543662","味六屋","〒330-0061 埼玉県さいたま市浦和区常盤2-9-3 ",35.863622,139.652588,"JR京浜東北線","浦和駅","徒歩10",NA,"埼玉県",0,NA
"5495097","ラーメンショップ 坂戸店","〒350-0212 埼玉県坂戸市石井2805-4 ",35.961941,139.411452,"東武東上線","北坂戸駅","徒歩24",NA,"埼玉県",0,NA
"6928328","ラーメンしみず","〒364-0031 埼玉県北本市中央1-100 ",36.028703,139.533819,"JR高崎線","北本駅","徒歩5",NA,"埼玉県",0,NA
"6155240","麺屋 六弦","〒344-0123 埼玉県春日部市永沼1819-1 ",35.972406,139.793547,"東武野田線","南桜井（埼玉県）駅","徒歩22",NA,"埼玉県",1,3.5
"5495274","宝来","〒345-0023 埼玉県北葛飾郡杉戸町本郷882-2 ",36.002421,139.752238,"東武伊勢崎線","北春日部駅","徒歩23",NA,"埼玉県",0,NA
"5712976","麺や 一香。","〒350-1236 埼玉県日高市猿田48-1 ",35.890694,139.331961,"JR八高線（八王子-高麗川）","高麗川駅","徒歩13",NA,"埼玉県",0,NA
"6426386","幸楽苑 浦和円正寺店","〒336-0043 埼玉県さいたま市南区円正寺502-5 ",35.850192,139.693671,"JR武蔵野線（府中本町-南船橋）","東浦和駅","徒歩26",NA,"埼玉県",0,NA
"5494578","おおぎやラーメン 本庄17号店","〒367-0004 埼玉県本庄市本町962-3 ",NA,NA,"","","",NA,"埼玉県",0,NA
"6346555","麺や司","〒362-0064 埼玉県上尾市小敷谷854-1 ",35.963048,139.562881,"","","",NA,"埼玉県",0,NA
"7524188","濃厚鶏白湯ラーメン 一彩","〒337-0051 埼玉県さいたま市見沼区東大宮4-17-11 ニコニコ堂東大宮ビル1F",35.949201,139.639274,"JR宇都宮線","東大宮駅","徒歩2",NA,"埼玉県",0,NA
"6361513","上尾らぁめん 本店","〒362-0034 埼玉県上尾市愛宕1-27-28 ",35.970189,139.594664,"JR高崎線","上尾駅","徒歩9",NA,"埼玉県",4,5
"5021450","蔵","〒336-0025 埼玉県さいたま市南区文蔵1-16-11 ",35.844842,139.669965,"JR京浜東北線","南浦和駅","徒歩4",NA,"埼玉県",0,NA
"6937842","花さんしょう 狭山店","〒350-1306 埼玉県狭山市富士見1-29-3 ",35.850973,139.416978,"西武新宿線","狭山市（埼玉県）駅","徒歩9",NA,"埼玉県",0,NA
"5495190","ラーメン住吉","〒355-0312 埼玉県比企郡小川町上横田911-6 ",36.073169,139.279064,"","","",NA,"埼玉県",0,NA
"5494865","ラーメンハウス壱番館","〒343-0822 埼玉県越谷市西方2-21-4 ",35.883524,139.79868,"ＪＲ武蔵野線（府中本町-南船橋）","南越谷駅","徒歩18",NA,"埼玉県",0,NA
"5494979","くるまやラーメン 桶川下日出谷店","〒363-0028 埼玉県桶川市下日出谷西1-15-13 ",35.992327,139.548336,"JR高崎線","桶川駅","徒歩22",NA,"埼玉県",0,NA
"7291869","天下一品 東川口店","〒333-0801 埼玉県川口市東川口3-8-12 ",35.879212,139.744779,"埼玉高速鉄道線","東川口駅","徒歩7",NA,"埼玉県",0,NA
"5837522","一代元 上尾店","〒362-0015 埼玉県上尾市緑丘1-6-3 ",35.980785,139.583386,"JR高崎線","北上尾駅","徒歩11",NA,"埼玉県",0,NA
"6342985","麺屋 くおん","〒366-0051 埼玉県深谷市上柴町東4-19-2 ",36.17933,139.305544,"","","",NA,"埼玉県",2,3
"5494464","らーめん十勝 行田店","〒361-0046 埼玉県行田市壱里山町1-30 堀口ビル1Ｆ",36.114091,139.433033,"JR高崎線","行田駅","徒歩1",NA,"埼玉県",0,NA
"5494602","くるまやラーメン 東松山店","〒355-0073 埼玉県東松山市上野本1177 ",NA,NA,"","","",NA,"埼玉県",0,NA
"6302247","畔鐘","〒366-0002 埼玉県深谷市下手計107-3 ",36.22794,139.270956,"","","",580,"埼玉県",0,NA
"6905948","幸楽苑 吹上店","〒369-0111 埼玉県鴻巣市新宿2-19街区17 ",36.111674,139.442865,"JR高崎線","行田駅","徒歩16",NA,"埼玉県",0,NA
"7645236","ラーメン 育元","〒355-0155 埼玉県比企郡吉見町北吉見1346-1 ",36.047959,139.424753,"","","",NA,"埼玉県",0,NA
"5494486","Jinyaらぁめん","〒368-0005 埼玉県秩父市大野原269-1 ",36.019634,139.096232,"秩父鉄道線","大野原駅","徒歩4",NA,"埼玉県",0,NA
"6980144","喜楽","〒359-1106 埼玉県所沢市東狭山ケ丘1-36-21 ",35.813905,139.421179,"西武池袋線","狭山ヶ丘駅","徒歩7",NA,"埼玉県",0,NA
"6663533","永吉","〒332-0021 埼玉県川口市西川口1-5-5 MFハイツ1F",35.814935,139.704005,"ＪＲ京浜東北線","西川口駅","徒歩1",NA,"埼玉県",0,NA
"7505925","麺酒房 龍安","〒351-0022 埼玉県朝霞市東弁財2-12-17 ",35.813437,139.586771,"東武東上線","朝霞台駅","徒歩3",NA,"埼玉県",0,NA
"7593249","らーめん みずさわ 東川口店","〒333-0802 埼玉県川口市戸塚東2-2-20 ",35.870444,139.751282,"埼玉高速鉄道線","東川口駅","徒歩12",NA,"埼玉県",0,NA
"5495269","北の麺房いちどう","〒345-0043 埼玉県北葛飾郡杉戸町下高野2691 ",NA,NA,"","","",NA,"埼玉県",0,NA
"5494777","大たかラーメン","〒340-0022 埼玉県草加市瀬崎5-1-3 ",35.816271,139.811165,"東武伊勢崎線","谷塚駅","徒歩15",NA,"埼玉県",0,NA
"5495193","かにラーメン三翠","〒350-0152 埼玉県比企郡川島町上伊草742-7 ",35.972341,139.462194,"","","",NA,"埼玉県",0,NA
"5494827","ラーメン FTO","〒343-0845 埼玉県越谷市南越谷1-6-55 ",35.870176,139.793409,"東武伊勢崎線","蒲生駅","徒歩7",NA,"埼玉県",0,NA
"5495086","らあめん花月嵐 坂戸わかば店","〒350-0214 埼玉県坂戸市千代田4-1-13 ",35.955572,139.407661,"東武東上線","若葉駅","徒歩12",NA,"埼玉県",1,1
"7189679","油そば専門店 匠","〒354-0018 埼玉県富士見市西みずほ台1-21-10 ",35.835917,139.548312,"東武東上線","みずほ台駅","徒歩5",NA,"埼玉県",0,NA
"5494571","麺太","〒347-0062 埼玉県加須市睦町2-1-18 ",36.128155,139.604095,"東武伊勢崎線","加須駅","徒歩13",NA,"埼玉県",0,NA
"6848207","香港屋台麺","〒359-1111 埼玉県所沢市緑町1-17-11 ",35.806868,139.453224,"西武新宿線","新所沢駅","徒歩3",NA,"埼玉県",0,NA
"7256434","GANJA RAMEN 菖蒲PA店","〒346-0113 埼玉県久喜市菖蒲町下栢間 菖蒲パーキングエリアフードコート内",NA,NA,"","","",NA,"埼玉県",0,NA
"7255039","麺処 景虎 produced by ほん田","〒341-8550 埼玉県三郷市新三郷ららシティ3-1-1 ららぽーと新三郷2F",35.860151,139.865395,"JR武蔵野線（府中本町-南船橋）","新三郷駅","徒歩5",NA,"埼玉県",2,3.5
"5494254","喜多方ラーメン 小法師 岩槻店","〒339-0056 埼玉県さいたま市岩槻区加倉17-1 ",35.939629,139.683079,"東武野田線","七里駅","徒歩24",NA,"埼玉県",2,3.5
"7343866","田所商店 熊谷銀座店","〒360-0032 埼玉県熊谷市銀座4-10-16 ",36.139371,139.397799,"ＪＲ上越新幹線","熊谷駅","徒歩10",NA,"埼玉県",0,NA
"5494835","とろこくチャーシュー ごとく せんげん台店","〒343-0041 埼玉県越谷市千間台西1-8-4 ",35.934548,139.769878,"東武伊勢崎線","せんげん台駅","徒歩5",NA,"埼玉県",0,NA
"6193399","豚骨らーめん 一指禅 本川越店","〒350-0042 埼玉県川越市中原町1-2-2 ",35.915845,139.481903,"西武新宿線","本川越駅","徒歩3",NA,"埼玉県",0,NA
"6364806","幸楽苑 みずほ台店","〒354-0015 埼玉県富士見市東みずほ台2-9-1 ",35.840436,139.551089,"東武東上線","みずほ台駅","徒歩4",NA,"埼玉県",0,NA
"5495277","珍来 松伏店","〒343-0111 埼玉県北葛飾郡松伏町松伏2862 ",35.920995,139.814861,"","","",NA,"埼玉県",0,NA
"5494517","中華そば専門店 大勝軒 狭山ヶ丘店","〒359-1161 埼玉県所沢市狭山ｹ丘2-642 ",35.812644,139.41453,"西武池袋線","狭山ヶ丘駅","徒歩5",NA,"埼玉県",0,NA
"6741711","麺や しし丸。","〒365-0062 埼玉県鴻巣市箕田4048-6 ",36.073073,139.498107,"ＪＲ高崎線","鴻巣駅","徒歩26",NA,"埼玉県",1,3
"7714601","優勝軒 狭山店","〒350-1323 埼玉県狭山市鵜ノ木14-4 鵜ノ木サンハイツ1F",35.850289,139.395877,"西武池袋線","稲荷山公園駅","徒歩10",NA,"埼玉県",0,NA
"5712906","丸源ラーメン 川口芝店","〒333-0848 埼玉県川口市芝下3-23-7 ",35.840885,139.700882,"JR京浜東北線","蕨駅","徒歩26",NA,"埼玉県",0,NA
"5494552","大穀ラーメン","〒357-0035 埼玉県飯能市柳町23-12 ",35.851332,139.320361,"西武池袋線","飯能駅","徒歩1",NA,"埼玉県",0,NA
"5835979","おおぎやラーメン 小鹿野店","〒368-0105 埼玉県秩父郡小鹿野町小鹿野1225 ",36.026428,138.996612,"","","",NA,"埼玉県",0,NA
"5494421","とんとんラーメン 川口店","〒333-0816 埼玉県川口市差間3-2-15 ",35.870438,139.734364,"JR武蔵野線（府中本町-南船橋）","東川口駅","徒歩18",NA,"埼玉県",0,NA
"5494693","くるまやラーメン 吹上店","〒369-0113 埼玉県鴻巣市下忍3835-1 ",36.101182,139.464914,"ＪＲ高崎線","吹上（埼玉県）駅","徒歩16",NA,"埼玉県",0,NA
"5494155","らーめん 日高 大宮西口店","〒330-0854 埼玉県さいたま市大宮区桜木町1-2-4 金子ビル1F",35.904925,139.623222,"JR上越新幹線","大宮（埼玉県）駅","徒歩2",NA,"埼玉県",0,NA
"6913034","ジャンクガレッジ 東大宮本店","〒337-0051 埼玉県さいたま市見沼区東大宮4-47-4 ",35.951701,139.634172,"ＪＲ東北本線〔宇都宮線〕（上野-黒磯）","東大宮駅","徒歩10",NA,"埼玉県",9,3.88888888888889
"5841353","一代元 上里店","〒369-0306 埼玉県児玉郡上里町大字七本木2968 ",36.235361,139.146977,"","","",NA,"埼玉県",0,NA
"7121600","つけ麺 豚丼 徳","〒362-0046 埼玉県上尾市壱丁目367 アリオ上尾2F",35.961623,139.565475,"","","",NA,"埼玉県",0,NA
"5494325","ラーメンショップふじさわ 笠幡店","〒350-1175 埼玉県川越市笠幡1646-8 ",35.91771,139.404815,"ＪＲ川越線","笠幡駅","徒歩16",NA,"埼玉県",0,NA
"6716121","ラーメン きむら","〒350-2211 埼玉県鶴ヶ島市脚折町4-1-26 ",35.9495,139.392712,"東武東上線","坂戸駅","徒歩11",NA,"埼玉県",0,NA
"5494842","珍來 北越谷店","〒343-0026 埼玉県越谷市北越谷4-20-7 ",35.902535,139.778143,"東武伊勢崎線","北越谷駅","徒歩2",NA,"埼玉県",1,3
"7463790","寿製麺 よしかわ","〒350-0271 埼玉県坂戸市上吉田206-1 ",35.98008,139.396183,"東武東上線","北坂戸駅","徒歩14",NA,"埼玉県",0,NA
"7707119","丸源ラーメン 幸手店","〒340-0111 埼玉県幸手市北2-17-1 ",36.083516,139.723426,"東武日光線","幸手駅","徒歩19",NA,"埼玉県",0,NA
"5495145","北海道ラーメン めんぽぽ","〒342-0045 埼玉県吉川市木売3-1-13 吉川サンヴィレッジ1F",35.875682,139.844999,"ＪＲ武蔵野線（府中本町-南船橋）","吉川駅","徒歩2",NA,"埼玉県",0,NA
"5394851","中華料理 来集軒 久下店","〒347-0063 埼玉県加須市久下5-272-5 ",36.122792,139.618839,"東武伊勢崎線","加須駅","徒歩29",NA,"埼玉県",0,NA
"7646698","麺屋 不動","〒350-1213 埼玉県日高市高萩1631-8 ",35.902005,139.379699,"JR川越線","武蔵高萩駅","徒歩10",NA,"埼玉県",0,NA
"7677059","中華料理天龍","〒365-0055 埼玉県鴻巣市栄町3-20 ",36.059946,139.507298,"JR高崎線","鴻巣駅","徒歩4",NA,"埼玉県",0,NA
"7277949","魁力屋 越谷店","〒343-0828 埼玉県越谷市レイクタウン5-1-8-11 ",NA,NA,"JR武蔵野線（府中本町-南船橋）","越谷レイクタウン駅","徒歩10",NA,"埼玉県",0,NA
"7464600","ハンディクラフト ワークス NOODLE STOCK 鶴おか2号店","〒340-0821 埼玉県八潮市伊勢野111-1 ",35.809976,139.856359,"つくばエクスプレス","八潮駅","徒歩17",NA,"埼玉県",0,NA
"5494516","関越ラーメン 仙龍","〒359-0014 埼玉県所沢市亀ｹ谷137-1 ",35.806475,139.520266,"JR武蔵野線（府中本町-南船橋）","東所沢駅","徒歩25",NA,"埼玉県",1,3.5
"7665621","博多ラーメン鶴亀堂 三郷店","〒341-0022 埼玉県三郷市大広戸920-1 ",35.847322,139.874597,"JR武蔵野線（府中本町-南船橋）","三郷（埼玉県）駅","徒歩13",NA,"埼玉県",0,NA
"6426415","中華そば田家 本店","〒350-0011 埼玉県川越市久下戸3017-4 ",35.886958,139.540749,"","","",NA,"埼玉県",0,NA
"6182170","麺処 かつ善","〒350-0815 埼玉県川越市鯨井544-1 ",35.933701,139.458049,"","","",NA,"埼玉県",0,NA
"5494954","くるまやラーメン和光店","〒351-0101 埼玉県和光市白子1-14-6 ",35.769649,139.620311,"東京メトロ有楽町線","地下鉄成増駅","徒歩20",NA,"埼玉県",0,NA
"7345492","壱角家 西川口店","〒332-0021 埼玉県川口市西川口1-6-17 西川口駅前扶桑ビル1",35.815568,139.703508,"JR京浜東北線","西川口駅","徒歩1",NA,"埼玉県",0,NA
"5494342","優勝軒 熊谷総本店","〒360-0816 埼玉県熊谷市石原2-2-4 ",36.149638,139.374911,"秩父鉄道線","石原（埼玉県）駅","徒歩8",NA,"埼玉県",0,NA
"5495096","ラーメンショップ 片柳店","〒350-0219 埼玉県坂戸市片柳395 ",35.977831,139.40446,"東武東上線","北坂戸駅","徒歩13",NA,"埼玉県",0,NA
"7681085","丸源ラーメン 熊谷新島店","〒360-0817 埼玉県熊谷市新島12-1 ",36.165925,139.356743,"","","",NA,"埼玉県",0,NA
"6981989","コトホギ","〒337-0053 埼玉県さいたま市見沼区大和田町1-1389 1F",35.927451,139.650547,"東武野田線","大和田（埼玉県）駅","徒歩3",NA,"埼玉県",2,NA
"5494647","宝来軒","〒344-0115 埼玉県春日部市米島1054-46 ",35.979303,139.810775,"東武野田線","南桜井（埼玉県）駅","徒歩5",NA,"埼玉県",0,NA
"7541256","九州豚骨ラーメン どらいん","〒338-0823 埼玉県さいたま市桜区栄和3-11-13 ヴィラ柏木1F",35.868496,139.618274,"JR埼京線","南与野駅","徒歩17",NA,"埼玉県",0,NA
"5841257","肉スタ バンブル 西浦和店","〒336-0032 埼玉県さいたま市南区四谷1-2-1 ",35.840241,139.632546,"JR武蔵野線直通（大宮）","西浦和駅","徒歩10",1000,"埼玉県",0,NA
"7380819","どさんこ太郎","〒337-0015 埼玉県さいたま市見沼区蓮沼551-2 ",35.928396,139.662562,"東武野田線","七里駅","徒歩15",NA,"埼玉県",0,NA
"7734197","らあめん花月嵐 アリオ川口店","〒332-0033 埼玉県川口市並木元町1-79 アリオ川口 1F フードコートライブ",35.807847,139.713866,"JR京浜東北線","川口駅","徒歩12",NA,"埼玉県",0,NA
"7641243","中華そば HANA","〒350-0435 埼玉県入間郡毛呂山町下川原853-4 ",35.934595,139.340551,"東武越生線","川角駅","徒歩10",NA,"埼玉県",0,NA
"6769741","青木屋食堂","〒342-0015 埼玉県吉川市中井3-221-2 ",35.888311,139.866274,"","","",NA,"埼玉県",0,NA
"7641809","らあめん花月嵐 八潮駅前店","〒340-0822 埼玉県八潮市大瀬1-11-16 ",NA,NA,"つくばエクスプレス","八潮駅","徒歩3",NA,"埼玉県",0,NA
"7566012","来来亭 川越山田店","〒350-0822 埼玉県川越市大字山田1770-1 ",35.940437,139.481627,"","","",NA,"埼玉県",0,NA
"6364802","幸楽苑 イオンモール浦和美園店","〒336-0963 埼玉県さいたま市緑区大字大門3710 ",35.89123,139.731025,"埼玉高速鉄道線","浦和美園駅","徒歩4",NA,"埼玉県",0,NA
"7094885","直久 本川越店","〒350-0043 埼玉県川越市新富町1-17-14 ",35.914707,139.483256,"西武新宿線","本川越駅","徒歩2",NA,"埼玉県",0,NA
"7291879","五代目麺や　蝦夷","〒355-0062 埼玉県東松山市西本宿2138-4 ",36.004924,139.388286,"東武東上線","高坂駅","徒歩13",NA,"埼玉県",0,NA
"7178942","麺屋葵","〒340-0114 埼玉県幸手市東4-1-24 ",36.077164,139.724443,"東武日光線","幸手駅","徒歩15",NA,"埼玉県",0,NA
"6164970","高久","〒350-1222 埼玉県日高市大谷沢280-23 ",35.887893,139.37913,"ＪＲ川越線","武蔵高萩駅","徒歩22",NA,"埼玉県",0,NA
"6460138","四川担担麺 哲","〒358-0011 埼玉県入間市下藤沢445-1 斎藤ビル102",35.822204,139.408136,"西武池袋線","武蔵藤沢駅","徒歩6",NA,"埼玉県",4,3
"5494266","とうふらぁめん蘭蘭","〒339-0057 埼玉県さいたま市岩槻区本町3-3-4 ",35.951097,139.694814,"東武野田線","岩槻駅","徒歩5",NA,"埼玉県",0,NA
"7744351","ラーメン魁力屋 さいたま大和田店","〒337-0053 埼玉県さいたま市見沼区大和田町1-1936-1 ",35.923799,139.656217,"","","",NA,"埼玉県",0,NA
"7172627","サトウ","〒362-0001 埼玉県上尾市上644-1 ",35.9978,139.581988,"ＪＲ高崎線","北上尾駅","徒歩23",NA,"埼玉県",0,NA
"5023692","和風らーめん 山形屋","〒355-0803 埼玉県比企郡滑川町福田1584-3 ",36.07964,139.358668,"","","",NA,"埼玉県",0,NA
"6963545","札幌ラーメン めんくい","〒334-0075 埼玉県川口市江戸袋1-14-12 ",35.817669,139.757186,"都営日暮里・舎人ライナー","見沼代親水公園駅","徒歩18",NA,"埼玉県",0,NA
"7510482","やきもの本舗 北本店","〒364-0013 埼玉県北本市中丸8-117-1 ",36.02081,139.556365,"","","",NA,"埼玉県",0,NA
"5494596","青竹手打ちラーメン 龍亭","〒355-0063 埼玉県東松山市元宿2-26-4 ",36.002183,139.394221,"東武東上線","高坂駅","徒歩3",NA,"埼玉県",1,5
"7229452","横浜八景楼 イオン入間店","〒358-0013 埼玉県入間市上藤沢462-1 イオン入間店1F",35.822151,139.394845,"西武池袋線","武蔵藤沢駅","徒歩24",NA,"埼玉県",0,NA
"5494283","幸楽苑 川越木野目店","〒350-0016 埼玉県川越市大字木野目373-1 ",35.897337,139.515354,"JR川越線","南古谷駅","徒歩12",NA,"埼玉県",0,NA
"5654586","丸源ラーメン 草加店","〒340-0024 埼玉県草加市谷塚上町字島田775 ",NA,NA,"","","",NA,"埼玉県",5,3.8
"7317019","蔵出し味噌 麺場 壱歩 入間店","〒358-0007 埼玉県入間市黒須1-7-3 ",NA,NA,"西武池袋線","入間市駅","徒歩5",NA,"埼玉県",0,NA
"6641879","順徳","〒369-1304 埼玉県秩父郡長瀞町大字本野上956-1 ",36.110191,139.108505,"秩父鉄道線","野上駅","徒歩4",2000,"埼玉県",0,NA
"7455790","麺処 ろくめい","〒362-0048 埼玉県上尾市川259-2 ゆりが丘ハイツ103",35.963073,139.575521,"JR高崎線","上尾駅","徒歩22",NA,"埼玉県",0,NA
"7622632","中華 和食堂 伝助","〒340-0003 埼玉県草加市稲荷3-28-36 ",NA,NA,"東武伊勢崎線","草加駅","徒歩26",NA,"埼玉県",0,NA
"6715292","保盛軒","〒341-0018 埼玉県三郷市早稲田5-6-18 ",35.855169,139.883716,"ＪＲ武蔵野線（府中本町-南船橋）","三郷（埼玉県）駅","徒歩17",NA,"埼玉県",0,NA
"6741128","あたりばちラーメン 西青木店","〒332-0035 埼玉県川口市西青木5-12-22 ",35.820582,139.716965,"ＪＲ京浜東北線","西川口駅","徒歩16",NA,"埼玉県",0,NA
"7543728","焙煎味噌ラーメン寿宝丸","〒335-0002 埼玉県蕨市塚越1-5-16 ",35.827908,139.692025,"JR京浜東北線","蕨駅","徒歩2",NA,"埼玉県",0,NA
"7229919","カインズキッチン 蓮田店","〒349-0133 埼玉県蓮田市閏戸4109 ",36.01871,139.637258,"","","",NA,"埼玉県",0,NA
"6959701","来来亭 東松山店","〒355-0017 埼玉県東松山市松葉町4-3572-1 ",36.038946,139.389431,"東武東上線","東松山駅","徒歩18",NA,"埼玉県",0,NA
"6905998","麺堂稲葉kukistyle","〒346-0011 埼玉県久喜市青毛3-13-19 ",36.074981,139.707672,"東武日光線","幸手駅","徒歩13",NA,"埼玉県",0,NA
"7178335","自由が丘蔭山樓 ららぽーと富士見店","〒354-0022 埼玉県富士見市山室1-1313 ららぽーと富士見1F",NA,NA,"東武東上線","鶴瀬駅","徒歩27",NA,"埼玉県",0,NA
"7089785","平九郎R 東大沢店","〒343-0022 埼玉県越谷市東大沢3-8-1 ",NA,NA,"東武伊勢崎線","北越谷駅","徒歩22",NA,"埼玉県",0,NA
"5841680","十勝","〒364-0031 埼玉県北本市中央3-73 ",36.031209,139.532258,"JR高崎線","北本駅","徒歩2",NA,"埼玉県",0,NA
"5643191","麺食処一心","〒348-0071 埼玉県羽生市南羽生4-8-8 ",36.14981,139.555376,"東武伊勢崎線","南羽生駅","徒歩1",NA,"埼玉県",0,NA
"5907196","松","〒353-0004 埼玉県志木市本町4-15-50 ",35.825641,139.581098,"東武東上線","志木駅","徒歩11",NA,"埼玉県",0,NA
"6069007","大鷹ラーメン","〒351-0104 埼玉県和光市南1-10-19 ",35.772515,139.614317,"東京メトロ有楽町線","地下鉄成増駅","徒歩22",NA,"埼玉県",0,NA
"5816055","中華そば金魚","〒330-0074 埼玉県さいたま市浦和区北浦和3-8-13 ",35.873077,139.645561,"ＪＲ京浜東北線","北浦和駅","徒歩2",NA,"埼玉県",2,3
"6266216","ぼすや","〒337-0051 埼玉県さいたま市見沼区東大宮5-1-1 ",35.948429,139.641149,"JR宇都宮線・JR上野東京ライン","東大宮駅","徒歩1",800,"埼玉県",2,4
"5828913","珍來 総本店直営 松原団地駅前店","〒340-0011 埼玉県草加市栄町2-11-10 松原ツインタワービルB-102",35.84367,139.801484,"東武伊勢崎線","獨協大学前［草加松原］駅","徒歩1",NA,"埼玉県",0,NA
"7003196","横浜家系ラーメン 湘家 深谷店","〒366-0827 埼玉県深谷市栄町7-28 ",36.196783,139.276671,"JR高崎線","深谷駅","徒歩11",NA,"埼玉県",0,NA
"5251603","やわらぎ亭","〒346-0105 埼玉県久喜市菖蒲町新堀491-4 ",36.065706,139.599168,"","","",NA,"埼玉県",0,NA
"6729138","ラーメン武","〒366-0042 埼玉県深谷市東方町1-1-4 ",36.191937,139.310029,"","","",NA,"埼玉県",0,NA
"5494824","支那そば一越","〒343-0032 埼玉県越谷市袋山1216 ",35.923558,139.779739,"東武伊勢崎線","大袋駅","徒歩3",NA,"埼玉県",0,NA
"6930068","ラーメン青木亭 戸田店","〒335-0033 埼玉県戸田市笹目北町14-2 ",35.823605,139.654483,"ＪＲ埼京線","北戸田駅","徒歩12",750,"埼玉県",0,NA
"7211012","みちのく","〒339-0027 埼玉県さいたま市岩槻区尾ヶ崎517‐1 ",35.907677,139.728547,"埼玉高速鉄道線","浦和美園駅","徒歩26",NA,"埼玉県",0,NA
"7083046","鳳神 角ふじ","〒333-0801 埼玉県川口市東川口2-1-25 ",35.87594,139.746143,"埼玉高速鉄道線","東川口駅","徒歩3",NA,"埼玉県",0,NA
"6013506","大東園中華料理店","〒348-0052 埼玉県羽生市東8-8-15 ",36.171899,139.553281,"東武伊勢崎線","羽生駅","徒歩22",NA,"埼玉県",0,NA
"7080196","麺屋けんしん","〒366-0035 埼玉県深谷市原郷2114-9 ",36.194381,139.29308,"JR高崎線","深谷駅","徒歩16",NA,"埼玉県",0,NA
"5494371","まんぷく亭","〒369-0104 埼玉県熊谷市冑山93-1 ",36.078892,139.408525,"","","",NA,"埼玉県",0,NA
"6069014","らーめん餃子つる平","〒340-0802 埼玉県八潮市鶴ケ曽根774-12 ",35.834525,139.836312,"","","",NA,"埼玉県",0,NA
"5494896","丸源ラーメン 戸田店","〒335-0021 埼玉県戸田市新曽2325-2 ",35.816675,139.659206,"JR埼京線","戸田（埼玉県）駅","徒歩13",NA,"埼玉県",1,3
"7491787","麺屋蕾 大宮西口店","〒330-0854 埼玉県さいたま市大宮区桜木町2-159-2 ",35.906512,139.620654,"ＪＲ","大宮駅","徒歩5",800,"埼玉県",0,NA
"6283604","Manboo","〒349-0134 埼玉県蓮田市駒崎377-1 ",36.015013,139.619343,"埼玉新都市交通ニューシャトル","羽貫駅","徒歩17",NA,"埼玉県",4,2.5
"5495210","琴比羅手打ラーメン","〒367-0245 埼玉県児玉郡神川町植竹653-13 ",36.214415,139.098666,"JR八高線（高麗川-倉賀野）","丹荘駅","徒歩8",NA,"埼玉県",0,NA
"6426396","幸楽苑 草加店","〒340-0043 埼玉県草加市草加2-17-3 ",35.836452,139.799521,"東武伊勢崎線","獨協大学前［草加松原］駅","徒歩12",NA,"埼玉県",0,NA
"6168770","市左衛門","〒342-0045 埼玉県吉川市木売2-4-3 ",35.876004,139.844304,"JR武蔵野線（府中本町-南船橋）","吉川駅","徒歩1",NA,"埼玉県",0,NA
"5494554","麺屋 無尽蔵","〒357-0044 埼玉県飯能市川寺341-9 ",35.846921,139.325039,"","","",NA,"埼玉県",0,NA
"6922470","銀の髭","〒336-0017 埼玉県さいたま市南区南浦和2-22-15 ",35.849261,139.668629,"ＪＲ京浜東北線","南浦和駅","徒歩3",NA,"埼玉県",2,NA
"6342988","ラーメン松田家 上福岡店","〒356-0004 埼玉県ふじみ野市上福岡1-15-11 ",35.875826,139.515935,"東武東上線","上福岡駅","徒歩5",NA,"埼玉県",0,NA
"5494642","どさん子大将","〒344-0067 埼玉県春日部市中央1-43-2 ",35.979093,139.753758,"東武伊勢崎線","春日部駅","徒歩2",NA,"埼玉県",0,NA
"5495000","ふきのとう","〒346-0001 埼玉県久喜市古久喜282-2 ",36.07896,139.673541,"JR宇都宮線・JR上野東京ライン","東鷲宮駅","徒歩21",NA,"埼玉県",0,NA
"5494188","くるまやラーメン 浦和田島店","〒338-0837 埼玉県さいたま市桜区田島1-5-1 ",35.841222,139.635035,"JR武蔵野線直通（大宮）","西浦和駅","徒歩13",NA,"埼玉県",0,NA
"6380792","小樽らーめん 豆の木 備後店","〒344-0032 埼玉県春日部市備後東3-6-13 ",NA,NA,"東武伊勢崎線（東武スカイツリーライン）","一ノ割駅","徒歩15",NA,"埼玉県",0,NA
"7638400","横浜家系ラーメン あかね家","〒369-0113 埼玉県鴻巣市下忍3828-1 ",36.100729,139.464956,"JR高崎線","吹上（埼玉県）駅","徒歩17",NA,"埼玉県",0,NA
"5022864","ラーメン陣太鼓 本店","〒340-0044 埼玉県草加市花栗1-32-1 ",35.834002,139.791394,"東武伊勢崎線（東武スカイツリーライン）","草加駅","徒歩19",NA,"埼玉県",0,NA
"6899664","中華そば くりの木 伊奈店","〒362-0813 埼玉県北足立郡伊奈町学園2-73 ",36.008877,139.609111,"埼玉新都市交通ニューシャトル","羽貫駅","徒歩2",NA,"埼玉県",0,NA
"6743951","一番 新狭山","〒350-1331 埼玉県狭山市新狭山2-6-2 1F",35.876193,139.431098,"西武新宿線","新狭山駅","徒歩4",NA,"埼玉県",0,NA
"5553195","巽や","〒350-0451 埼玉県入間郡毛呂山町毛呂本郷1604-1 ",35.939144,139.309981,"JR八高線（高麗川-倉賀野）","毛呂駅","徒歩2",NA,"埼玉県",0,NA
"5494222","来集軒","〒330-0063 埼玉県さいたま市浦和区高砂2-6-16 ",35.858081,139.654771,"ＪＲ京浜東北線","浦和駅","徒歩3",NA,"埼玉県",0,NA
"7246244","壱角家 ふじみ野店","〒356-0041 埼玉県ふじみ野市鶴ケ舞3-1-1 ",35.865613,139.508598,"東武東上線","上福岡駅","徒歩14",NA,"埼玉県",0,NA
"6351663","幸楽苑 ふじみ野店","〒356-0051 埼玉県ふじみ野市亀久保2-13-11 ",35.864313,139.508,"東武東上線","上福岡駅","徒歩16",NA,"埼玉県",0,NA
"7582878","札幌ラーメン どさん子 小鹿野店","〒368-0105 埼玉県秩父郡小鹿野町大字下小鹿野1591-1 ",36.012495,139.029738,"秩父鉄道秩父本線","大野原駅","徒歩116",NA,"埼玉県",0,NA
"7471911","らーめん利休","〒343-0825 埼玉県越谷市大成町2-61-6 ",35.885086,139.819359,"JR武蔵野線（府中本町-南船橋）","越谷レイクタウン駅","徒歩20",NA,"埼玉県",0,NA
"6013406","中華 わしや 狭山店","〒350-1327 埼玉県狭山市笹井1-33-6 ",35.851358,139.374682,"","","",NA,"埼玉県",0,NA
"6930067","ラーメン青木亭 越谷店","〒343-0808 埼玉県越谷市赤山本町6-15 ",35.886865,139.786163,"東武伊勢崎線","越谷駅","徒歩3",750,"埼玉県",0,NA
"5603499","中華そば大咲","〒358-0054 埼玉県入間市野田642-6 ",35.845866,139.355928,"西武池袋線","仏子駅","徒歩14",NA,"埼玉県",0,NA
"5494579","おおぎやラーメン 本庄店","〒367-0042 埼玉県本庄市けや木2-4-3 ",36.229655,139.190379,"JR高崎線","本庄駅","徒歩11",NA,"埼玉県",0,NA
"5495254","蓬来苑","〒346-0106 埼玉県久喜市菖蒲町菖蒲1298-1 ",36.075641,139.59604,"","","",NA,"埼玉県",0,NA
"5495243","東京とんこつ とんとら 白岡店","〒349-0204 埼玉県白岡市篠津61-1 ",36.038117,139.653792,"JR宇都宮線・JR上野東京ライン","新白岡駅","徒歩29",NA,"埼玉県",9,2.5
"6711824","カインズキッチン 川島店","〒350-0152 埼玉県比企郡川島町上伊草210 カインズホーム川島インター店内",35.977232,139.46588,"","","",NA,"埼玉県",0,NA
"5495057","ごくうらーめん","〒341-0018 埼玉県三郷市早稲田1-5-8 ",35.846197,139.885047,"JR武蔵野線（府中本町-南船橋）","三郷（埼玉県）駅","徒歩2",NA,"埼玉県",2,3
"6713719","博多流 斗樹 埼玉蓮田店","〒349-0133 埼玉県蓮田市閏戸625-3 ",35.996982,139.649588,"JR宇都宮線・JR上野東京ライン","蓮田駅","徒歩24",NA,"埼玉県",0,NA
"7510838","呑竜","〒350-0056 埼玉県川越市松江町1-21-10 ",35.91997,139.485106,"西武新宿線","本川越駅","徒歩10",NA,"埼玉県",0,NA
"5495272","支那そばパオトウ","〒345-0031 埼玉県北葛飾郡杉戸町遠野508-1 ",36.054698,139.747669,"","","",NA,"埼玉県",0,NA
"5494475","らーめんでん","〒361-0078 埼玉県行田市中央15-19 ",36.142791,139.457763,"秩父鉄道線","行田市駅","徒歩2",NA,"埼玉県",2,4
"7345150","らあめん花月嵐 和光市駅前店","〒351-0114 埼玉県和光市本町6-9 ",35.787955,139.6107,"東京メトロ有楽町線","和光市駅","徒歩2",NA,"埼玉県",0,NA
"5494461","せんりゅうラーメン","〒361-0077 埼玉県行田市忍1-11-21 ",36.140125,139.452947,"秩父鉄道線","行田市駅","徒歩10",NA,"埼玉県",0,NA
"7132266","壱角家 上尾店","〒362-0014 埼玉県上尾市本町5-7-6 ",35.98374,139.586475,"JR高崎線","北上尾駅","徒歩15",NA,"埼玉県",0,NA
"6164991","らーめん屋あじとら 所沢店","〒359-1106 埼玉県所沢市東狭山ケ丘4-2673-8 ",35.811311,139.429467,"西武池袋線","狭山ヶ丘駅","徒歩18",NA,"埼玉県",0,NA
"7255042","鷹の眼","〒340-0011 埼玉県草加市栄町2-9-12 ",35.843559,139.802096,"東武伊勢崎線（東武スカイツリーライン）","獨協大学前駅","徒歩2",NA,"埼玉県",0,NA
"5455743","玉も亭","〒339-0025 埼玉県さいたま市岩槻区釣上新田1109-1 ",35.89313,139.745287,"埼玉高速鉄道線","浦和美園駅","徒歩28",NA,"埼玉県",0,NA
"5914507","つけ麺二代目いさお","〒350-0229 埼玉県坂戸市薬師町23-4 ",35.968257,139.401166,"東武東上線","北坂戸駅","徒歩9",NA,"埼玉県",0,NA
"5495237","くるまやラーメン 東武動物公園店","〒345-0827 埼玉県南埼玉郡宮代町本田2-26-1 ",36.025128,139.722134,"東武伊勢崎線","東武動物公園駅","徒歩4",NA,"埼玉県",0,NA
"5494819","らうめんしょっぷ七福 草加店","〒340-0006 埼玉県草加市八幡町153 ",35.850103,139.809789,"東武伊勢崎線（東武スカイツリーライン）","獨協大学前駅","徒歩18",NA,"埼玉県",0,NA
"6310216","中華そば桃李","〒359-1123 埼玉県所沢市日吉町19-12 ",35.78854,139.469832,"西武新宿線","所沢駅","徒歩5",NA,"埼玉県",0,NA
"7414108","麺屋 MANI","〒350-0066 埼玉県川越市連雀町8-3 ",35.919414,139.482942,"西武新宿線","本川越駅","徒歩8",NA,"埼玉県",0,NA
"6587577","幸楽苑 新座東店","〒352-0002 埼玉県新座市東2-3-17 ",35.812776,139.570475,"東武東上線","志木駅","徒歩15",NA,"埼玉県",0,NA
"7431674","R＆B","〒338-0002 埼玉県さいたま市中央区下落合1032 ",35.884816,139.637396,"ＪＲ京浜東北線","与野駅","徒歩1",880,"埼玉県",0,NA
"5822252","中華そば はなせきらーめん","〒365-0014 埼玉県鴻巣市屈巣4583-3 ",36.086916,139.511599,"","","",NA,"埼玉県",3,4
"6847332","ヤマナカ","〒350-0808 埼玉県川越市吉田新町2-12-13 ",35.925687,139.420914,"東武東上線","鶴ヶ島駅","徒歩21",NA,"埼玉県",0,NA
"7305120","幸楽苑 イオン大宮店","〒331-0825 埼玉県さいたま市北区櫛引町2-574-1 ",35.923398,139.609811,"JR川越線","日進（埼玉県）駅","徒歩15",NA,"埼玉県",0,NA
"5494730","ラーメンショップ深谷店","〒366-0042 埼玉県深谷市東方町1-12-8 ",36.188626,139.311907,"","","",NA,"埼玉県",0,NA
"5494496","らーめん屋 いとう","〒368-0043 埼玉県秩父市中町3-16 ベスト電器内",35.99427,139.081098,"秩父鉄道直通（横瀬-御花畑）","御花畑駅","徒歩5",NA,"埼玉県",1,3
"5494664","幸楽苑 新狭山店","〒350-1331 埼玉県狭山市新狭山2-4-4 ",35.877204,139.432187,"西武新宿線","新狭山駅","徒歩5",NA,"埼玉県",0,NA
"5495169","河童軒","〒354-0041 埼玉県入間郡三芳町藤久保16-18 ",35.841757,139.52398,"東武東上線","鶴瀬駅","徒歩20",NA,"埼玉県",0,NA
"7256424","はやしラーメン","〒350-0212 埼玉県坂戸市石井2305-14 ",35.96974,139.407944,"東武東上線","北坂戸駅","徒歩18",NA,"埼玉県",0,NA
"5495103","きむら屋","〒340-0114 埼玉県幸手市東5-2-34 ",36.080466,139.724309,"東武日光線","幸手駅","徒歩18",NA,"埼玉県",0,NA
"5495223","朋楽","〒369-1202 埼玉県大里郡寄居町大字桜沢2359 ",36.128461,139.204288,"秩父鉄道線","桜沢（埼玉県）駅","徒歩3",NA,"埼玉県",0,NA
"6972895","麺 松里","〒331-0052 埼玉県さいたま市西区三橋6-607-13 ",35.91789,139.589763,"ＪＲ川越線","西大宮駅","徒歩14",NA,"埼玉県",0,NA
"7521503","ゆたか屋","〒340-0052 埼玉県草加市金明町280 ",35.854283,139.796773,"東武伊勢崎線","新田（埼玉県）駅","徒歩1",NA,"埼玉県",0,NA
"5494255","有明ラーメン店","〒339-0052 埼玉県さいたま市岩槻区太田1-3-32 ",35.951892,139.707521,"東武野田線","岩槻駅","徒歩20",NA,"埼玉県",0,NA
"7704683","鶏そば 雫一","〒343-0032 埼玉県越谷市袋山1420-6 ",35.923299,139.777944,"東武伊勢崎線（東武スカイツリーライン）","大袋駅","徒歩2",NA,"埼玉県",0,NA
"5494920","めんくい亭","〒358-0003 埼玉県入間市豊岡1-3-7 ",35.838821,139.388337,"西武池袋線","入間市駅","徒歩5",NA,"埼玉県",0,NA
"5494833","幸楽苑 越谷神明店","〒343-0805 埼玉県越谷市神明町2-70 ",35.894336,139.768846,"東武伊勢崎線","北越谷駅","徒歩18",NA,"埼玉県",0,NA
"7346627","中華そば 北炎","〒355-0006 埼玉県東松山市市ノ川93-1 ",36.050839,139.395228,"東武東上線","東松山駅","徒歩24",NA,"埼玉県",0,NA
"7276823","タナカ90","〒351-0011 埼玉県朝霞市本町2-11-28 花月ビル1F",35.797553,139.598909,"東武東上線","朝霞駅","徒歩2",NA,"埼玉県",0,NA
"6746263","らーめん 天道","〒333-0846 埼玉県川口市南前川2-15-3 ",35.83218,139.709365,"ＪＲ京浜東北線","蕨駅","徒歩23",NA,"埼玉県",0,NA
"7345462","舎鈴 ビーンズ武蔵浦和店","〒336-0021 埼玉県さいたま市南区別所7-12-1 ビーンズ武蔵浦和",35.84568,139.646603,"JR埼京線","武蔵浦和駅","徒歩1",NA,"埼玉県",0,NA
"5494258","げんきラーメン","〒339-0032 埼玉県さいたま市岩槻区南下新井793-3 ",35.929367,139.724765,"","","",NA,"埼玉県",0,NA
"5494699","福よし 鴻巣店","〒365-0062 埼玉県鴻巣市箕田1771-1 ビバホーム鴻巣",36.083865,139.48864,"ＪＲ高崎線","北鴻巣駅","徒歩18",NA,"埼玉県",0,NA
"7256918","とんこつラーメン博多風龍 大宮東口駅前店","〒330-0846 埼玉県さいたま市大宮区大門町1-21 ",35.906697,139.625555,"JR上越新幹線","大宮（埼玉県）駅","徒歩1",NA,"埼玉県",3,4
"5494704","らあめん花月嵐 鴻巣店","〒365-0075 埼玉県鴻巣市宮地1-9-19 ",36.064788,139.514547,"JR高崎線","鴻巣駅","徒歩13",NA,"埼玉県",0,NA
"6316528","幸楽苑 浦和領家店","〒330-0072 埼玉県さいたま市浦和区領家4-14-2 ",35.880773,139.653923,"JR京浜東北線","北浦和駅","徒歩17",NA,"埼玉県",0,NA
"6183153","みそら イオン入間店","〒358-0013 埼玉県入間市上藤沢462-1 ジャスコ入間店2F",35.822151,139.394845,"西武池袋線","武蔵藤沢駅","徒歩5",NA,"埼玉県",0,NA
"6710799","和洋食堂だいす家","〒340-0003 埼玉県草加市稲荷2-36-6 ",35.830986,139.821064,"東武伊勢崎線","草加駅","徒歩24",NA,"埼玉県",0,NA
"5910954","あじ平","〒350-1121 埼玉県川越市脇田新町10-13 ",35.905899,139.472968,"東武東上線","川越駅","徒歩14",NA,"埼玉県",0,NA
"5494404","秀香苑","〒333-0861 埼玉県川口市柳崎3-21-3 ",35.855216,139.696135,"JR武蔵野線（府中本町-南船橋）","東浦和駅","徒歩18",NA,"埼玉県",0,NA
"7132237","ひかり","〒343-0816 埼玉県越谷市弥生町3-38 小俣ビル 1F",35.887579,139.786812,"東武伊勢崎線（東武スカイツリーライン）","越谷駅","徒歩2",NA,"埼玉県",0,NA
"6131082","らーめん山頭火 イオンレイクタウン店","〒343-0828 埼玉県越谷市レイクタウン3-1-1 イオンレイクタウンmori",35.882264,139.828219,"ＪＲ武蔵野線（府中本町-南船橋）","越谷レイクタウン駅","徒歩12",NA,"埼玉県",5,3.75
"5660884","百歩ラーメン 川口店","〒332-0028 埼玉県川口市宮町3-1 ",35.806027,139.702133,"JR京浜東北線","西川口駅","徒歩15",NA,"埼玉県",2,4
"7209295","飯能つけ麺 一恵 東飯能出張所","〒357-0035 埼玉県飯能市柳町1-12 ",35.852137,139.325383,"西武秩父線","東飯能駅","徒歩1",NA,"埼玉県",0,NA
"7150127","幸楽苑 モラージュ菖蒲店","〒346-0106 埼玉県久喜市菖蒲町菖蒲6005-1 ",36.075039,139.611347,"","","",NA,"埼玉県",0,NA
"7505983","ジャンクガレッジ 狭山店","〒350-1306 埼玉県狭山市富士見1-28-7 ゲオ狭山店前",35.85159,139.417889,"西武新宿線","狭山市（埼玉県）駅","徒歩10",NA,"埼玉県",0,NA
"7268355","麺処 丸め 新所沢店","〒359-1111 埼玉県所沢市緑町1-21-25 西武新宿線新所沢駅ビルEmio1F",35.80654,139.456296,"西武新宿線","新所沢駅","徒歩1",NA,"埼玉県",0,NA
"6939163","麻婆屋","〒336-0911 埼玉県さいたま市緑区三室1523-2 ",35.881474,139.677199,"","","",NA,"埼玉県",0,NA
"5394989","けんちゃんラーメン","〒366-0802 埼玉県深谷市桜ｹ丘60 ",36.185171,139.285604,"JR高崎線","深谷駅","徒歩11",NA,"埼玉県",0,NA
"7279842","寺カフェ 中華そば水加美","〒343-0102 埼玉県北葛飾郡松伏町築比地537-3 ",35.950512,139.832225,"","","",NA,"埼玉県",0,NA
"5494333","らあめん達磨屋","〒350-1145 埼玉県川越市清水町17-19 ",35.877367,139.506192,"東武東上線","上福岡駅","徒歩9",NA,"埼玉県",0,NA
"5495044","とんちゃんラーメン","〒354-0021 埼玉県富士見市鶴馬1-11-32 ",35.846366,139.542901,"東武東上線","鶴瀬駅","徒歩6",NA,"埼玉県",0,NA
"5494472","八洲ラーメン","〒361-0023 埼玉県行田市大字長野4904-1 ",36.136692,139.475961,"秩父鉄道線","東行田駅","徒歩19",NA,"埼玉県",0,NA
"6285792","イヨマンテ","〒344-0032 埼玉県春日部市備後東6-1-17 ",35.951952,139.771119,"東武伊勢崎線（東武スカイツリーライン）","武里駅","徒歩2",NA,"埼玉県",0,NA
"6291288","みながわ","〒362-0042 埼玉県上尾市谷津2-1-1 ショーサンプラザ5Ｆ",35.971747,139.588792,"JR高崎線","上尾駅","徒歩3",NA,"埼玉県",0,NA
"7690783","麺屋 槍","〒350-0015 埼玉県川越市今泉491 ",35.894304,139.527264,"JR川越線","南古谷駅","徒歩17",NA,"埼玉県",0,NA
"5494272","ラーメン亭","〒339-0055 埼玉県さいたま市岩槻区東町2-5-4 ",35.945128,139.70075,"東武野田線","岩槻駅","徒歩11",NA,"埼玉県",0,NA
"5494408","大勝軒","〒333-0811 埼玉県川口市戸塚2-25-1 ",35.875501,139.746843,"埼玉高速鉄道線","東川口駅","徒歩2",NA,"埼玉県",0,NA
"5494645","おなかの友達萬来 春日部店","〒344-0067 埼玉県春日部市中央1-8-9 ",35.979292,139.750211,"東武伊勢崎線","春日部駅","徒歩4",NA,"埼玉県",0,NA
"7255043","つけめんTETSU ららぽーと新三郷店","〒341-0009 埼玉県三郷市新三郷ららシティ3-1-1 ららぽーと新三郷2Fフードコート内",35.860151,139.865395,"ＪＲ武蔵野線（府中本町-南船橋）","新三郷駅","徒歩5",NA,"埼玉県",0,NA
"7479478","鶏そば日和","〒343-0023 埼玉県越谷市東越谷10-104-2 大都店舗",35.901203,139.802549,"東武伊勢崎線","越谷駅","徒歩30",NA,"埼玉県",0,NA
"7352062","らあめん花月嵐 東越谷店","〒343-0014 埼玉県越谷市宮前1-6-12 ",35.901839,139.797024,"東武伊勢崎線","越谷駅","徒歩24",NA,"埼玉県",0,NA
"7483526","麺処 つよし","〒332-0021 埼玉県川口市西川口6-1-1 ",35.810294,139.702233,"JR京浜東北線","西川口駅","徒歩9",NA,"埼玉県",0,NA
"5822238","麺松","〒331-0825 埼玉県さいたま市北区櫛引町2-359 ",35.918584,139.605509,"埼玉新都市交通ニューシャトル","鉄道博物館（大成）駅","徒歩16",NA,"埼玉県",0,NA
"7223656","ラーメン雷豚 白岡店","〒349-0205 埼玉県白岡市西5-1-3 ",36.017372,139.653046,"ＪＲ宇都宮線・ＪＲ上野東京ライン","白岡駅","徒歩17",NA,"埼玉県",0,NA
"5712875","大勝軒まるいち 大宮店","〒330-0845 埼玉県さいたま市大宮区仲町1-20-4 毎日会館ビル1F",35.904753,139.625452,"JR上越新幹線","大宮（埼玉県）駅","徒歩2",NA,"埼玉県",0,NA
"5495113","らーめんハウス 風瑠里","〒340-0151 埼玉県幸手市緑台1-20-3 ",36.065154,139.722416,"東武日光線","幸手駅","徒歩17",NA,"埼玉県",0,NA
"5023231","ワン ツウらーめん 朝霞店","〒351-0014 埼玉県朝霞市膝折町1-1-18 ",35.796114,139.58631,"東武東上線","朝霞駅","徒歩17",NA,"埼玉県",0,NA
"5022648","永太","〒366-0041 埼玉県深谷市東方2664-1 101",36.185841,139.324678,"JR高崎線","籠原駅","徒歩22",NA,"埼玉県",0,NA
"5494967","東京とんこつ とんとら 新座店","〒352-0005 埼玉県新座市中野1-10-22 ",35.818999,139.541433,"JR武蔵野線（府中本町-南船橋）","新座駅","徒歩30",NA,"埼玉県",0,NA
"7714587","麺屋 鯛鯛","〒340-0034 埼玉県草加市氷川町2104-16 VIPビル 1F",NA,NA,"東武伊勢崎線","草加駅","徒歩4",NA,"埼玉県",0,NA
"6928276","とりの助 坂戸にっさい店","〒350-0269 埼玉県坂戸市にっさい花みず木2-14-1 ",35.969711,139.372969,"","","",NA,"埼玉県",0,NA
"7327304","なかむら家","〒340-0003 埼玉県草加市稲荷2-36-17 ",35.830125,139.821483,"東武伊勢崎線","草加駅","徒歩23",NA,"埼玉県",0,NA
"5494634","札幌ラーメンカド","〒344-0061 埼玉県春日部市粕壁1-9-18 ",35.981423,139.749839,"東武伊勢崎線","春日部駅","徒歩4",NA,"埼玉県",0,NA
"5495007","らーめんハウス チャイナ8","〒346-0016 埼玉県久喜市久喜東4-17-10 ",NA,NA,"東武伊勢崎線","久喜駅","徒歩15",NA,"埼玉県",0,NA
"7003201","景虎 戸塚安行店","〒333-0808 埼玉県川口市長蔵新田281-3 ",35.859706,139.753504,"埼玉高速鉄道線","戸塚安行駅","徒歩1",NA,"埼玉県",0,NA
"6276626","ジャンクガレッジ","〒343-0828 埼玉県越谷市レイクタウン3-1-1 イオンレイクタウンmori3F",35.885036,139.827519,"JR武蔵野線（府中本町-南船橋）","越谷レイクタウン駅","徒歩18",NA,"埼玉県",4,3.625
"7542906","ジャンクガレッジ しらこばと公園前店","〒343-0802 埼玉県越谷市小曽川324-3 ",35.919213,139.751936,"","","",NA,"埼玉県",0,NA
"6280415","中華そば麺屋遊助","〒343-0032 埼玉県越谷市袋山1216-5 ",35.923661,139.779755,"東武伊勢崎線","大袋駅","徒歩3",NA,"埼玉県",1,3
"7209987","らーめん カッパハウス","〒359-0036 埼玉県所沢市旭町2-1 ",35.789487,139.473934,"西武新宿線","所沢駅","徒歩4",NA,"埼玉県",0,NA
"6361515","鋼","〒362-0015 埼玉県上尾市緑丘2-1-1 興和緑丘ビル103",35.981877,139.582634,"JR高崎線","北上尾駅","徒歩10",NA,"埼玉県",0,NA
"5494584","大勝軒 本庄店","〒367-0043 埼玉県本庄市緑1-3-8 ",36.227796,139.1823,"JR高崎線","本庄駅","徒歩14",NA,"埼玉県",0,NA
"6930057","ラーメン青木亭 川口店","〒332-0003 埼玉県川口市東領家1-12-22 ",35.796466,139.745465,"埼玉高速鉄道線","川口元郷駅","徒歩21",750,"埼玉県",0,NA
"6718831","金明堂","〒360-0041 埼玉県熊谷市宮町1-193 ",NA,NA,"秩父鉄道線","上熊谷駅","徒歩9",NA,"埼玉県",0,NA
"7368284","麺座でん流派 ファイブ（ΦVE）","〒340-0043 埼玉県草加市草加3-9-43 ショッピングロード",35.839337,139.798704,"東武伊勢崎線","獨協大学前［草加松原］駅","徒歩7",NA,"埼玉県",0,NA
"7342773","黄河菜館","〒356-0004 埼玉県ふじみ野市上福岡1-3-10 ",35.872882,139.513897,"東武東上線","上福岡駅","徒歩3",NA,"埼玉県",1,5
"7645220","辛みそ中華そば 六文銭 三郷分店","〒341-0004 埼玉県三郷市上彦名647-11 ",35.849627,139.860585,"JR武蔵野線（府中本町-南船橋）","新三郷駅","徒歩21",NA,"埼玉県",0,NA
"6306143","小樽らーめん 豆の木 蒲生店","〒343-0838 埼玉県越谷市蒲生1-7-18 ",35.859202,139.796626,"東武伊勢崎線","新田（埼玉県）駅","徒歩9",NA,"埼玉県",0,NA
"5494111","丸長","〒331-0822 埼玉県さいたま市北区奈良町12-15 ",35.944396,139.607886,"ＪＲ高崎線","宮原駅","徒歩6",NA,"埼玉県",0,NA
"5494319","二代目蝦夷","〒350-0811 埼玉県川越市小堤15-152 ",35.937847,139.437059,"東武東上線","鶴ヶ島駅","徒歩18",NA,"埼玉県",0,NA
"7686233","ラーメン専科 加須店","〒347-0068 埼玉県加須市大門町5-1 ",36.129599,139.599301,"東武伊勢崎線","加須駅","徒歩10",NA,"埼玉県",0,NA
"6741515","ブラウン","〒344-0066 埼玉県春日部市豊町5-19-15 ",35.967841,139.737885,"東武野田線","豊春駅","徒歩17",NA,"埼玉県",0,NA
"6394025","らーめん殿","〒341-0032 埼玉県三郷市谷中272-1 ",NA,NA,"","","",NA,"埼玉県",2,2.75
"5494459","くるまやラーメン 行田店","〒361-0052 埼玉県行田市本丸16-44 ",36.137006,139.451564,"秩父鉄道線","持田駅","徒歩11",NA,"埼玉県",0,NA
"5712953","ラーメン中華 田","〒335-0021 埼玉県戸田市新曽1378-3 ",35.816409,139.664172,"JR埼京線","戸田（埼玉県）駅","徒歩7",NA,"埼玉県",0,NA
"5828166","ラーメンのまめぞう 草加本店","〒340-0044 埼玉県草加市花栗4-6-11 ",35.836224,139.792494,"東武伊勢崎線（東武スカイツリーライン）","獨協大学前駅","徒歩19",NA,"埼玉県",3,3.75
"5251246","姑娘クーニャン","〒367-0072 埼玉県本庄市沼和田802-6 ",36.255849,139.184759,"JR高崎線","本庄駅","徒歩29",NA,"埼玉県",0,NA
"5495204","どさん娘らーめんハウス","〒368-0101 埼玉県秩父郡小鹿野町下小鹿野2326-1 ",36.017835,139.014917,"","","",NA,"埼玉県",0,NA
"5494109","らあめん花月嵐 土呂店","〒331-0804 埼玉県さいたま市北区土呂町2-23-7 ",35.929298,139.634556,"ＪＲ東北本線〔宇都宮線〕（上野-黒磯）","土呂駅","徒歩6",NA,"埼玉県",0,NA
"7640541","in EZO 絆","〒340-0816 埼玉県八潮市中央1-5-11 ",35.821557,139.839002,"つくばエクスプレス","八潮駅","徒歩22",NA,"埼玉県",0,NA
"5495252","ぎょうざラーメンつたや","〒346-0115 埼玉県久喜市菖蒲町小林1771-7 ",36.052219,139.588361,"","","",NA,"埼玉県",0,NA
"6721878","見晴亭","〒368-0016 埼玉県秩父市阿保町12-7 ",36.018392,139.087261,"秩父鉄道線","大野原駅","徒歩9",NA,"埼玉県",0,NA
"6155261","麺処 遊 蕨店","〒335-0003 埼玉県蕨市南町3-25-11 ",35.817382,139.700166,"JR京浜東北線","西川口駅","徒歩6",NA,"埼玉県",0,NA
"5494955","幸楽苑 和光新倉店","〒351-0111 埼玉県和光市下新倉4-24-12 ",35.792011,139.631259,"都営三田線","西高島平駅","徒歩16",NA,"埼玉県",0,NA
"5605895","一代元埼玉伊奈店","〒362-0806 埼玉県北足立郡伊奈町小室元宿6912-4 ",NA,NA,"","","",NA,"埼玉県",1,2
"7408986","ラーメン カインズキッチン","〒336-0976 埼玉県さいたま市緑区寺山字下145 カインズホームフードコート1F",35.906641,139.712353,"","","",NA,"埼玉県",0,NA
"5023671","長瀬飯店","〒350-0461 埼玉県入間郡毛呂山町中央4-17-13 ",35.94098,139.324979,"東武越生線","武州長瀬駅","徒歩1",NA,"埼玉県",0,NA
"7536739","来来亭 吉川店","〒342-0041 埼玉県吉川市大字保444-1 ",NA,NA,"","","",NA,"埼玉県",0,NA
"7431662","むぎとオリーブ さいたま新都心店","〒330-0081 埼玉県さいたま市中央区新都心10 ",35.893567,139.631563,"ＪＲ","さいたま新都心駅","徒歩2",850,"埼玉県",0,NA
"5495091","麺屋一歩","〒350-0274 埼玉県坂戸市溝端町2-4 ",35.971506,139.395911,"東武東上線","北坂戸駅","徒歩2",NA,"埼玉県",0,NA
"7269639","麺場 田所商店 籠原店","〒360-0846 埼玉県熊谷市拾六間763-1 ",36.173153,139.311285,"JR高崎線","籠原駅","徒歩26",NA,"埼玉県",0,NA
"6587587","ラーメンショップ 深谷川本店","〒369-1105 埼玉県深谷市本田5989-10 ",36.110138,139.284815,"","","",NA,"埼玉県",0,NA
"5553197","ラーメンショップ川島店","〒350-0135 埼玉県比企郡川島町下狢647-1 ",35.964826,139.493656,"","","",NA,"埼玉県",0,NA
"7759690","中華そば 四つ葉 東松山臨時店舗","〒355-0042 埼玉県東松山市今泉297-11 ",36.006159,139.436409,"","","",NA,"埼玉県",0,NA
"5495088","坂戸らーめんまりぼ","〒350-0225 埼玉県坂戸市日の出町5-21 ",35.958405,139.392087,"東武東上線","坂戸駅","徒歩3",NA,"埼玉県",1,2.5
"5712912","一指禅らーめん西所沢店","〒359-1144 埼玉県所沢市西所沢1-12-1 ",35.789031,139.456855,"西武池袋線","西所沢駅","徒歩1",NA,"埼玉県",0,NA
"7756230","麺匠 花いち イオンモール北戸田店","〒335-0032 埼玉県戸田市美女木東1-3-1 イオンモール北戸田1F",35.826627,139.652631,"JR埼京線","北戸田駅","徒歩12",NA,"埼玉県",0,NA
"7274874","らーめん そめや","〒333-0805 埼玉県川口市戸塚鋏町1-37 ",35.865083,139.754579,"埼玉高速鉄道線","戸塚安行駅","徒歩10",NA,"埼玉県",0,NA
"6710717","好好ラーメン","〒340-0028 埼玉県草加市谷塚1-2-45 ",35.813396,139.80243,"東武伊勢崎線（東武スカイツリーライン）","谷塚駅","徒歩3",NA,"埼玉県",0,NA
"7133428","ときわ亭","〒330-0061 埼玉県さいたま市浦和区常盤4-16-22 ",35.862361,139.647069,"JR京浜東北線","北浦和駅","徒歩14",NA,"埼玉県",0,NA
"7075240","らーめん 詩","〒335-0002 埼玉県蕨市塚越2-4-1 ハイツリラ",35.827227,139.693553,"ＪＲ京浜東北線","蕨駅","徒歩5",NA,"埼玉県",0,NA
"5494924","らあめん花月嵐 久保稲荷店","〒358-0024 埼玉県入間市久保稲荷1-28-25 ",35.826289,139.394392,"西武池袋線","武蔵藤沢駅","徒歩27",NA,"埼玉県",0,NA
"7704685","鶏そば 一瑳","〒330-0063 埼玉県さいたま市浦和区高砂1-8-11 ",35.857603,139.656244,"ＪＲ","浦和駅","徒歩1",NA,"埼玉県",0,NA
"7109659","まがり","〒358-0011 埼玉県入間市下藤沢310-8 ",35.815594,139.411016,"西武池袋線","武蔵藤沢駅","徒歩9",NA,"埼玉県",0,NA
"7680095","一路 草加店","〒340-0034 埼玉県草加市氷川町2149-20 ",35.830072,139.803335,"東武伊勢崎線","草加駅","徒歩2",NA,"埼玉県",0,NA
"6452429","メロディー 大宮店","〒330-0845 埼玉県さいたま市大宮区仲町2-56 ",35.905,139.627547,"ＪＲ京浜東北線","大宮（埼玉県）駅","徒歩4",NA,"埼玉県",4,2.75
"5494480","ちょい呑麺麺屋 一丸","〒368-0043 埼玉県秩父市中町10-6 ",35.993348,139.079893,"秩父鉄道直通（横瀬-御花畑）","御花畑駅","徒歩5",NA,"埼玉県",0,NA
"7113123","ラーメンお好みトッピング 北本店","〒364-0013 埼玉県北本市中丸8-117-1 カインズホーム北本店",36.020857,139.55642,"","","",NA,"埼玉県",0,NA
"6409318","麺座 風水","〒340-0022 埼玉県草加市瀬崎3-36-34 ",35.81088,139.802622,"東武伊勢崎線","谷塚駅","徒歩6",NA,"埼玉県",0,NA
"6930061","ラーメン青木亭 せんげん台店","〒343-0043 埼玉県越谷市上間久里398-1 ",35.930852,139.785812,"東武伊勢崎線","大袋駅","徒歩15",750,"埼玉県",0,NA
"5495080","幸楽手作りラーメン","〒350-0215 埼玉県坂戸市関間1-1-2 ",NA,NA,"東武東上線","坂戸駅","徒歩8",NA,"埼玉県",0,NA
"7387612","いりにぼ","〒350-1316 埼玉県狭山市南入曽585-6 ",35.833045,139.426978,"西武新宿線","入曽駅","徒歩1",NA,"埼玉県",0,NA
"7168509","ごん太","〒366-0824 埼玉県深谷市西島町2-1-3 ",36.191867,139.282281,"JR高崎線","深谷駅","徒歩1",NA,"埼玉県",0,NA
"5494300","東京とんこつ とんとら 川越店","〒350-0853 埼玉県川越市城下町15-2 ",35.927419,139.492627,"西武新宿線","本川越駅","徒歩28",NA,"埼玉県",0,NA
"7000970","勇","〒344-0055 埼玉県春日部市八木崎町8-1 ",35.978209,139.739873,"東武野田線","八木崎駅","徒歩3",NA,"埼玉県",0,NA
"5494484","ザ ラーメン 秩父店","〒368-0001 埼玉県秩父市黒谷977-7 ",36.036547,139.109572,"秩父鉄道線","和銅黒谷駅","徒歩18",NA,"埼玉県",0,NA
"5494178","かし和や","〒338-0003 埼玉県さいたま市中央区本町東3-6-7 ",35.882386,139.621576,"ＪＲ埼京線","与野本町駅","徒歩6",NA,"埼玉県",0,NA
"5494349","くるまやラーメン 熊谷新堀店","〒360-0847 埼玉県熊谷市籠原南1-319 ",36.173423,139.326126,"JR高崎線","籠原駅","徒歩6",NA,"埼玉県",0,NA
"7715602","和風楽麺 四代目 ひのでや 大宮店","〒330-0846 埼玉県さいたま市大宮区大門町3-167 ",35.908089,139.627983,"JR上越新幹線","大宮（埼玉県）駅","徒歩4",NA,"埼玉県",0,NA
"5495026","あじ平 八潮店","〒340-0808 埼玉県八潮市緑町5-12-12 ",35.828337,139.822836,"東武伊勢崎線","草加駅","徒歩23",NA,"埼玉県",0,NA
"5494886","一番","〒335-0023 埼玉県戸田市本町4-11-19 1F",35.807207,139.678185,"ＪＲ埼京線","戸田公園駅","徒歩1",NA,"埼玉県",0,NA
"7346629","麺屋 BONCHI","〒368-0021 埼玉県秩父市下宮地町24-23 ",36.017276,139.093155,"秩父鉄道線","大野原駅","徒歩5",NA,"埼玉県",0,NA
"7102264","ちゃあしゅう屋 三郷店","〒341-0032 埼玉県三郷市谷中14-17 ",35.828088,139.8759,"つくばエクスプレス","三郷中央駅","徒歩10",1000,"埼玉県",0,NA
"6848109","金来","〒360-0031 埼玉県熊谷市末広1-80 ",36.145125,139.389844,"秩父鉄道線","熊谷駅","徒歩9",NA,"埼玉県",0,NA
"5494261","清ちゃんラーメン","〒339-0035 埼玉県さいたま市岩槻区笹久保新田725-1 ",35.912716,139.709514,"","","",NA,"埼玉県",2,4.75
"5494630","くるまやラーメン 春日部店","〒344-0063 埼玉県春日部市緑町2-1-20 ",35.974288,139.765924,"東武伊勢崎線","一ノ割駅","徒歩17",NA,"埼玉県",0,NA
"6919871","ポパイラーメン 香港料理","〒341-0018 埼玉県三郷市早稲田8-11-9 ",35.860099,139.88779,"JR武蔵野線（府中本町-南船橋）","三郷（埼玉県）駅","徒歩22",NA,"埼玉県",0,NA
"5662303","本庄 常勝軒","〒367-0055 埼玉県本庄市若泉3-4-4 ",36.24823,139.186334,"ＪＲ高崎線","本庄駅","徒歩19",NA,"埼玉県",0,NA
"7633429","来来亭 熊谷店","〒360-0823 埼玉県熊谷市榎町1-1 ",NA,NA,"","","",NA,"埼玉県",0,NA
"5494711","優勝軒 唐麺や十兵衛 花園店","〒369-1245 埼玉県深谷市荒川228 ",36.121552,139.239824,"秩父鉄道線","小前田駅","徒歩27",NA,"埼玉県",0,NA
"7751474","ふかや女子流 アイモ","〒366-0031 埼玉県深谷市国済寺町25-6 林ビル1F",36.190054,139.306038,"","","",NA,"埼玉県",0,NA
"7434247","麺屋一","〒367-0243 埼玉県児玉郡神川町熊野堂139-3 ",36.213149,139.127544,"","","",NA,"埼玉県",0,NA
"5608623","おおぎやラーメン 深谷店","〒366-0801 埼玉県深谷市上野台2400-1 ",36.182599,139.282087,"JR高崎線","深谷駅","徒歩15",NA,"埼玉県",0,NA
"7483783","伊武記","〒346-0024 埼玉県久喜市北青柳86-1 ",36.055754,139.66504,"東武伊勢崎線","久喜駅","徒歩21",NA,"埼玉県",0,NA
"7343867","麺場 田所商店 春日部店","〒344-0062 埼玉県春日部市粕壁東5-8-25 ",35.976882,139.764485,"東武伊勢崎線","春日部駅","徒歩16",NA,"埼玉県",0,NA
"7092168","RAMEN EXPRESS 博多一風堂 三井アウトレットパーク入間店","〒358-0014 埼玉県入間市宮寺3169-1 三井アウトレットパーク入間1Fフードコート内",35.810188,139.380227,"","","",NA,"埼玉県",0,NA
"5495137","どさん子大将 日高店","〒350-1205 埼玉県日高市原宿154-10 ",35.903918,139.340938,"JR八高線（八王子-高麗川）","高麗川駅","徒歩14",NA,"埼玉県",0,NA
"6454177","川越大勝軒","〒350-0023 埼玉県川越市並木855-1 ",35.900181,139.520362,"ＪＲ川越線","南古谷駅","徒歩4",NA,"埼玉県",0,NA
"7646523","らーめん 川嶋","〒347-0105 埼玉県加須市騎西52-16 ",36.102607,139.571302,"","","",NA,"埼玉県",0,NA
"7740749","小江戸タンメン 蔵之介","〒356-0055 埼玉県ふじみ野市旭1-19-14 ",NA,NA,"東武東上線","ふじみ野駅","徒歩15",NA,"埼玉県",0,NA
"5494102","くるまやラーメン 宮原店","〒331-0821 埼玉県さいたま市北区別所町12-12 ",35.952928,139.602558,"JR高崎線","宮原駅","徒歩20",NA,"埼玉県",0,NA
"5841271","一代元 東大成店","〒331-0814 埼玉県さいたま市北区東大成町2-71-2 ",35.924637,139.62168,"東武野田線","北大宮駅","徒歩12",NA,"埼玉県",0,NA
"6182158","らぁめん 麺楽屋","〒362-0072 埼玉県上尾市中妻2-13-23 ",35.982676,139.569693,"ＪＲ高崎線","北上尾駅","徒歩18",NA,"埼玉県",0,NA
"6192247","GREEN","〒331-0812 埼玉県さいたま市北区宮原町3-336 ",35.939454,139.610277,"ＪＲ高崎線","宮原駅","徒歩1",NA,"埼玉県",0,NA
"7272632","ラーメン 尾ばな","〒342-0013 埼玉県吉川市吉屋2-186-2 ",35.89077,139.880326,"","","",NA,"埼玉県",0,NA
"5828164","ばんぶる 東川口店","〒333-0805 埼玉県川口市戸塚鋏町1-1 ",35.865525,139.754374,"埼玉高速鉄道線","戸塚安行駅","徒歩11",NA,"埼玉県",0,NA
"7453233","北海道らぁ麺 ひむろ","〒330-0802 埼玉県さいたま市大宮区宮町1-44-1 橋本第3ビル",35.908411,139.6251,"JR上越新幹線","大宮（埼玉県）駅","徒歩3",NA,"埼玉県",0,NA
"5494313","松ちゃん","〒350-1155 埼玉県川越市下赤坂1856-1 ",35.847603,139.466952,"","","",NA,"埼玉県",0,NA
"5494468","丸信ラーメン 行田店","〒361-0007 埼玉県行田市大字小見1137-1 ",36.15937,139.475005,"秩父鉄道線","武州荒木駅","徒歩18",NA,"埼玉県",0,NA
"7660754","ラーメンショップ 122号騎西店","〒347-0111 埼玉県加須市鴻茎111-1 ",36.09535,139.581624,"","","",NA,"埼玉県",0,NA
"6361506","百歩ラーメン 南浦和店","〒336-0025 埼玉県さいたま市南区文蔵2-3-5 ",35.843392,139.670196,"ＪＲ京浜東北線","南浦和駅","徒歩6",NA,"埼玉県",2,NA
"6211588","大黒屋本舗 春日部店","〒344-0067 埼玉県春日部市中央1-7-2 ",35.978265,139.750919,"東武伊勢崎線","春日部駅","徒歩3",NA,"埼玉県",1,3.5
"7681103","喜多方ラーメン 坂内 杉戸店","〒345-0041 埼玉県北葛飾郡杉戸町茨島742-1 ",36.049984,139.717744,"東武日光線","杉戸高野台駅","徒歩6",NA,"埼玉県",0,NA
"7068809","麺処福吉 所沢本店","〒359-0045 埼玉県所沢市美原町3-2950-3 ",35.813719,139.459363,"西武新宿線","新所沢駅","徒歩11",NA,"埼玉県",3,4.33333333333333
"7730586","中華そばつけめん まるこう","〒369-0115 埼玉県鴻巣市吹上本町2-1-3 ",36.105265,139.453995,"JR高崎線","吹上（埼玉県）駅","徒歩3",NA,"埼玉県",0,NA
"6452426","おおぎやラーメン 行田店","〒361-0074 埼玉県行田市旭町14-40 ",36.141336,139.466259,"秩父鉄道線","行田市駅","徒歩10",NA,"埼玉県",1,3
"5494180","喜久","〒338-0011 埼玉県さいたま市中央区新中里1-14-17 ",35.874604,139.637539,"ＪＲ京浜東北線","北浦和駅","徒歩11",NA,"埼玉県",1,5
"7593232","焼麺 劔 三郷店","〒341-0008 埼玉県三郷市駒形131-1 ",35.847958,139.868612,"JR武蔵野線（府中本町-南船橋）","三郷（埼玉県）駅","徒歩20",NA,"埼玉県",0,NA
"7625605","麺場 田所商店 川口店","〒332-0001 埼玉県川口市朝日2-28-13 ",35.810825,139.734383,"埼玉高速鉄道線","南鳩ヶ谷駅","徒歩9",NA,"埼玉県",0,NA
"7638424","きたもと屋","〒364-0031 埼玉県北本市中央4-36-2 ",36.033725,139.530189,"JR高崎線","北本駅","徒歩7",NA,"埼玉県",0,NA
"5801532","らあめん花月嵐 上尾原市店","〒362-0021 埼玉県上尾市原市二番耕地316 ",35.955328,139.630361,"埼玉新都市交通ニューシャトル","吉野原駅","徒歩12",NA,"埼玉県",0,NA
"5495015","東京とんこつ とんとら 北本店","〒364-0005 埼玉県北本市本宿5-114 ",36.029415,139.546774,"JR高崎線","北本駅","徒歩20",NA,"埼玉県",0,NA
"5495046","麺道場 鶴瀬店","〒354-0033 埼玉県富士見市羽沢2-5-43 ",35.857859,139.537868,"東武東上線","鶴瀬駅","徒歩18",NA,"埼玉県",1,3
"5495119","幸楽苑 鶴ヶ島店","〒350-2223 埼玉県鶴ヶ島市大字高倉字三角原1239-8 ",35.939404,139.384369,"東武越生線","一本松（埼玉県）駅","徒歩19",NA,"埼玉県",0,NA
"7505960","はつがい商店","〒350-2203 埼玉県鶴ヶ島市上広谷18-27 ",35.937694,139.423091,"東武東上線","鶴ヶ島駅","徒歩1",NA,"埼玉県",0,NA
"6280224","スミレ食堂","〒360-0037 埼玉県熊谷市筑波3-202 ティアラ21 3F アズイースト",36.139531,139.392202,"JR上越新幹線","熊谷駅","徒歩2",NA,"埼玉県",0,NA
"7543159","壱角家 埼大通り店","〒338-0825 埼玉県さいたま市桜区下大久保726-1 ",35.863441,139.603156,"","","",NA,"埼玉県",0,NA
"7748422","キッチンあすなろ浦和支店","〒336-0931 埼玉県さいたま市緑区原山4-3-3 MEGAドン・キホーテ浦和原山店B1",35.871006,139.674511,"JR京浜東北線","浦和駅","徒歩30",NA,"埼玉県",0,NA
"5395160","珍来","〒343-0011 埼玉県越谷市増林字城ノ上5858-17 ",NA,NA,"","","",NA,"埼玉県",0,NA
"5894866","珍楽","〒344-0046 埼玉県春日部市上蛭田262-3 ",35.967054,139.726397,"東武野田線","豊春駅","徒歩2",NA,"埼玉県",0,NA
"5494433","本格豚骨らーめんめじゃー","〒333-0848 埼玉県川口市芝下1-10-5 ",35.837918,139.699121,"JR京浜東北線","蕨駅","徒歩20",NA,"埼玉県",0,NA
"7633443","中華そば 珍来","〒350-2204 埼玉県鶴ヶ島市鶴ヶ丘29-20 ",NA,NA,"","","",NA,"埼玉県",0,NA
"5494852","美松","〒343-0824 埼玉県越谷市流通団地3-2-1 ",35.877328,139.804836,"JR武蔵野線（府中本町-南船橋）","南越谷駅","徒歩20",NA,"埼玉県",0,NA
"5494718","煖煖亭とんこつラーメン","〒366-0035 埼玉県深谷市原郷48-1 ",36.1947,139.294947,"JR高崎線","深谷駅","徒歩19",NA,"埼玉県",0,NA
"1006161","博多らーめん清水屋","〒340-0015 埼玉県草加市高砂2-2-15 ",35.827094,139.805218,"東武伊勢崎線（東武スカイツリーライン）","草加駅","徒歩3",NA,"埼玉県",2,2.75
"5494243","幸楽苑 東浦和店","〒336-0917 埼玉県さいたま市緑区芝原3-3-6 ",35.879447,139.692312,"JR武蔵野線（府中本町-南船橋）","東浦和駅","徒歩26",NA,"埼玉県",0,NA
"7565424","麺処 むら井","〒344-0062 埼玉県春日部市粕壁東2-9-23 ",35.981281,139.759635,"東武伊勢崎線","春日部駅","徒歩10",NA,"埼玉県",0,NA
"6752258","武蔵家川口店","〒332-0017 埼玉県川口市栄町3-9-15 ",35.802984,139.720068,"ＪＲ京浜東北線","川口駅","徒歩3",NA,"埼玉県",0,NA
"5494803","もっちゃんラーメン","〒340-0013 埼玉県草加市松江2-5-15 ",35.838243,139.807745,"東武伊勢崎線（東武スカイツリーライン）","獨協大学前駅","徒歩14",NA,"埼玉県",0,NA
"7515791","けやき亭","〒336-0926 埼玉県さいたま市緑区東浦和1-14-7 ",35.863582,139.705406,"JR武蔵野線（府中本町-南船橋）","東浦和駅","徒歩1",NA,"埼玉県",0,NA
"5251563","悦楽苑","〒368-0072 埼玉県秩父郡横瀬町横瀬4324-2 ",35.990191,139.095764,"秩父鉄道直通（横瀬-御花畑）","横瀬駅","徒歩9",NA,"埼玉県",0,NA
"7113113","らーめん竜美 与野本町店","〒338-0003 埼玉県さいたま市中央区本町東2-17-2 ",35.882425,139.625592,"JR埼京線","与野本町駅","徒歩1",NA,"埼玉県",2,NA
"7659278","らーめん みずさわ","〒339-0067 埼玉県さいたま市岩槻区西町5-3-42 ",NA,NA,"東武野田線","岩槻駅","徒歩11",NA,"埼玉県",0,NA
"7345491","壱角家 谷塚店","〒340-0000 埼玉県草加市谷塚1-1-23 ",35.813999,139.801149,"東武伊勢崎線","谷塚駅","徒歩1",NA,"埼玉県",0,NA
"5494373","よか楼 本店","〒360-0201 埼玉県熊谷市妻沼1866-5 ",36.227576,139.371061,"","","",NA,"埼玉県",0,NA
"7327965","手もみらーめん 十八番","〒348-0064 埼玉県羽生市藤井上組832 ",36.183531,139.554567,"","","",NA,"埼玉県",0,NA
"6959673","ラーメン魁力屋 八潮店","〒340-0821 埼玉県八潮市伊勢野472 ",NA,NA,"","","",NA,"埼玉県",0,NA
"5251032","多万里","〒330-0846 埼玉県さいたま市大宮区大門町1-62 ",35.906017,139.626608,"ＪＲ上越新幹線","大宮（埼玉県）駅","徒歩2",NA,"埼玉県",4,3.75
"7603712","らーめん 福よし","〒350-1106 埼玉県川越市大字小室55 スーパービバホーム 西川越店",35.915448,139.464583,"JR川越線","西川越駅","徒歩11",NA,"埼玉県",0,NA
"7593228","らぁめん寿","〒350-1317 埼玉県狭山市水野442-25 ",35.826771,139.435516,"西武新宿線","入曽駅","徒歩14",NA,"埼玉県",0,NA
"5494564","こだわりらーめんくらや","〒347-0042 埼玉県加須市志多見1772-1 ",36.136103,139.557054,"東武伊勢崎線","南羽生駅","徒歩20",NA,"埼玉県",0,NA
"7111696","三宝亭 与野本町店","〒338-0002 埼玉県さいたま市中央区下落合4-9-16 ",35.886005,139.625581,"JR埼京線","与野本町駅","徒歩8",NA,"埼玉県",0,NA
"5494611","福寿苑","〒355-0021 埼玉県東松山市神明町2-16-5 ",36.028725,139.405791,"東武東上線","東松山駅","徒歩10",NA,"埼玉県",0,NA
"6351659","麺屋 たつみ 喜心 狭山店","〒350-1305 埼玉県狭山市入間川1433-5 ",35.847393,139.428038,"西武新宿線","入曽駅","徒歩24",NA,"埼玉県",0,NA
"7191744","IPPUDO RAMEN EXPRESS コクーンシティ店","〒330-0843 埼玉県さいたま市大宮区吉敷町4-263-1 コクーン新都心3Fフードコート内",35.896024,139.633951,"ＪＲ京浜東北線","さいたま新都心駅","徒歩3",NA,"埼玉県",3,4
"5495105","幸楽苑 幸手店","〒340-0114 埼玉県幸手市東2-1-1 ",36.071165,139.719793,"東武日光線","幸手駅","徒歩7",NA,"埼玉県",0,NA
"7141268","門ぱち 浦和美園店","〒336-0963 埼玉県さいたま市緑区大字大門字宮下3555 ",NA,NA,"","","",NA,"埼玉県",0,NA
"7698237","二代目 うめまる麺や 日の出","〒367-0242 埼玉県児玉郡神川町原新田1-20 ",36.216649,139.113695,"JR八高線（高麗川-倉賀野）","丹荘駅","徒歩13",NA,"埼玉県",0,NA
"5494292","玉川","〒350-1101 埼玉県川越市的場1-15-24 ",35.912866,139.428247,"JR川越線","的場駅","徒歩14",NA,"埼玉県",0,NA
"5494140","らあめん花月嵐 大宮三橋店","〒330-0856 埼玉県さいたま市大宮区三橋2-684-1 ",35.897684,139.602938,"ＪＲ上越新幹線","大宮（埼玉県）駅","徒歩28",NA,"埼玉県",0,NA
"6384031","つけ麺処 めん家りく","〒355-0316 埼玉県比企郡小川町角山484-1 ",36.069044,139.250359,"東武東上線","東武竹沢駅","徒歩22",NA,"埼玉県",0,NA
"7195595","らあめん花月嵐 アリオ鷲宮店","〒340-0212 埼玉県久喜市久本寺谷田7-1 2Fフードコート内",NA,NA,"JR宇都宮線","久喜駅","約10",NA,"埼玉県",0,NA
"7326899","らーめん えん者","〒360-0847 埼玉県熊谷市籠原南3-443 ",36.170998,139.320079,"JR高崎線","籠原駅","徒歩15",NA,"埼玉県",0,NA
"5494335","茜やらーめん","〒360-0044 埼玉県熊谷市弥生2-65 ",36.141581,139.388191,"秩父鉄道線","熊谷駅","徒歩3",NA,"埼玉県",0,NA
"7505986","麺場 壱歩 所沢店","〒359-0004 埼玉県所沢市北原町1412-6 ",35.810268,139.479852,"西武新宿線","航空公園駅","徒歩28",NA,"埼玉県",0,NA
"6939172","活力工房","〒333-0866 埼玉県川口市芝1-30-7 ",35.835094,139.70364,"JR京浜東北線","蕨駅","徒歩22",NA,"埼玉県",0,NA
"5494299","天天","〒350-0822 埼玉県川越市山田1601-2 ",35.943514,139.478641,"","","",NA,"埼玉県",1,2
"7089781","らーめんのまめぞう 越谷レイクタウン店","〒343-0825 埼玉県越谷市大成町2-315-7 ",35.884494,139.814746,"JR武蔵野線（府中本町-南船橋）","越谷レイクタウン駅","徒歩18",NA,"埼玉県",0,NA
"7291877","麺処 直久アリオ上尾店","〒362-0046 埼玉県上尾市壱丁目367 アリオ上尾2Fフードコート",35.961623,139.565475,"","","",NA,"埼玉県",0,NA
"6959641","らーめんランド バリュープラザ上尾愛宕店","〒362-0034 埼玉県上尾市愛宕3-1-40 ",35.964668,139.596789,"ＪＲ高崎線","上尾駅","徒歩19",NA,"埼玉県",0,NA
"7584359","UNDERGROUND RAMEN 頑者 所沢店","〒359-0037 埼玉県所沢市くすのき台1-14-5 グランエミオ所沢3F",35.786326,139.473926,"西武新宿線","所沢駅","徒歩1",NA,"埼玉県",0,NA
"6302246","かまだん","〒347-0009 埼玉県加須市三俣1-33-1 ",36.135176,139.60004,"東武伊勢崎線","加須駅","徒歩19",NA,"埼玉県",0,NA
"7686700","狼煙 東大宮店","〒337-0051 埼玉県さいたま市見沼区東大宮4-17-18 ",NA,NA,"JR宇都宮線・JR上野東京ライン","東大宮駅","徒歩2",NA,"埼玉県",0,NA
"7152075","IPPUDO RAMEN EXPRESS 越谷レイクタウン店","〒343-0828 埼玉県越谷市レイクタウン3-1-1 イオンレイクタウンmori3Fフードコート内",35.885036,139.827519,"JR武蔵野線（府中本町-南船橋）","越谷レイクタウン駅","徒歩18",NA,"埼玉県",0,NA
"7123513","らーめん 五葉 川越店","〒350-1122 埼玉県川越市脇田町27-10 ",35.909069,139.481735,"東武東上線","川越駅","徒歩3",NA,"埼玉県",0,NA
"5494944","ラーメンショップ 朝霞店","〒351-0015 埼玉県朝霞市幸町1-3-4 ",35.796298,139.589952,"東武東上線","朝霞駅","徒歩13",NA,"埼玉県",0,NA
"6351660","らーめん河内屋","〒369-1246 埼玉県深谷市小前田611 ",36.120901,139.230872,"秩父鉄道線","小前田駅","徒歩20",NA,"埼玉県",0,NA
"7565309","勝どき食堂 上里店","〒369-0301 埼玉県児玉郡上里町金久保482-1 ",36.262272,139.139474,"JR高崎線","神保原駅","徒歩21",NA,"埼玉県",0,NA
"5712936","鳳春","〒362-0036 埼玉県上尾市宮本町14-16 ",35.976889,139.592908,"ＪＲ高崎線","上尾駅","徒歩7",NA,"埼玉県",0,NA
"5494326","ラーメンショップ 的場店","〒350-1101 埼玉県川越市的場243-2 ",35.90772,139.431191,"JR川越線","的場駅","徒歩16",NA,"埼玉県",0,NA
"5494637","大勝軒 一ノ割店","〒344-0064 埼玉県春日部市南4-21-3 ",35.965767,139.765308,"東武伊勢崎線","一ノ割駅","徒歩4",NA,"埼玉県",1,5
"7368256","ラーメン魁力屋 イオンモール浦和美園店","〒336-8760 埼玉県さいたま市緑区大字大門3710 3Fフードコート内",35.89123,139.731,"","","",NA,"埼玉県",0,NA
"7389323","蓮の花","〒349-0101 埼玉県蓮田市黒浜3469 東北自動車道蓮田SA（下り）",36.000879,139.666764,"JR宇都宮線・JR上野東京ライン","白岡駅","徒歩29",NA,"埼玉県",0,NA
"7429317","らあめん屋 歩一","〒343-0023 埼玉県越谷市東越谷3-5-7 ",35.894406,139.799058,"東武伊勢崎線","越谷駅","徒歩17",NA,"埼玉県",0,NA
"6170346","夜泣","〒330-0856 埼玉県さいたま市大宮区三橋1-74 ",35.908788,139.606598,"埼玉新都市交通ニューシャトル","大宮（埼玉県）駅","徒歩22",NA,"埼玉県",0,NA
"5495042","大吾郎","〒354-0025 埼玉県富士見市関沢2-24-46 ",35.841844,139.538612,"東武東上線","鶴瀬駅","徒歩6",NA,"埼玉県",0,NA
"5494120","らーめんハウス 味好","〒331-0812 埼玉県さいたま市北区宮原町3-276-5 ",35.939413,139.611136,"ＪＲ高崎線","宮原駅","徒歩3",NA,"埼玉県",0,NA
