"ID","Name","Address","Latitude","Longitude","Line","Station","Walk","Budget","Pref","ScoreN","Score"
"gfs5000","やきとり鷹正","〒286-0033 千葉県成田市花崎町845-1",35.779832,140.315275,"ＪＲ成田線","成田駅","2",3500,"千葉県",0,NA
"a904705","シェラトン・グランデ・トーキョーベイ・ホテル ガレリアカフェ","〒279-0031 千葉県浦安市舞浜1-9 シェラトングランデトーキョーベイ1F",35.626076,139.877432,"ディズニーリゾートライン","ベイサイド駅","5",2000,"千葉県",1,5
"gdv6139","ラーメン山岡家 東金店","〒283-0067 千葉県東金市東上宿字2-27-4",35.554339,140.365499,"ＪＲ東金線","東金駅","11",800,"千葉県",0,NA
"a155008","麺場 田所商店 津田沼店","〒275-0026 千葉県習志野市谷津7-7-1",35.690606,140.018171,"ＪＲ総武線","津田沼駅","3",1000,"千葉県",0,NA
"ggr4700","餃子市場 市川店","〒272-0034 千葉県市川市市川2-32-3",35.731393,139.905289,"ＪＲ総武線","市川駅","6",2500,"千葉県",0,NA
"gdv6131","ラーメン山岡家 千葉中央区店","〒260-0825 千葉県千葉市中央区村田町893-210-1",35.55182,140.125248,"ＪＲ内房線","浜野駅","11",800,"千葉県",0,NA
"a155006","麺場 田所商店 松戸六高台店","〒270-2203 千葉県松戸市六高台1-84",35.794117,139.985616,"新京成線","元山駅","13",900,"千葉県",0,NA
"gdv6135","ラーメン山岡家 野田店","〒278-0021 千葉県野田市堤根7-1",35.93753,139.890179,"東武野田線","梅郷駅","車5",800,"千葉県",0,NA
"gdv6134","ラーメン山岡家 君津店","〒299-1162 千葉県君津市南子安6-24-5",35.32476,139.924597,"ＪＲ内房線","君津駅","車12",800,"千葉県",0,NA
"a105100","家庭料理 章","〒274-0825 千葉県船橋市前原西2-24-5",35.693753,140.024512,"ＪＲ総武線","津田沼駅","7",2500,"千葉県",0,NA
"gf4m607","麺屋 ことぶき ユニモちはら台店","〒290-0143 千葉県市原市ちはら台西3-4 ユニモちはら台2F",35.528018,140.171717,"京成千原線","ちはら台駅","7",800,"千葉県",0,NA
"gdv6142","ラーメン山岡家 千葉佐倉店","〒285-0000 千葉県佐倉市寺崎特定土地区画整理地内12街区3-2",35.713633,140.219178,"ＪＲ","佐倉駅","13",800,"千葉県",0,NA
"e102703","麺場 田所商店 成田店","〒286-0013 千葉県成田市美郷台1-11-2",35.791017,140.309469,"ＪＲ成田線","成田駅","車10",1000,"千葉県",0,NA
"gfzp867","TOKYO豚骨BASE MADE by 一風堂","〒282-0004 千葉県成田市古込 成田国際空港第2ターミナル4F",35.773585,140.388305,"ＪＲ成田線","空港第2ビル駅","5",1200,"千葉県",0,NA
"gf4m605","麺屋 ことぶき 千葉店","〒260-0013 千葉県千葉市中央区中央1-2-11",35.61083,140.121861,"ＪＲ","千葉駅","5",800,"千葉県",0,NA
"gdv6137","ラーメン山岡家 東千葉店","〒260-0041 千葉県千葉市中央区東千葉3-14-25",35.626898,140.126664,"京葉道路","穴川I.C.","車5",800,"千葉県",0,NA
"gfzp868","T’s たんたん","〒282-0004 千葉県成田市古込 成田国際空港第2ターミナル4F",35.773585,140.388305,"ＪＲ成田線","空港第2ビル駅","5",1500,"千葉県",0,NA
"gdv6136","ラーメン山岡家 八千代店","〒276-0008 千葉県八千代市神久保150-1",35.771347,140.095101,"北総鉄道北総線","小室駅","車7",800,"千葉県",1,3.5
"a446412","ラーメン 嘉祥","〒273-0031 千葉県船橋市西船4-29-9",35.707613,139.960581,"ＪＲ","西船橋駅","1",800,"千葉県",0,NA
"gbzs600","小料理 樹林","〒278-0037 千葉県野田市野田125",35.942546,139.87072,"東武野田線（東武アーバンパークライン）","野田市駅","1",3000,"千葉県",0,NA
"a155007","麺場 田所商店 松戸二十世紀が丘店","〒271-0086 千葉県松戸市二十世紀が丘萩町232",35.768729,139.906624,"北総鉄道北総線","北国分駅","12",900,"千葉県",0,NA
"e493256","兎に角 柏高島屋ステーションモール店","〒277-8550 千葉県柏市末広町1-1 柏高島屋ステーションモール新館10F",35.862175,139.969667,"ＪＲ常磐線","柏駅","1",1000,"千葉県",0,NA
"gf0u503","神豚","〒276-0008 千葉県八千代市神久保75-14",35.773128,140.091996,"東葉高速線","八千代緑が丘駅","車10",900,"千葉県",0,NA
"gdv6129","ラーメン山岡家 柏店","〒277-0871 千葉県柏市若柴143-1",35.893727,139.958406,"つくばエクスプレス","柏の葉キャンパス駅","車3",800,"千葉県",0,NA
"gfzp801","2サテ アビオン 成田空港第1ターミナル店","〒282-0004 千葉県成田市古込成田国際空港 第1ターミナル3F",35.760626,140.38534,"ＪＲ成田線","成田空港駅","10",1500,"千葉県",0,NA
"gdv6138","ラーメン山岡家 成田飯仲店","〒286-0046 千葉県成田市飯仲11",35.757301,140.302561,"京成本線","公津の杜駅","11",800,"千葉県",0,NA
"gbec500","麺屋こうじ","〒277-0852 千葉県柏市旭町1-4-15",35.862399,139.96814,"東武野田線（東武アーバンパークライン）","柏駅","3",880,"千葉県",5,3.7
"gge9501","ラーメンの柵柵","〒260-0021 千葉県千葉市中央区新宿1-10-12",35.604465,140.113882,"京成千原線","千葉中央駅","8",1000,"千葉県",0,NA
"e102704","麺場 田所商店 佐倉店","〒285-0926 千葉県印旛郡酒々井町本佐倉8-4",35.720166,140.263719,"ＪＲ成田線","酒々井駅","24",1000,"千葉県",0,NA
"ggsw400","麺ダイニング山壱","〒276-0033 千葉県八千代市八千代台南1-11-9",35.699524,140.089213,"京成本線","八千代台駅","3",1000,"千葉県",0,NA
"e102702","麺場 田所商店 印西千葉ニュータウン店","〒270-1337 千葉県印西市草深1101-24",35.806152,140.139463,"成田スカイアクセス線・北総鉄道北総線","千葉ニュータウン中央駅","車8",900,"千葉県",0,NA
"gdv6141","ラーメン山岡家 千葉鎌ケ谷店","〒273-0107 千葉県鎌ケ谷市新鎌ケ谷3-3-6",35.778141,140.002109,"東武野田線（東武アーバンパークライン）","新鎌ヶ谷駅","8",800,"千葉県",0,NA
"gdv6130","ラーメン山岡家 成田店","〒286-0021 千葉県成田市ウィング土屋68",35.794478,140.319177,"ＪＲ成田線","成田駅","車11",800,"千葉県",0,NA
"ge0f700","香港ダイニング 昇龍苑 勝田台本店","〒276-0023 千葉県八千代市勝田台1-7-1",35.714761,140.125828,"京成本線","勝田台駅","1",1400,"千葉県",0,NA
"gga6200","麺屋 鶏まる","〒290-0081 千葉県市原市五井中央西2-2-4 1F",35.513952,140.089495,"ＪＲ","五井駅","1",1300,"千葉県",0,NA
"gdv6133","ラーメン山岡家 千葉花見川区店","〒262-0007 千葉県千葉市花見川区大日町1379-2",35.684037,140.128208,"東関東自動車道","千葉北I.C.","車4",800,"千葉県",0,NA
"gfzp826","1サテ アビオン 成田空港第1ターミナル店","〒282-0004 千葉県成田市古込成田国際空港 第1ターミナル3F",35.766898,140.384208,"ＪＲ成田線","成田空港駅","10",1500,"千葉県",0,NA
"gfzp805","成葉軒 成田空港第1ターミナル店","〒282-0004 千葉県成田市古込成田国際空港 第1ターミナル5F",35.764219,140.383497,"ＪＲ成田線","成田空港駅","7",2000,"千葉県",0,NA
"ga3y100","磯料理 朴亭","〒299-5226 千葉県勝浦市串浜1248-3",35.151061,140.306791,"ＪＲ外房線","勝浦駅","10",1500,"千葉県",6,3.58333333333333
"gg3j300","中国料理 「芳喜楼（ほうきろう）」","〒294-0014 千葉県館山市山本195-1",34.991896,139.88505,"ＪＲ内房線","館山駅","30",2500,"千葉県",1,5
"a155005","麺場 田所商店 船橋店","〒273-0046 千葉県船橋市上山町1-162-1",35.726496,139.97214,"ＪＲ武蔵野線","船橋法典駅","9",900,"千葉県",0,NA
"gdv6132","ラーメン山岡家 木更津店","〒292-0054 千葉県木更津市長須賀1892",35.395338,139.941744,"ＪＲ久留里線","祇園駅","14",800,"千葉県",0,NA
"gdv6140","ラーメン山岡家 千葉若葉区店","〒264-0021 千葉県千葉市若葉区若松町2094-9",35.637083,140.166747,"千葉都市モノレール","桜木駅","13",800,"千葉県",0,NA
"7684179","居酒屋 花水木","〒290-0266 千葉県市原市海保50-2 ",35.480706,140.077605,"","","",2500,"千葉県",0,NA
"7377103","一蘭 千葉出洲港店","〒260-0023 千葉県千葉市中央区出洲港1-3 ",35.600124,140.115068,"ＪＲ外房線","本千葉駅","徒歩10",800,"千葉県",2,NA
"7248401","わん助 そごう千葉店","〒260-0028 千葉県千葉市中央区新町1000 そごう千葉店B1｢NATURAL MARKET」",35.611317,140.113693,"ＪＲ","千葉駅","徒歩1",800,"千葉県",0,NA
"7436269","こってりらーめん 誉","〒277-0852 千葉県柏市旭町1-7-11 ",35.860397,139.968932,"ＪＲ常磐線","柏駅","徒歩3",800,"千葉県",7,3.35714285714286
"7369057","おま屋","〒288-0055 千葉県銚子市陣屋町4-34 2F",35.730554,140.838956,"銚子電気鉄道線","観音駅","徒歩5",1000,"千葉県",0,NA
"7495352","横浜家系ラーメン 吟家 ～GINYA～ 誉田店","〒266-0005 千葉県千葉市緑区誉田町2-2302 ",35.544514,140.225781,"ＪＲ外房線","誉田駅","徒歩15",1000,"千葉県",2,NA
"7514990","麺小屋 西都賀店","〒264-0026 千葉県千葉市若葉区西都賀1-17-2 ",35.636442,140.14555,"ＪＲ総武本線","都賀駅","徒歩6",999,"千葉県",0,NA
"7544158","拉麺 いさりび","〒273-0005 千葉県船橋市本町7-5-4 ワールドビル1F",35.702692,139.983439,"ＪＲ総武線","船橋駅","徒歩3",1000,"千葉県",0,NA
"7504856","清華","〒270-1176 千葉県我孫子市柴崎台4-5-15 ",35.874666,140.045515,"ＪＲ常磐線","天王台駅","徒歩8",1500,"千葉県",0,NA
"6402141","BBQパーク 九十九里蓮沼（バーベキューパーク九十九里蓮沼）","〒289-1802 千葉県山武市蓮沼ロ2785 ",35.594934,140.508179,"","","",3000,"千葉県",0,NA
"7666909","拉麺いさりび 京成大久保店","〒275-0011 千葉県習志野市大久保3-11-24 ",35.689498,140.049816,"京成本線","京成大久保駅","徒歩5",1000,"千葉県",0,NA
"6211657","豆でっぽう","〒270-1176 千葉県我孫子市柴崎台2-6-21 ",35.874904,140.040771,"JR常磐線","天王台駅","徒歩2",850,"千葉県",0,NA
"5495428","めん処 時代屋","〒264-0002 千葉県千葉市若葉区千城台東1-4-6 102",35.619399,140.191805,"京葉道路","貝塚I.C.","車10",750,"千葉県",0,NA
"7495315","横浜家系ラーメン 吟家 ～GINYA～ 本店","〒266-0026 千葉県千葉市緑区古市場町404-1 ",35.544571,140.149821,"ＪＲ内房線","浜野駅","徒歩24",1000,"千葉県",0,NA
"6183329","翔軼屋","〒271-0092 千葉県松戸市松戸1228-106 ",35.783822,139.901338,"ＪＲ常磐線","松戸駅","徒歩1",1500,"千葉県",0,NA
"7562584","ラーメン北きつね","〒270-0025 千葉県松戸市中和倉222-21 ",35.806411,139.922855,"ＪＲ常磐線","馬橋駅","徒歩14",1000,"千葉県",0,NA
"7495354","横浜家系ラーメン 吟家 ～GINYA～ 実籾店","〒275-0002 千葉県習志野市実籾3-7-5 ",35.681701,140.069337,"京成本線","実籾駅","徒歩7",1000,"千葉県",0,NA
"7513160","みそ街道 炎‐en‐ 千葉みゆき通り店","〒260-0015 千葉県千葉市中央区富士見1-7-7 1F",35.612652,140.118262,"ＪＲ","千葉駅","徒歩7",999,"千葉県",0,NA
"7377090","一蘭 船橋店","〒274-0071 千葉県船橋市習志野1-9-1 ",35.712188,140.056472,"新京成線","北習志野駅","徒歩2",800,"千葉県",0,NA
"7708290","薫風家  横浜家系ラーメン","〒277-0855 千葉県柏市旭町1-4-1 柏プラザホテルアネックスB1F",35.862443,139.969075,"","","",720,"千葉県",0,NA
"5395981","中華料理 五十番","〒274-0063 千葉県船橋市習志野台2-73-11 ",35.724331,140.050154,"新京成線","北習志野駅","徒歩11",1500,"千葉県",2,3
"5026362","福々","〒299-1151 千葉県君津市中野2-31-18 ",35.325599,139.896157,"ＪＲ内房線","君津駅","徒歩10",3000,"千葉県",0,NA
"7514955","麺屋花形","〒277-0084 千葉県柏市新柏4-10-5 ",35.844152,139.97762,"東武野田線（東武アーバンパークライン）","新柏駅","徒歩15",800,"千葉県",0,NA
"5495288","万龍軒 新町店","〒260-0028 千葉県千葉市中央区新町25-12 ",35.609365,140.111265,"ＪＲ総武線","千葉駅","徒歩10",700,"千葉県",0,NA
"7485028","ラーメン 牛そば まるは","〒273-0005 千葉県船橋市本町4-38-22 山口ビル1F",35.698141,139.987284,"京成本線","京成船橋駅","徒歩4",1000,"千葉県",0,NA
"7126360","背脂らーめん宮本 本店","〒286-0033 千葉県成田市花崎町814-5 ",35.776971,140.314853,"京成本線","京成成田駅","徒歩1",1000,"千葉県",0,NA
"7495351","横浜家系ラーメン 吟家 ～GINYA～ 佐倉店","〒285-0051 千葉県佐倉市長熊455-1 ",35.710522,140.256015,"ＪＲ総武本線","南酒々井駅","徒歩27",1000,"千葉県",0,NA
"7495353","横浜家系ラーメン 吟家 ～GINYA～ 八千代店","〒276-0029 千葉県八千代市村上1245 ",35.731101,140.118422,"東葉高速線","村上駅","徒歩15",1000,"千葉県",0,NA
"7157638","らーめん 八幡だんちょうてー","〒272-0023 千葉県市川市南八幡4-7-12 ",35.719594,139.926394,"ＪＲ総武線","本八幡駅","徒歩2",950,"千葉県",0,NA
"7391186","中華一元","〒263-0023 千葉県千葉市稲毛区緑町1-25-8 ",35.625333,140.100443,"ＪＲ総武線","西千葉駅","徒歩10",700,"千葉県",0,NA
"5252162","いこい食堂","〒299-1607 千葉県富津市湊664 ",35.220677,139.872409,"","","",1000,"千葉県",4,3.5
"7649335","佐野ラーメン 麺屋 翔稀","〒277-0812 千葉県柏市花野井738-2 ",35.896908,139.966489,"つくばエクスプレス","柏の葉キャンパス駅","徒歩21",1000,"千葉県",0,NA
"5654591","ラーメン あや","〒260-0013 千葉県千葉市中央区中央2-6-3 ",35.60943,140.122336,"千葉都市モノレール","葭川公園駅","徒歩4",800,"千葉県",0,NA
"7481044","横浜家系ラーメン吟家～GINYA～ 白井店","〒270-1431 千葉県白井市根445-1 ",35.783217,140.046043,"北総鉄道北総線","白井駅","徒歩10",1000,"千葉県",0,NA
"7495355","横浜家系ラーメン 吟家 ～GINYA～ 蘇我店","〒260-0833 千葉県千葉市中央区稲荷町2-1-39 ",35.589681,140.123059,"京成千原線","千葉寺駅","徒歩16",1000,"千葉県",0,NA
"6410664","拉麺帝王","〒299-1161 千葉県君津市北子安6-17-8 ",35.331433,139.923014,"","","",800,"千葉県",0,NA
"7470080","中華そば モンド","〒292-0014 千葉県木更津市高柳2-3-16 ",35.410926,139.941046,"","","",800,"千葉県",0,NA
"7495347","横浜家系ラーメン 吟家 ～GINYA～ 富里店","〒286-0221 千葉県富里市七栄525-84 ",35.745434,140.314252,"京成本線","公津の杜駅","車9",1000,"千葉県",0,NA
"6299753","ひむろ 我孫子店","〒270-1151 千葉県我孫子市本町2-3-15 市川ビル1F",35.871446,140.011841,"JR常磐線","我孫子駅","徒歩3",800,"千葉県",4,4.25
"7350185","旬鮮華 なか家","〒272-0133 千葉県市川市行徳駅前3-15-12 ",35.679811,139.920498,"","","",2000,"千葉県",0,NA
"7643622","麺屋 要","〒299-0111 千葉県市原市姉崎527-8 ",35.478844,140.043242,"ＪＲ内房線","姉ケ崎駅","徒歩2",900,"千葉県",0,NA
"7495345","横浜家系ラーメン 吟家 ～GINYA～ 茂原店","〒297-0012 千葉県茂原市六ツ野4010-3 ",35.431283,140.324408,"ＪＲ外房線","茂原駅","徒歩29",1000,"千葉県",0,NA
"7126362","背脂らーめん宮本 八街店","〒289-1104 千葉県八街市文違字文違野301-3097 ",35.677968,140.317144,"ＪＲ総武本線","八街駅","徒歩10",1000,"千葉県",0,NA
"7238271","中華料理 長江","〒271-0092 千葉県松戸市松戸1740 ",35.779525,139.896842,"ＪＲ常磐線","松戸駅","徒歩10",1000,"千葉県",0,NA
"5251968","向藤","〒289-2511 千葉県旭市イ1709-1 ",35.720258,140.66222,"ＪＲ総武本線","旭駅","徒歩10",1000,"千葉県",0,NA
"7284068","ボウボウラーメン とみ","〒286-0211 千葉県富里市御料1005-4 千曲ビル1F",35.728964,140.348677,"京成本線","公津の杜駅","車20",850,"千葉県",0,NA
"7377110","一蘭 柏店","〒277-0853 千葉県柏市吉野沢1-13 ",35.852304,139.959222,"ＪＲ常磐線","柏駅","徒歩16",800,"千葉県",0,NA
"7238420","中華飯店 福新","〒271-0092 千葉県松戸市松戸1017-1 1F",35.778711,139.904475,"ＪＲ常磐線","松戸駅","徒歩10",1000,"千葉県",0,NA
"7495346","横浜家系ラーメン 吟家 ～GINYA～ 花見川店","〒262-0013 千葉県千葉市花見川区犢橋町1512-1 ",35.672651,140.098961,"京成本線","実籾駅","車11",1000,"千葉県",2,NA
"7498516","マルキン本舗 野田店","〒278-0004 千葉県野田市横内42-14 ",35.950101,139.879916,"東武野田線（東武アーバンパークライン）","野田市駅","車7",1000,"千葉県",0,NA
"7495350","横浜家系ラーメン 吟家 ～GINYA～ 旭店","〒289-2504 千葉県旭市ニ5886-10 ",35.723994,140.626857,"ＪＲ総武本線","干潟駅","徒歩27",1000,"千葉県",0,NA
"7495348","横浜家系ラーメン 吟家 ～GINYA～ 木更津店","〒292-0806 千葉県木更津市請西東7-12 ",35.362391,139.947596,"ＪＲ久留里線","祇園駅","車12",1000,"千葉県",0,NA
"7735410","宴会貸切×中華そば 「一休」（いっきゅう）","〒290-0207 千葉県市原市海士有木574-1 ",35.47271,140.123264,"小湊鉄道小湊鉄道線","上総三又駅","徒歩11",850,"千葉県",0,NA
"6929903","逸品香 一宮店","〒299-4314 千葉県長生郡一宮町新地甲2511-2 ",35.386032,140.386496,"九十九里有料道路","一宮料金所","車1",900,"千葉県",0,NA
"7386683","みんなのらぁめんバンブー","〒289-2241 千葉県香取郡多古町多古3893-1 ",35.737668,140.462028,"","","",1000,"千葉県",0,NA
"7512185","The Noodles ＆ Saloon Kiriya","〒270-0121 千葉県流山市西初石4-475-1 ",35.881864,139.916456,"","","",1000,"千葉県",0,NA
"6266238","らあめん clover","〒286-0033 千葉県成田市花崎町766-2 ",35.778301,140.320236,"JR成田線","成田駅","徒歩7",780,"千葉県",0,NA
"5808728","麺たま","〒286-0029 千葉県成田市ウイング土屋173 洛陽堂ガーデン2F",35.793802,140.323476,"JR成田線","成田駅","バス10",850,"千葉県",1,3
"7155780","中華料理 コバ","〒278-0037 千葉県野田市野田792-1 イガラシビル1F",35.945918,139.861554,"東武アーバンパークライン線","愛宕駅","徒歩1",2500,"千葉県",0,NA
"5495290","元祖札幌や 千葉店","〒260-0015 千葉県千葉市中央区富士見2-4-19 ",35.611461,140.115948,"京成千葉線","京成千葉駅","徒歩3",999,"千葉県",0,NA
"6372864","とら食堂 松戸分店","〒270-2221 千葉県松戸市紙敷1-8-6 ",35.776226,139.957831,"北総線","松飛台駅","徒歩1",780,"千葉県",3,4
"7485018","三代目らーめん処 まるは 極 ～KIWAMI～ 船橋店","〒273-0005 千葉県船橋市本町1-32-3 ",35.700147,139.984793,"京成本線","京成船橋駅","徒歩1",1000,"千葉県",2,4.75
"7216750","らーめん大地 宮野木店","〒263-0054 千葉県千葉市稲毛区宮野木町1849-69 ",35.660314,140.103994,"ＪＲ総武線","稲毛駅","車5",750,"千葉県",0,NA
"5137959","居酒屋 屋久島","〒279-0002 千葉県浦安市北栄1-2-37 伝次郎ビル1F",35.664667,139.896717,"東西線"," ","徒歩4",3000,"千葉県",0,NA
"7495344","横浜家系ラーメン 吟家 ～GINYA～ 姉崎店","〒290-0266 千葉県市原市海保1994-8 ",35.478822,140.065522,"ＪＲ内房線","姉ケ崎駅","車8",1000,"千葉県",0,NA
"7485026","五代目らーめん処 まるは商店 船橋高根木戸店","〒274-0065 千葉県船橋市高根台6-43-14 ",35.728377,140.036694,"新京成線","高根木戸駅","徒歩5",1000,"千葉県",0,NA
"7484568","旭川ラーメン 好","〒274-0825 千葉県船橋市前原西2-25-7 ",35.694142,140.024926,"","","",800,"千葉県",2,3
"7377125","一蘭 千葉店（C‐one内）","〒260-0015 千葉県千葉市中央区富士見2-24-1 ",35.609197,140.116944,"ＪＲ","千葉駅","徒歩5",800,"千葉県",1,3
"7511674","房総式ラーメン JINRIKISEN","〒275-0011 千葉県習志野市大久保1-16-18 プラザグレミオ 1F",35.689056,140.04907,"","","",900,"千葉県",0,NA
"7485016","二代目らーめん処 まるは旬 SHUN 市原店","〒290-0057 千葉県市原市五井金杉1-7 ",35.523299,140.095728,"ＪＲ","五井駅","徒歩19",1000,"千葉県",0,NA
"7630301","旭川味噌ラーメン ばんから 武石店","〒262-0031 千葉県千葉市花見川区武石町1-508-4 ",35.667307,140.063089,"ＪＲ総武線","幕張駅","徒歩13",1000,"千葉県",2,NA
"7485025","海老そば まるは 船橋店","〒273-0005 千葉県船橋市本町1-10-7 ",35.698464,139.985073,"京成本線","京成船橋駅","徒歩4",800,"千葉県",1,3.5
"7485027","六代目らーめん処 まるは 極 ～KIWAMI～ 西船橋店","〒273-0031 千葉県船橋市西船6-8-37 ",35.714687,139.955505,"京成本線","東中山駅","徒歩4",800,"千葉県",0,NA
"7513146","みそ街道 四街道本店","〒284-0005 千葉県四街道市四街道1-4-8 Aビル1F",35.662743,140.163341,"ＪＲ総武本線","四街道駅","徒歩2",999,"千葉県",0,NA
"7504747","ファミリーチューカなかむら","〒270-1143 千葉県我孫子市天王台1-20-9 1F",35.871094,140.040883,"ＪＲ常磐線","天王台駅","徒歩2",2500,"千葉県",0,NA
"7639851","味噌屋八玄","〒290-0051 千葉県市原市君塚2-17-1 ",35.520995,140.107699,"","","",900,"千葉県",0,NA
"6155332","華苑","〒271-0077 千葉県松戸市根本57-1 ",35.787495,139.897314,"JR常磐線","松戸駅","徒歩6",2000,"千葉県",0,NA
"6958552","らーめん トウマ","〒262-0033 千葉県千葉市花見川区幕張本郷6-25-18 ",35.674006,140.044205,"ＪＲ総武線","幕張本郷駅","徒歩3",800,"千葉県",0,NA
"7286767","ラーメン めん丸 八千代台店","〒276-0031 千葉県八千代市八千代台北7-1-2 ",35.703985,140.087802,"京成本線","八千代台駅","徒歩6",900,"千葉県",0,NA
"7147982","ラーメン ちば宝来","〒299-0117 千葉県市原市青葉台6-1-1 ",35.467467,140.05279,"ＪＲ内房線","姉ケ崎駅","車10",1000,"千葉県",0,NA
"5495438","炭一ラーメン","〒266-0031 千葉県千葉市緑区おゆみ野6-27-4 ",35.551297,140.189672,"ＪＲ外房線","鎌取駅","徒歩25",NA,"千葉県",2,3.75
"6155331","麺屋てつ","〒272-0034 千葉県市川市市川3-27-24 ",35.736927,139.902664,"京成本線","国府台駅","徒歩11",NA,"千葉県",0,NA
"7269645","麺や隆","〒272-0004 千葉県市川市原木2526-6 ホームセンターコーナン市川原木店1F",35.695219,139.953547,"東京メトロ東西線","原木中山駅","徒歩20",NA,"千葉県",0,NA
"7708579","浦安 幸来","〒279-0002 千葉県浦安市北栄1-1-4 チューナスカノウ1F",35.664485,139.896142,"東京メトロ東西線","浦安（千葉県）駅","徒歩4",NA,"千葉県",0,NA
"6165018","中村や","〒289-2714 千葉県旭市三川セ2688-3 ",35.719442,140.697347,"JR総武本線（東京-銚子）","飯岡駅","徒歩23",NA,"千葉県",0,NA
"7307715","千葉房総 麺のマルタイ","〒292-0043 千葉県木更津市東太田1-9-30 ",35.37646,139.950596,"JR久留里線","祇園（千葉県）駅","徒歩25",NA,"千葉県",0,NA
"6351664","喜多方ラーメン 坂内 蘇我店","〒260-0833 千葉県千葉市中央区稲荷町3-1-10 ",35.585946,140.124702,"ＪＲ京葉線","蘇我駅","徒歩12",NA,"千葉県",0,NA
"6094094","らいもん 五井店","〒290-0038 千葉県市原市五井西1-13-11 ",35.514309,140.071586,"小湊鉄道","五井駅","徒歩26",NA,"千葉県",1,5
"5025466","幸楽苑 成田店","〒286-0044 千葉県成田市不動ヶ岡2160-11 ",35.773289,140.315735,"京成本線","京成成田駅","徒歩7",NA,"千葉県",0,NA
"5910971","竹岡屋","〒292-0816 千葉県木更津市下烏田899-1 ",35.357106,139.921258,"","","",NA,"千葉県",0,NA
"5026384","ラーメンみのわ","〒299-1173 千葉県君津市外箕輪2-1-7 ",35.322038,139.922159,"","","",NA,"千葉県",0,NA
"5207439","ジャンボラーメン","〒289-0103 千葉県成田市高418-1 ",35.883881,140.376814,"","","",NA,"千葉県",0,NA
"6273610","北海道ラーメン ロッキー子龍","〒266-0032 千葉県千葉市緑区おゆみ野中央8-15-4 ",35.548797,140.186775,"ＪＲ外房線","鎌取駅","徒歩30",NA,"千葉県",3,3
"6752091","らあめん花月嵐 四街道店","〒284-0027 千葉県四街道市栗山1073-4-2 ",35.673041,140.170207,"JR総武本線（東京-銚子）","四街道駅","徒歩18",NA,"千葉県",0,NA
"5024376","よ志乃","〒261-0001 千葉県千葉市美浜区幸町1-18-2 ",35.614665,140.100913,"京成千葉線","西登戸駅","徒歩7",NA,"千葉県",2,NA
"6714964","みそ膳 だるまや原木中山店","〒273-0035 千葉県船橋市本中山7-7-1 メトロセンター内",35.703043,139.94172,"東京メトロ東西線","原木中山駅","徒歩1",NA,"千葉県",0,NA
"7500296","麺屋 咲","〒272-0804 千葉県市川市南大野1-14-7 ",35.741516,139.948257,"JR武蔵野線（府中本町-南船橋）","市川大野駅","徒歩23",NA,"千葉県",0,NA
"6746677","徳福 八幡店","〒272-0021 千葉県市川市八幡2-3-16 ",35.723321,139.928809,"京成本線","京成八幡駅","徒歩1",NA,"千葉県",0,NA
"7266821","鶏そば 朱雀","〒273-0035 千葉県船橋市本中山3-14-21 ",35.713881,139.943572,"JR総武本線（東京-銚子）","下総中山駅","徒歩1",NA,"千葉県",0,NA
"7721404","麺屋 K","〒289-2503 千葉県旭市江ヶ崎1604 ",35.734881,140.64427,"JR総武本線（東京-銚子）","旭（千葉県）駅","徒歩25",NA,"千葉県",0,NA
"6369904","濃厚鶏らーめん 武者道","〒260-0854 千葉県千葉市中央区長洲2-7-19 三藤第3ビル1F",35.600801,140.123295,"千葉都市モノレール１号線","県庁前（千葉県）駅","徒歩5",NA,"千葉県",0,NA
"5495868","らあめん花月嵐 成田国際空港店","〒282-0011 千葉県成田市三里塚字御料牧場1-1 成田国際空港第1旅客ターミナル中央ビル新館5F",35.763978,140.384233,"","","",NA,"千葉県",0,NA
"5026185","ちゃんこらーめん","〒276-0023 千葉県八千代市勝田台4-13-10 101",NA,NA,"京成本線","勝田台駅","徒歩13",NA,"千葉県",0,NA
"7403194","横浜家系ラーメン 横浜道 野田蕃昌店","〒278-0041 千葉県野田市蕃昌257-10 ",35.979704,139.861518,"東武野田線","七光台駅","徒歩19",NA,"千葉県",0,NA
"5137887","方雅","〒299-1757 千葉県富津市押切73 ",35.216949,139.919061,"ＪＲ内房線","上総湊駅","徒歩11",NA,"千葉県",0,NA
"6332965","千葉らぁ麺","〒260-0835 千葉県千葉市中央区川崎町52-7 Ario蘇我　1Fフードコート",35.587497,140.122742,"京成千原線","千葉寺駅","徒歩17",NA,"千葉県",0,NA
"6716069","らーめん壺中","〒260-0015 千葉県千葉市中央区富士見1-7-7 ベルビル3 1F",35.61266,140.118256,"千葉都市モノレール１号線","栄町（千葉県）駅","徒歩1",NA,"千葉県",0,NA
"5495350","ラーメン横丁","〒260-0813 千葉県千葉市中央区生実町2513 ",35.563623,140.15631,"京成千原線","学園前（千葉県）駅","徒歩8",NA,"千葉県",0,NA
"6361605","（麺）並木商事","〒260-0017 千葉県千葉市中央区要町5-1 ",35.615338,140.121031,"ＪＲ総武本線（東京-銚子）","東千葉駅","徒歩3",NA,"千葉県",1,NA
"6998774","らーめん福たけ 袖ヶ浦店","〒299-0245 千葉県袖ケ浦市蔵波台6-5-14 ",35.438779,139.997998,"JR内房線","長浦（千葉県）駅","徒歩21",NA,"千葉県",0,NA
"7311812","麺屋小六","〒260-0835 千葉県千葉市中央区川崎町51-1 ",35.592335,140.118157,"JR外房線","本千葉駅","徒歩16",NA,"千葉県",0,NA
"7219768","武骨家 本八幡店","〒272-0021 千葉県市川市八幡2-6-13 石橋ビル 1F",35.72214,139.927759,"都営新宿線","本八幡（都営線）駅","徒歩2",NA,"千葉県",0,NA
"6287039","成田大勝軒","〒286-0029 千葉県成田市ウイング土屋88 ",35.792412,140.322734,"ＪＲ成田線（佐倉-銚子）","成田駅","徒歩3",NA,"千葉県",0,NA
"7740743","麺屋 どんぶら来 柏店","〒277-0005 千葉県柏市柏3-5-10 長田ビル1F",35.859859,139.975141,"東武野田線","柏駅","徒歩6",NA,"千葉県",0,NA
"6851252","なべとん","〒290-0265 千葉県市原市今富字大作1091-2 館山自動車道市原SA上り",NA,NA,"","","",NA,"千葉県",0,NA
"7382840","麺やうしお","〒297-0037 千葉県茂原市早野2465-11 ",35.417887,140.299262,"JR外房線","茂原駅","徒歩14",NA,"千葉県",0,NA
"7493365","横浜八景楼 アピタ市原FS店","〒299-0101 千葉県市原市青柳北1-1 アピタ市原 2F",NA,NA,"","","",NA,"千葉県",0,NA
"7466147","家系ラーメン王道 いしい","〒260-0825 千葉県千葉市中央区村田町893-116 ",35.548609,140.123436,"JR内房線","浜野駅","徒歩14",NA,"千葉県",0,NA
"6741422","鶏の骨","〒286-0033 千葉県成田市花崎町846-15 ",35.77925,140.31481,"JR成田線（佐倉-銚子）","成田駅","徒歩2",1000,"千葉県",0,NA
"6513264","ラーメン居酒屋 大都会","〒271-0091 千葉県松戸市本町4-9 流鉄ビル B1F",35.784396,139.899429,"新京成電鉄","松戸駅","徒歩1",NA,"千葉県",0,NA
"5910976","ラーメンサンタ","〒299-0243 千葉県袖ケ浦市蔵波24-1 ",35.451181,139.995112,"JR内房線","長浦（千葉県）駅","徒歩2",NA,"千葉県",0,NA
"6911626","雷神 角ふじ","〒260-0822 千葉県千葉市中央区蘇我3-1-10 ",35.569507,140.129623,"ＪＲ京葉線","蘇我駅","徒歩19",NA,"千葉県",0,NA
"5496436","手打ちラーメン さど","〒270-1516 千葉県印旛郡栄町安食2508-13 ",35.831323,140.249725,"JR成田線（我孫子-成田）","安食駅","徒歩10",NA,"千葉県",0,NA
"7365722","中華ソバ 篤々","〒276-0023 千葉県八千代市勝田台1-5-27 ",35.714719,140.124359,"京成本線","勝田台駅","徒歩3",NA,"千葉県",0,NA
"7726871","たいりょうや","〒292-0008 千葉県木更津市中島字高洲4346-22 ",NA,NA,"","","",NA,"千葉県",0,NA
"5496039","オロチョンラーメン","〒290-0081 千葉県市原市五井中央西2-16-2 ",35.51544,140.087873,"小湊鉄道","五井駅","徒歩4",NA,"千葉県",0,NA
"7691028","らーめんコジマル 東金店","〒289-1326 千葉県山武市成東1563-1 ",35.592665,140.396255,"JR東金線","求名駅","徒歩24",NA,"千葉県",0,NA
"5495390","らあめん花月嵐 稲毛店","〒263-0002 千葉県千葉市稲毛区山王町313-1 ",35.659559,140.13968,"JR総武本線（東京-銚子）","四街道駅","徒歩30",NA,"千葉県",0,NA
"5496008","イヨマンテ","〒277-0885 千葉県柏市西原1-22-7 ",NA,NA,"東武野田線","江戸川台駅","徒歩9",NA,"千葉県",0,NA
"7237053","旭川ラーメン 梅光軒","〒260-0028 千葉県千葉市中央区新町1000 千葉そごう10F",35.611471,140.11332,"千葉都市モノレール１号線","千葉駅","徒歩2",NA,"千葉県",0,NA
"5496069","どさん娘 牛久店","〒290-0225 千葉県市原市牛久493-5 ",35.401607,140.134705,"連絡バス（［東京］羽田空港-茂原）","上総牛久駅","徒歩9",NA,"千葉県",0,NA
"5495313","NAGAZUYA","〒260-0854 千葉県千葉市中央区長洲1-24-1 エスカイヤ本千葉第一 1F",35.602162,140.121278,"ＪＲ外房線","本千葉駅","徒歩1",NA,"千葉県",0,NA
"7102964","祭家","〒271-0086 千葉県松戸市二十世紀が丘萩町1-2 美沢レヂデンス",35.771448,139.907817,"京成成田空港線・北総鉄道線","北国分駅","徒歩14",NA,"千葉県",0,NA
"6442354","来来亭 野田みずき店","〒278-0027 千葉県野田市みずき1-12-2 ",NA,NA,"東武野田線","梅郷駅","徒歩12",NA,"千葉県",0,NA
"7734218","背脂とんこつラーメン 山六商店","〒285-0905 千葉県印旛郡酒々井町上岩橋1108-1 ",35.737989,140.274362,"京成本線","京成酒々井駅","徒歩6",NA,"千葉県",0,NA
"7301228","幸楽苑 イオンモール幕張新都心店","〒261-0024 千葉県千葉市美浜区豊砂1-5 ファミリーモール内",35.657136,140.02617,"JR京葉線","海浜幕張駅","徒歩27",NA,"千葉県",0,NA
"5496031","来々","〒299-5271 千葉県勝浦市法花504-1 ",35.169972,140.267078,"","","",NA,"千葉県",0,NA
"7625229","らーめん春樹 イーオンモール船橋店","〒273-0045 千葉県船橋市山手1-1-8 イオンモール船橋1F",35.712595,139.9784,"東武野田線","新船橋駅","徒歩5",NA,"千葉県",0,NA
"7751488","天下一品 柏店","〒277-0853 千葉県柏市吉野沢2-10 ",35.853151,139.959884,"","","",NA,"千葉県",0,NA
"5898770","らーめん 桃太郎","〒287-0003 千葉県香取市佐原イ3981-2 ",35.895722,140.506998,"JR成田線（佐倉-銚子）","佐原駅","徒歩23",NA,"千葉県",0,NA
"7426282","麺場五代目","〒276-0020 千葉県八千代市勝田台北2-1-16 ",35.717557,140.123757,"東葉高速線","東葉勝田台駅","徒歩3",NA,"千葉県",0,NA
"7308156","ラーメンみゆき 410号店","〒292-1179 千葉県君津市豊英93-3 ",35.198382,140.020606,"","","",NA,"千葉県",0,NA
"5495468","くるまやラーメン 銚子新生店","〒288-0056 千葉県銚子市新生町1-50-10 ",35.732561,140.83736,"銚子電気鉄道","観音駅","徒歩7",NA,"千葉県",0,NA
"7603705","紀州清流坦々麺 シャポー船橋店","〒273-0005 千葉県船橋市本町7-1-1 4F",35.701447,139.986038,"東武野田線","船橋駅","徒歩1",NA,"千葉県",0,NA
"5808734","浜屋","〒270-1166 千葉県我孫子市我孫子4-4-1 ",35.874423,140.009838,"JR常磐線","我孫子（千葉県）駅","徒歩3",NA,"千葉県",2,3.25
"5496076","みちのくラーメン","〒299-0111 千葉県市原市姉崎2406-5 ",35.475935,140.051628,"JR内房線","姉ヶ崎駅","徒歩14",NA,"千葉県",0,NA
"7691024","油そば専門店 歌志軒 イオン市川妙典店","〒272-0111 千葉県市川市妙典5-3-1 イオン市川妙典店 フードコート内",35.693044,139.927932,"東京メトロ東西線","妙典駅","徒歩4",NA,"千葉県",0,NA
"6342996","らぁ麺 家康","〒289-2147 千葉県匝瑳市飯倉279-10 ",35.683591,140.517741,"JR総武本線（東京-銚子）","飯倉駅","徒歩8",NA,"千葉県",0,NA
"5496012","ラーメンショップ","〒277-0084 千葉県柏市新柏4-7-22 ",35.843164,139.975631,"東武野田線","新柏駅","徒歩13",NA,"千葉県",0,NA
"5495695","一番軒","〒270-0034 千葉県松戸市新松戸3-420-2 ",35.821615,139.914198,"流鉄流山線","幸谷駅","徒歩12",NA,"千葉県",0,NA
"7455682","山勝 角ふじ 総本店","〒270-0034 千葉県松戸市新松戸2-22 TSビル 1F",35.824737,139.920608,"JR常磐線","新松戸駅","徒歩2",NA,"千葉県",0,NA
"5495552","赤坂味一","〒273-0011 千葉県船橋市湊町2-2-19 ",35.695797,139.983933,"京成本線","京成船橋駅","徒歩7",NA,"千葉県",2,4.5
"5495461","ラーメン亭よ志乃 幕張店","〒261-0021 千葉県千葉市美浜区ひび野2-4 ",35.647768,140.040411,"ＪＲ京葉線","海浜幕張駅","徒歩3",NA,"千葉県",0,NA
"6742309","大勝軒 てつ","〒277-0931 千葉県柏市藤ケ谷新田21 ",35.824031,140.020389,"","","",NA,"千葉県",0,NA
"5495431","ラーメンショップ みつわ台店","〒264-0036 千葉県千葉市若葉区殿台町397-7 ",35.634344,140.127062,"千葉都市モノレール２号線","みつわ台駅","徒歩14",NA,"千葉県",0,NA
"5495361","横浜家系千種家","〒262-0012 千葉県千葉市花見川区千種町77-10 ",35.6796,140.109032,"","","",NA,"千葉県",0,NA
"5603508","幸楽苑 我孫子店","〒270-1145 千葉県我孫子市高野山596-1 ",35.868007,140.030139,"JR常磐線","天王台駅","徒歩17",NA,"千葉県",0,NA
"5137677","龍江","〒273-0131 千葉県鎌ケ谷市軽井沢1986-4 ",35.786013,140.015555,"京成成田空港線・北総鉄道線","西白井駅","徒歩21",1000,"千葉県",0,NA
"6277492","珍來 柏西口店","〒277-0852 千葉県柏市旭町1-10-3 ",35.862134,139.968725,"東武野田線","柏駅","徒歩2",NA,"千葉県",0,NA
"5495635","華の蔵 館山店","〒294-0054 千葉県館山市湊37-1 ",35.006088,139.871318,"JR内房線","館山駅","徒歩23",NA,"千葉県",0,NA
"6183325","コタン","〒273-0003 千葉県船橋市宮本1-21-8 101",35.697067,139.991805,"京成本線","大神宮下駅","徒歩20",NA,"千葉県",0,NA
"7353548","麺処直久 モラージュ柏店","〒277-0837 千葉県柏市大山台2-3 モラージュ柏 1F",35.88219,139.969338,"つくばエクスプレス","柏の葉キャンパス駅","徒歩29",NA,"千葉県",0,NA
"7724827","煮干 らー麺 カネショウ 新検見川","〒262-0025 千葉県千葉市花見川区花園2-10-14 ",35.653746,140.071655,"JR総武本線（東京-銚子）","新検見川駅","徒歩4",NA,"千葉県",0,NA
"6514599","ニューラーメンショップ 南大野店","〒272-0804 千葉県市川市南大野2-2-2 ",35.743586,139.954881,"JR武蔵野線（府中本町-南船橋）","市川大野駅","徒歩18",NA,"千葉県",0,NA
"7691097","中華そば 金ちゃん ビヨンド店","〒276-0023 千葉県八千代市勝田台1-7-1 京成サンコーポD棟 1F",35.714766,140.125843,"京成本線","勝田台駅","徒歩1",NA,"千葉県",0,NA
"5496275","ラーメン街道","〒284-0003 千葉県四街道市鹿渡798-18 ",35.666981,140.171952,"JR総武本線（東京-銚子）","四街道駅","徒歩10",NA,"千葉県",0,NA
"5495381","幸楽苑 千葉園生店","〒263-0051 千葉県千葉市稲毛区園生町848-1 ",35.644445,140.103134,"千葉都市モノレール2号線","穴川（千葉県）駅","徒歩14",NA,"千葉県",0,NA
"6717501","ラーメンショップ 八街店","〒289-1103 千葉県八街市八街に36-8 ",35.660697,140.349434,"","","",NA,"千葉県",0,NA
"5496103","民芸風らーめん いなほ","〒270-0113 千葉県流山市駒木台210 ",35.888411,139.933688,"東武野田線","初石駅","徒歩25",NA,"千葉県",0,NA
"5496011","ラーメン 信義","〒277-0034 千葉県柏市藤心3-3-14 ",35.82455,139.985645,"","","",NA,"千葉県",0,NA
"5495654","栄楽","〒292-0814 千葉県木更津市八幡台3-1-37 ",35.34212,139.951378,"","","",NA,"千葉県",0,NA
"7272378","麺酒場 凛々亭","〒279-0004 千葉県浦安市猫実5-1-51 内銀ビル1F",35.66321,139.89162,"東京メトロ東西線","浦安（千葉県）駅","徒歩4",NA,"千葉県",0,NA
"7759630","神道家","〒278-0022 千葉県野田市山崎2166-2 ",NA,NA,"","","",NA,"千葉県",0,NA
"6911665","蔵出し味噌 麺場 芝山商店","〒274-0816 千葉県船橋市芝山6-60-3 ",35.725504,140.028509,"新京成電鉄","高根木戸駅","徒歩7",NA,"千葉県",1,4
"6208505","麺屋 空海 海浜幕張店","〒261-0021 千葉県千葉市美浜区ひび野1-9 スーク海浜幕張1F",35.648993,140.043186,"JR京葉線","海浜幕張駅","徒歩2",NA,"千葉県",0,NA
"6131647","ラーメンばんだい","〒261-0002 千葉県千葉市美浜区新港32-6 ミハマ・ニューポート・リゾート",35.621075,140.08655,"ＪＲ京葉線","稲毛海岸駅","徒歩24",NA,"千葉県",0,NA
"6168783","らーめん神月","〒264-0012 千葉県千葉市若葉区坂月町287 ",35.60939,140.182373,"千葉都市モノレール２号線","千城台駅","徒歩23",NA,"千葉県",0,NA
"0138041","麺小屋 長沼店","〒263-0005 千葉県千葉市稲毛区長沼町95 ",35.665524,140.119279,"","","",NA,"千葉県",0,NA
"5496079","屋台屋","〒272-0021 千葉県市川市八幡北町2-6-19 ",NA,NA,"","","",NA,"千葉県",0,NA
"5495938","幸楽苑 幕張インター店","〒275-0014 千葉県習志野市鷺沼3-17-22 ",35.672154,140.030572,"京成千葉線","京成幕張本郷駅","徒歩16",NA,"千葉県",0,NA
"7734236","七福","〒278-0041 千葉県野田市蕃昌57 ",35.980556,139.857299,"東武野田線","七光台駅","徒歩18",NA,"千葉県",0,NA
"7267157","鶏白湯soba＆水炊きのお店 轍","〒299-4332 千葉県長生郡長生村金田3144 ",35.38469,140.356642,"ＪＲ外房線","上総一ノ宮駅","徒歩20",NA,"千葉県",0,NA
"7716592","ラーメンショップ 椿 酒々井SP前店","〒285-0913 千葉県印旛郡酒々井町墨887-1 ",35.70771,140.285549,"JR総武本線（東京-銚子）","南酒々井駅","徒歩26",NA,"千葉県",0,NA
"5496472","一番ラーメン がんこや","〒297-0206 千葉県長生郡長柄町山根2013-43 ",35.452903,140.218993,"","","",NA,"千葉県",0,NA
"7061533","魁力屋 白井店","〒270-1404 千葉県白井市折立480-1 ",35.808309,140.038338,"","","",NA,"千葉県",0,NA
"7648677","らあめん花月嵐 行徳店","〒272-0133 千葉県市川市行徳駅前3-7-15 ",35.680195,139.917892,"東京メトロ東西線","行徳駅","徒歩5",NA,"千葉県",0,NA
"6165014","濃厚らーめんガツリ","〒285-0921 千葉県印旛郡酒々井町中川119 ",35.736901,140.273893,"","","",NA,"千葉県",0,NA
"5825238","しあわせラーメン金の糸","〒283-0005 千葉県東金市田間1296-1 ",35.577141,140.381679,"JR東金線","求名駅","徒歩19",NA,"千葉県",1,3.5
"7661604","けもの道","〒284-0008 千葉県四街道市鹿放ケ丘46-28 ",35.672541,140.141224,"","","",NA,"千葉県",0,NA
"5496158","らーめん矢","〒276-0007 千葉県八千代市桑橋748-1 ",35.752569,140.084867,"","","",NA,"千葉県",0,NA
"5024951","大受","〒294-0014 千葉県館山市山本190-2 ",34.992332,139.885553,"","","",NA,"千葉県",0,NA
"5496169","内味喜","〒270-1165 千葉県我孫子市並木5-1-8 ",35.873714,140.017009,"JR常磐線","我孫子（千葉県）駅","徒歩7",NA,"千葉県",0,NA
"7701223","台湾料理 味華","〒299-0261 千葉県袖ケ浦市福王台3-12-7 ",35.428377,139.964257,"JR内房線","袖ヶ浦駅","徒歩11",NA,"千葉県",0,NA
"7129322","てっぱつ屋 佐野店","〒299-5206 千葉県勝浦市佐野283-2 ",35.226388,140.262262,"","","",NA,"千葉県",0,NA
"5496185","らーめんタロー 小湊店","〒299-5502 千葉県鴨川市内浦1906 ",35.127347,140.193119,"JR外房線","安房小湊駅","徒歩4",NA,"千葉県",0,NA
"6436772","ラーメン横綱 柏店","〒277-0835 千葉県柏市松ケ崎1155-2 ",35.880079,139.96628,"つくばエクスプレス","柏の葉キャンパス駅","徒歩27",NA,"千葉県",1,4
"6282644","杉田家 千葉店","〒260-0007 千葉県千葉市中央区祐光4-17-7 ",35.618957,140.131477,"ＪＲ総武本線（東京-銚子）","東千葉駅","徒歩13",1000,"千葉県",1,3
"7188243","煮干し中華そば つけ麺 海猫","〒289-2511 千葉県旭市イ2826-1 ",35.726413,140.663716,"JR総武本線（東京-銚子）","旭（千葉県）駅","徒歩14",NA,"千葉県",0,NA
"6994657","北平","〒277-0843 千葉県柏市明原4-5-2 ",35.866147,139.960037,"東武野田線","柏駅","徒歩13",NA,"千葉県",0,NA
"6917108","らーめん めん吉 新松戸店","〒270-0034 千葉県松戸市新松戸2-14 ",35.824884,139.920075,"ＪＲ常磐線","新松戸駅","徒歩1",NA,"千葉県",0,NA
"5643198","北海道ラーメン 帯広ロッキー 総本店","〒289-1327 千葉県山武市姫島545-1 ",NA,NA,"","","",NA,"千葉県",0,NA
"5822285","ラーメン たかし屋浦安店","〒279-0002 千葉県浦安市北栄1-15-23 金子ビル1F",35.665532,139.894053,"東京メトロ東西線","浦安（千葉県）駅","徒歩1",NA,"千葉県",0,NA
"7721813","らーめん 元気","〒270-1101 千葉県我孫子市布佐3060-12 ",35.851645,140.138917,"JR成田線（我孫子-成田）","布佐駅","徒歩11",NA,"千葉県",0,NA
"6165022","横浜家系らーめん 武蔵家 松戸店","〒271-0092 千葉県松戸市松戸1228-1 松戸ステーションビル1F",35.783824,139.901351,"","","",NA,"千葉県",0,NA
"5495432","麺小屋 おゆみ野店","〒266-0032 千葉県千葉市緑区おゆみ野中央7-1-6 ",35.550569,140.176362,"京成千原線","おゆみ野駅","徒歩16",NA,"千葉県",2,NA
"5496477","ラーメンとん太 大多喜店","〒298-0206 千葉県夷隅郡大多喜町横山字入道橋603-1 ",NA,NA,"","","",NA,"千葉県",0,NA
"5496165","三平","〒270-1151 千葉県我孫子市本町1-4-22 ",35.871784,140.008508,"JR常磐線","我孫子（千葉県）駅","徒歩3",NA,"千葉県",0,NA
"7269272","麺やまだ","〒270-1337 千葉県印西市草深1137 ",35.805221,140.134155,"京成成田空港線・北総鉄道線","千葉ニュータウン中央駅","徒歩25",NA,"千葉県",0,NA
"6400519","福わ家","〒299-0109 千葉県市原市千種2-7-18 ",35.493178,140.055408,"ＪＲ内房線","姉ヶ崎駅","徒歩7",NA,"千葉県",0,NA
"7500960","幸楽苑 銚子店","〒288-0831 千葉県銚子市本城町4-261-1 ",35.733969,140.813345,"銚子電気鉄道","銚子駅","徒歩18",NA,"千葉県",0,NA
"7144462","ラーメン魁力屋 イオンモール木更津店","〒292-0835 千葉県木更津市築地1-4 2Fフードコート内",35.364174,139.909597,"","","",NA,"千葉県",0,NA
"5496380","くるまやラーメン 千葉小見川店","〒289-0305 千葉県香取市分郷60-1 ",35.86314,140.59733,"JR成田線（佐倉-銚子）","小見川駅","徒歩22",NA,"千葉県",0,NA
"7756589","鎌ヶ谷 製麺堂てつ","〒273-0115 千葉県鎌ケ谷市東道野辺3-3-16 ",35.754669,139.998533,"東武野田線","鎌ヶ谷駅","徒歩13",NA,"千葉県",0,NA
"7686942","つけ麺 一頂","〒273-0005 千葉県船橋市本町1-3-1 船橋FACE 1F",35.700775,139.985389,"京成本線","京成船橋駅","徒歩1",NA,"千葉県",0,NA
"5495479","こだわりらーめん ゆきむら亭 銚子店","〒288-0837 千葉県銚子市長塚町3-643-1 ",35.738737,140.799402,"JR成田線（佐倉-銚子）","松岸駅","徒歩5",NA,"千葉県",0,NA
"7210617","ぎやまん亭","〒260-0044 千葉県千葉市中央区松波2-19-5 鎌滝ビル1F",35.623067,140.106912,"JR総武本線（東京-銚子）","西千葉駅","徒歩4",NA,"千葉県",0,NA
"7543670","麺やたけまさ","〒270-1142 千葉県我孫子市泉17-37 ",35.871676,140.029469,"JR常磐線","天王台駅","徒歩15",NA,"千葉県",0,NA
"5495881","珍来かのや","〒285-0855 千葉県佐倉市井野1547-3 ",35.716285,140.127298,"京成本線","勝田台駅","徒歩2",NA,"千葉県",0,NA
"7223615","しんちゃん","〒273-0026 千葉県船橋市山野町41 ",35.704499,139.961493,"東京メトロ東西線","西船橋駅","徒歩6",NA,"千葉県",0,NA
"5495638","くるまやラーメン 館山北条店","〒294-0045 千葉県館山市北条2292 ",35.001019,139.859283,"JR内房線","館山駅","徒歩11",NA,"千葉県",0,NA
"6769565","幸楽 南八幡店","〒272-0023 千葉県市川市南八幡5-2-22 ",35.721771,139.924932,"都営新宿線","本八幡（都営線）駅","徒歩1",NA,"千葉県",0,NA
"7304181","中華そば 鷸","〒297-0023 千葉県茂原市千代田町1-7-3 ",35.427058,140.302587,"JR外房線","茂原駅","徒歩2",NA,"千葉県",0,NA
"7098064","RAMEN EXPRESS 博多一風堂 三井アウトレットパーク木更津店","〒292-0009 千葉県木更津市金田東3-1-1 三井アウトレットパーク木更津内",35.43467,139.935309,"","","",NA,"千葉県",2,3.5
"5894894","らーめん DINING すどらぁ","〒293-0001 千葉県富津市大堀1560-5 ",35.336262,139.863486,"JR内房線","青堀駅","徒歩11",NA,"千葉県",0,NA
"7345158","ラーメン魁力屋 イオンタウンユーカリが丘店","〒285-0850 千葉県佐倉市西ユーカリが丘6-12-3 3Fフードコート内",NA,NA,"山万ユーカリが丘線","地区センター駅","徒歩6",NA,"千葉県",0,NA
"7210240","梅乃家","〒299-1621 千葉県富津市竹岡401 ",NA,NA,"","","",NA,"千葉県",7,3.78571428571429
"6930522","中島亭","〒267-0066 千葉県千葉市緑区あすみが丘8-27-5 ",35.515392,140.268936,"ＪＲ外房線","土気駅","徒歩22",NA,"千葉県",0,NA
"7582880","どさん子ラーメン 八千代台店","〒276-0032 千葉県八千代市八千代台東1-5-3 ",35.699421,140.093066,"京成本線","八千代台駅","徒歩4",NA,"千葉県",0,NA
"5396042","ラーメンの店 味平","〒292-0044 千葉県木更津市太田4-12-28 ",35.37806,139.946605,"","","",NA,"千葉県",0,NA
"7061517","中華そば 瓢","〒272-0035 千葉県市川市新田5-4-20 ",35.730528,139.912893,"京成本線","市川真間駅","徒歩2",NA,"千葉県",0,NA
"7675898","ラーメン億人隊長","〒264-0032 千葉県千葉市若葉区みつわ台4-16-4 ",35.642177,140.134317,"千葉都市モノレール2号線","みつわ台駅","徒歩7",NA,"千葉県",0,NA
"5495947","福よし 新習志野店","〒275-0024 千葉県習志野市茜浜1-1-2 スーパービバホーム新習志野店内",35.676967,140.000344,"JR京葉線","南船橋駅","徒歩11",NA,"千葉県",0,NA
"7715515","一風堂 武石インター店","〒262-0031 千葉県千葉市花見川区武石町1-284-1 ",35.672936,140.066813,"京成本線","実籾駅","徒歩21",NA,"千葉県",0,NA
"5495585","九十九とんこつラーメン 津田沼店","〒274-0825 千葉県船橋市前原西2-21-6 ",35.692971,140.022747,"","","",NA,"千葉県",0,NA
"6183267","麺屋青山 本店","〒286-0201 千葉県富里市日吉台2-19-11 高橋ビル101",35.771262,140.321227,"京成本線","京成成田駅","徒歩12",NA,"千葉県",5,4.125
"5137767","かめちゃん","〒299-1145 千葉県君津市西坂田2-5-10 ",35.337996,139.885286,"JR内房線","君津駅","徒歩15",NA,"千葉県",0,NA
"5495905","ドンパン","〒283-0003 千葉県東金市道庭937-2 ",35.577024,140.389909,"ＪＲ東金線","求名駅","徒歩9",NA,"千葉県",0,NA
"7416688","マルキン本舗 宮野木店","〒262-0015 千葉県千葉市花見川区宮野木台3-1-2 ",35.658668,140.093476,"JR総武本線（東京-銚子）","新検見川駅","徒歩29",NA,"千葉県",0,NA
"5496424","らーめんあすか","〒298-0124 千葉県いすみ市弥正152-1 ",35.284466,140.30707,"いすみ鉄道","国吉駅","徒歩13",NA,"千葉県",0,NA
"6155328","麺屋ぱんどら","〒285-0025 千葉県佐倉市鏑木町1-7-21 ",35.713682,140.224565,"ＪＲ成田線（佐倉-銚子）","佐倉駅","徒歩4",NA,"千葉県",2,3.75
"7619555","どういうわけで","〒271-0091 千葉県松戸市本町1-11 KYS2ビル",35.784138,139.899826,"新京成電鉄","松戸駅","徒歩1",NA,"千葉県",0,NA
"7434242","来来亭 木更津店","〒292-0009 千葉県木更津市金田東6-20-1 ",NA,NA,"","","",NA,"千葉県",0,NA
"6372715","タンメン しょうや","〒285-0836 千葉県佐倉市生谷1217-6 ",35.703763,140.182241,"","","",NA,"千葉県",4,2.5
"6715492","麺や太尊","〒285-0922 千葉県印旛郡酒々井町中央台2-19-17 ",35.731596,140.273196,"JR成田線（佐倉-銚子）","酒々井駅","徒歩3",NA,"千葉県",0,NA
"6514616","幸楽苑 イオンモール津田沼店","〒275-0016 千葉県習志野市津田沼1-23-1 ",35.690485,140.024797,"新京成電鉄","新津田沼駅","徒歩2",NA,"千葉県",0,NA
"7456102","二九八家 いわせ","〒272-0025 千葉県市川市大和田3-23-11 ",35.715188,139.916636,"都営新宿線","本八幡〔新宿線〕駅","徒歩17",NA,"千葉県",0,NA
"7500751","吟家 茂原バイパス店","〒299-4113 千葉県茂原市法目787-4 ",35.479728,140.312078,"JR外房線","本納駅","徒歩8",NA,"千葉県",0,NA
"5496398","中華．村上","〒289-1806 千葉県山武市蓮沼ハ4873-2 ",35.603674,140.495202,"","","",NA,"千葉県",0,NA
"7387721","一風堂イクスピアリ店","〒279-0031 千葉県浦安市舞浜1-4 イクスピアリ3Fグレイシャス・スクエア",35.634688,139.88518,"","","",NA,"千葉県",0,NA
"7109787","はらだ 富里店","〒286-0221 千葉県富里市七栄532-222 さくらビル1F",35.751733,140.315081,"","","",NA,"千葉県",0,NA
"6460236","やまふじ家","〒290-0059 千葉県市原市白金町1-62 ",35.527706,140.103611,"JR内房線","八幡宿駅","徒歩25",NA,"千葉県",0,NA
"5495880","珍来","〒285-0846 千葉県佐倉市上志津1663 ",35.717636,140.144658,"京成本線","志津駅","徒歩1",NA,"千葉県",1,3
"7647161","横浜家系ラーメン 吟家 印西牧の原店","〒270-2329 千葉県印西市滝野3-1 フォレストモール印西牧の原",NA,NA,"京成成田空港線・北総鉄道線","印西牧の原駅","徒歩16",NA,"千葉県",0,NA
"6165021","ラーメン華","〒277-0863 千葉県柏市豊四季712-65 ",35.850543,139.963384,"ＪＲ常磐線","南柏駅","徒歩1",NA,"千葉県",0,NA
"7372504","かげやん","〒292-0831 千葉県木更津市富士見1-7-3 ",35.38147,139.922687,"JR久留里線","木更津駅","徒歩4",NA,"千葉県",0,NA
"5496227","みそ膳 俵田店","〒292-0455 千葉県君津市俵田1558 ",35.317295,140.058295,"ＪＲ久留里線","俵田駅","徒歩6",NA,"千葉県",0,NA
"5495768","ラーメンファミリー","〒271-0068 千葉県松戸市古ケ崎2-3207 ",35.795962,139.897109,"新京成電鉄","松戸駅","徒歩18",NA,"千葉県",0,NA
"7003145","揚州商人 松戸二十世紀ヶ丘店","〒271-0086 千葉県松戸市二十世紀ヶ丘萩町15-1 ",35.769904,139.908809,"京成成田空港線・北総鉄道線","北国分駅","徒歩12",NA,"千葉県",0,NA
"6587434","らあめん花月嵐 蘇我駅前店","〒260-0842 千葉県千葉市中央区南町2-10-17 ",35.581464,140.132178,"ＪＲ京葉線","蘇我駅","徒歩1",NA,"千葉県",0,NA
"7299157","らー麺 つけ麺 おぐり","〒285-0837 千葉県佐倉市王子台3-26-12 タカタビル1F",35.724461,140.179316,"京成本線","京成臼井駅","徒歩10",NA,"千葉県",0,NA
"7708075","中華そば ほおじろ","〒299-4333 千葉県長生郡長生村七井土1746 ",35.395282,140.335813,"JR外房線","八積駅","徒歩21",NA,"千葉県",0,NA
"7267175","小川商店","〒289-2241 千葉県香取郡多古町多古1854-3 ",35.728957,140.460297,"","","",NA,"千葉県",0,NA
"6361609","屋台とんこつらーめん めん吉 柏駅店","〒277-0852 千葉県柏市旭町1-10-2 1F",35.862237,139.968944,"","","",NA,"千葉県",0,NA
"6369913","らーめん花月嵐 流山おおたかの森店","〒270-0121 千葉県流山市西初石6-182-3 ",35.871954,139.925376,"つくばエクスプレス","流山おおたかの森駅","徒歩1",NA,"千葉県",0,NA
"7066892","濃麺海月","〒260-0017 千葉県千葉市中央区要町1-4 ",35.615807,140.121208,"JR総武本線（東京-銚子）","東千葉駅","徒歩2",NA,"千葉県",0,NA
"7178609","ひぶた","〒277-0862 千葉県柏市篠籠田969-1 今泉コーポ 1F",35.869208,139.954098,"東武野田線","豊四季駅","徒歩21",NA,"千葉県",0,NA
"6361602","勢拉 稲毛店","〒263-0043 千葉県千葉市稲毛区小仲台6-2-1 ",35.638832,140.092971,"JR総武本線（東京-銚子）","稲毛駅","徒歩2",NA,"千葉県",0,NA
"7670859","味噌らーめん比田井","〒285-0846 千葉県佐倉市上志津1622-2 ",35.715702,140.141939,"京成本線","志津駅","徒歩4",NA,"千葉県",0,NA
"7267188","らーめん居酒屋 「ながい」","〒288-0864 千葉県銚子市小船木町1-868-7 ",35.770591,140.75339,"ＪＲ成田線（佐倉-銚子）","椎柴駅","徒歩11",NA,"千葉県",0,NA
"7203065","ベトコンラーメン大昇東金店","〒283-0062 千葉県東金市家徳668-5 ",35.548356,140.396385,"","","",NA,"千葉県",0,NA
"7740704","無尽蔵 BIGHOP印西店","〒270-1335 千葉県印西市原1-2 ビックホップガーデンモール印西2F",NA,NA,"京成成田空港線・北総鉄道線","印西牧の原駅","徒歩14",NA,"千葉県",0,NA
"7740961","RAMEN YAMADA","〒270-0164 千葉県流山市流山おおたかの森西1-14-8 ",35.871605,139.921601,"つくばエクスプレス","流山おおたかの森駅","徒歩6",NA,"千葉県",0,NA
"6165012","ニューラーメンショップ 松尾店","〒289-1512 千葉県山武市松尾町八田30-1 ",35.65559,140.476788,"JR総武本線（東京-銚子）","横芝駅","徒歩21",NA,"千葉県",0,NA
"6273313","つけ麺 秋山","〒286-0824 千葉県成田市野毛平211 ",NA,NA,"","","",NA,"千葉県",0,NA
"6364814","萬作ラーメン","〒299-5107 千葉県夷隅郡御宿町浜2146 ",35.184865,140.354806,"JR外房線","御宿駅","徒歩8",NA,"千葉県",0,NA
"6128127","自家製太打麺 勢拉 西千葉店","〒263-0023 千葉県千葉市稲毛区緑町1-10-10 ",35.6259,140.097849,"京成千葉線","みどり台駅","徒歩2",NA,"千葉県",1,4
"5495843","くるまやラーメン 成田西三里塚店","〒286-0115 千葉県成田市西三里塚1-90 ",35.745758,140.368499,"","","",NA,"千葉県",0,NA
"6270440","富田食堂","〒271-0092 千葉県松戸市松戸1239-1 関根ビル1F",35.783196,139.901512,"新京成電鉄","松戸駅","徒歩2",NA,"千葉県",2,3.5
"7229480","SEA GULL","〒296-0041 千葉県鴨川市東町1464-18 鴨川シーワールド内",35.116002,140.120484,"ＪＲ内房線","安房鴨川駅","徒歩23",NA,"千葉県",0,NA
"7172175","蔵民","〒266-0033 千葉県千葉市緑区おゆみ野南5-37-1 イオンタウンおゆみ野2F",35.544761,140.174934,"京成千原線","おゆみ野駅","徒歩14",NA,"千葉県",0,NA
"5495482","ラーメンとん太 銚子店","〒288-0821 千葉県銚子市小浜町1989 ",35.714153,140.769955,"","","",NA,"千葉県",0,NA
"6925676","鐵 千葉分店","〒260-0013 千葉県千葉市中央区中央3-15-15 三好野ビル 1F",35.608119,140.122133,"千葉都市モノレール１号線","葭川公園駅","徒歩4",NA,"千葉県",0,NA
"5495685","ラーメン つじ久","〒292-0833 千葉県木更津市貝渕3-2-3 ",35.372904,139.925007,"JR久留里線","木更津駅","徒歩14",NA,"千葉県",0,NA
"7540916","麺屋 音","〒277-0852 千葉県柏市旭町2-1-5 金子ビル1F",35.860204,139.968361,"東武野田線","柏駅","徒歩3",NA,"千葉県",0,NA
"7092322","大葉","〒297-0037 千葉県茂原市早野2989 ",35.421267,140.300515,"JR外房線","茂原駅","徒歩9",NA,"千葉県",0,NA
"5496434","とん吉","〒270-2328 千葉県印西市滝399 ",35.815181,140.181039,"","","",NA,"千葉県",0,NA
"7216103","幸楽苑 野田山崎店","〒278-0022 千葉県野田市山崎2636-1 ",NA,NA,"","","",NA,"千葉県",0,NA
"7514200","極煮干し本舗蘇我店","〒260-0835 千葉県千葉市中央区川崎町57-5 ベイフロント蘇我",NA,NA,"","","",NA,"千葉県",0,NA
"5496369","百寿","〒289-2147 千葉県匝瑳市飯倉271-4 ",35.683652,140.518383,"JR総武本線（東京-銚子）","飯倉駅","徒歩7",NA,"千葉県",0,NA
"5496430","麺楽","〒285-0922 千葉県印旛郡酒々井町中央台2-16-21 ",35.729988,140.272371,"JR成田線（佐倉-銚子）","酒々井駅","徒歩5",NA,"千葉県",0,NA
"7734217","千葉タンメン ほむら","〒276-0037 千葉県八千代市高津東1-6-9 ",35.711579,140.089026,"京成本線","八千代台駅","徒歩16",NA,"千葉県",0,NA
"6194619","ニューラーメンショップ 宝田","〒286-0844 千葉県成田市宝田新地421 ",NA,NA,"","","",NA,"千葉県",0,NA
"7615401","珍來四街道店","〒284-0001 千葉県四街道市大日418-7 ",35.670403,140.163458,"JR総武本線（東京-銚子）","四街道駅","徒歩10",NA,"千葉県",0,NA
"5828003","屋台拉麺一’s 稲毛本店","〒263-0043 千葉県千葉市稲毛区小仲台2-3-3 ",35.636696,140.093829,"ＪＲ総武本線（東京-銚子）","稲毛駅","徒歩2",NA,"千葉県",3,3.83333333333333
"7334460","ラーメン松野屋","〒299-5211 千葉県勝浦市松野658-1 ",35.207524,140.269496,"いすみ鉄道","総元駅","徒歩17",NA,"千葉県",0,NA
"6183292","花まるらーめん","〒264-0002 千葉県千葉市若葉区千城台東1-20-3 ",35.623272,140.192457,"千葉都市モノレール２号線","千城台駅","徒歩6",NA,"千葉県",0,NA
"7686415","壱角家 浦安店","〒279-0002 千葉県浦安市北栄1-16-30 ",35.665049,139.894548,"東京メトロ東西線","浦安（千葉県）駅","徒歩2",NA,"千葉県",0,NA
"6453871","横浜ラーメン 武蔵家 富士見店","〒260-0015 千葉県千葉市中央区富士見2-14-6 ",35.609869,140.117903,"千葉都市モノレール１号線","葭川公園駅","徒歩4",NA,"千葉県",0,NA
"7300054","珍来","〒294-0225 千葉県館山市佐野2047-3 ",34.938192,139.84183,"","","",800,"千葉県",5,4.33333333333333
"7685470","ガジュマル","〒264-0026 千葉県千葉市若葉区西都賀4-1-6 ",35.638567,140.151713,"JR総武本線（東京-銚子）","都賀駅","徒歩5",NA,"千葉県",0,NA
"7704357","Waii Wai Ramen 8","〒289-2712 千葉県旭市横根1333-6 ",NA,NA,"","","",NA,"千葉県",0,NA
"6431754","幸楽苑 柏豊四季店","〒277-0863 千葉県柏市豊四季284-1 ",35.863036,139.949132,"東武野田線","豊四季駅","徒歩13",NA,"千葉県",0,NA
"5808727","台方ラーメン","〒286-0003 千葉県成田市台方299 ",35.772049,140.27157,"","","",NA,"千葉県",0,NA
"7298679","風味絶佳 麺屋まるきた商店","〒289-1115 千葉県八街市八街ほ963-2 ",35.654036,140.304677,"JR総武本線（東京-銚子）","八街駅","徒歩24",NA,"千葉県",0,NA
"5496121","麺屋 空","〒270-0163 千葉県流山市南流山6-28-10 ",35.840357,139.897271,"つくばエクスプレス","南流山駅","徒歩10",NA,"千葉県",1,3
"7681121","彰龍","〒274-0806 千葉県船橋市二和西3-12-15 ",35.743476,140.019439,"新京成電鉄","三咲駅","徒歩13",NA,"千葉県",0,NA
"7745891","豚骨イタリアンラーメン 伊太そば","〒275-0002 千葉県習志野市実籾5-8-8 ",35.688117,140.068426,"","","",NA,"千葉県",0,NA
"7330832","旨麺","〒263-0043 千葉県千葉市稲毛区小仲台6-2-7 102",NA,NA,"JR総武本線（東京-銚子）","稲毛駅","徒歩2",NA,"千葉県",0,NA
"6769942","すみよし","〒299-2115 千葉県安房郡鋸南町下佐久間197 ",35.105482,139.841772,"ＪＲ内房線","安房勝山駅","徒歩19",NA,"千葉県",1,3.5
"7524123","吟家 富津店","〒293-0001 千葉県富津市大堀1-17-1 ",35.335568,139.860764,"JR内房線","青堀駅","徒歩10",NA,"千葉県",0,NA
"5828063","屋台らーめん 山崎店","〒278-0022 千葉県野田市山崎2626-3 ",35.919612,139.901326,"東武野田線","運河駅","徒歩9",NA,"千葉県",0,NA
"5495404","ラーメンショップ 仙武","〒263-0022 千葉県千葉市稲毛区弥生町4-35 ",35.627081,140.100654,"京成千葉線","みどり台駅","徒歩6",NA,"千葉県",0,NA
"7690670","焼豚専門 カンブリ屋 イオンモール成田店","〒286-0029 千葉県成田市ウイング土屋24 イオンモール成田 2F フードコート",35.795842,140.317629,"","","",NA,"千葉県",0,NA
"5026005","ラーメン 兼竜","〒290-0535 千葉県市原市朝生原862 ",35.265592,140.158297,"小湊鉄道","養老渓谷駅","徒歩7",NA,"千葉県",0,NA
"5496133","珍來 米本団地前店","〒276-0015 千葉県八千代市米本2163-2 ",35.752453,140.113745,"","","",NA,"千葉県",0,NA
"5713002","千葉家","〒264-0032 千葉県千葉市若葉区みつわ台4-17-22 ",NA,NA,"千葉都市モノレール２号線","みつわ台駅","徒歩9",NA,"千葉県",1,4
"5495916","くるまやラーメン 旭店","〒289-2511 千葉県旭市イ-2085-3 ",NA,NA,"","","",NA,"千葉県",0,NA
"5495690","ラーメン ワンちゃん","〒292-0833 千葉県木更津市貝渕2-9-5 ",35.373985,139.92189,"JR久留里線","木更津駅","徒歩13",NA,"千葉県",0,NA
"6274321","らーめん 木尾田","〒272-0021 千葉県市川市八幡2-12-8 ",35.721218,139.929131,"ＪＲ総武本線（東京-銚子）","本八幡（総武線）駅","徒歩6",NA,"千葉県",0,NA
"6335885","坂広","〒292-0043 千葉県木更津市東太田4-2-9 ",35.374149,139.957082,"JR久留里線","上総清川駅","徒歩30",NA,"千葉県",0,NA
"5495481","ラーメンショップ","〒288-0047 千葉県銚子市若宮町6-9 ",35.732158,140.826191,"銚子電気鉄道","銚子駅","徒歩5",NA,"千葉県",0,NA
"6952311","TOKYO豚骨BASE MADE by 博多一風堂 ペリエ海浜幕張店","〒261-0021 千葉県千葉市美浜区ひび野2-110 JR海浜幕張駅（改札外）　ペリエ海浜幕張内",35.648452,140.042014,"ＪＲ京葉線","海浜幕張駅","徒歩1",NA,"千葉県",2,NA
"6262980","らーめん どてちん3","〒285-0855 千葉県佐倉市井野1491-1 ",35.716463,140.128015,"","","",NA,"千葉県",2,3
"6747161","普賢象","〒286-0221 千葉県富里市七栄523-1 ",35.742621,140.317981,"","","",NA,"千葉県",2,3.75
"5496388","ラーメンとん太 佐原店","〒287-0038 千葉県香取市鳥羽618-3 ",35.85547,140.467583,"","","",NA,"千葉県",0,NA
"5801553","麺屋あじくま 柏インター店","〒277-0805 千葉県柏市大青田808-1 ",35.910925,139.934795,"","","",NA,"千葉県",1,5
"6956966","幸楽苑 ジョイフル本田 千葉ニュータウン店","〒270-1331 千葉県印西市牧の原2-1 ",NA,NA,"","","",NA,"千葉県",0,NA
"7070032","麺diningけいず","〒283-0006 千葉県東金市東新宿20-12 高橋ビル　1F",35.559187,140.370714,"連絡バス（[東京]羽田空港-東金）","東金駅","徒歩10",NA,"千葉県",0,NA
"7582888","札幌ラーメン どさん子 関宿店","〒270-0222 千葉県野田市木間ケ瀬5300-5 ",36.009261,139.83359,"東武野田線（東武アーバンパークライン）","川間駅","徒歩49",NA,"千葉県",0,NA
"5822274","麺屋 紅葉","〒278-0055 千葉県野田市岩名2-7-31 秋山ビル101",35.975898,139.835693,"東武野田線","川間駅","徒歩6",NA,"千葉県",0,NA
"7641518","秀","〒292-0057 千葉県木更津市東中央2-9-5 ",NA,NA,"連絡バス（［東京］羽田空港-木更津）","木更津駅","徒歩5",NA,"千葉県",0,NA
"7274948","蔵の味人","〒276-0032 千葉県八千代市八千代台東1-2-14 和光堂ビル 1F",35.7001,140.091816,"京成本線","八千代台駅","徒歩2",NA,"千葉県",0,NA
"5495424","豊春ラーメン","〒264-0002 千葉県千葉市若葉区千城台東2-32-10 ",35.622156,140.194044,"千葉都市モノレール２号線","千城台駅","徒歩8",NA,"千葉県",0,NA
"7360908","輝宗","〒272-0023 千葉県市川市南八幡4-4-22 グリーンターフ南八幡1F",35.720871,139.925387,"都営新宿線","本八幡（都営線）駅","徒歩1",NA,"千葉県",0,NA
"5495492","くるまやラーメン 妙典店","〒272-0115 千葉県市川市富浜1-1-1 ",35.693441,139.923216,"東京メトロ東西線","妙典駅","徒歩4",NA,"千葉県",1,3
"6454116","ラーメン一代","〒286-0117 千葉県成田市三里塚光ヶ丘1-447 ",35.750893,140.37342,"","","",NA,"千葉県",1,3.5
"5496186","ラーメンとん太 鴨川店","〒296-0001 千葉県鴨川市横渚1486-1 ",35.11203,140.097489,"JR内房線","安房鴨川駅","徒歩10",NA,"千葉県",0,NA
"7456916","麺処 丹治","〒285-0811 千葉県佐倉市表町3-21-5 ",35.711583,140.229873,"JR成田線（佐倉-銚子）","佐倉駅","徒歩6",NA,"千葉県",0,NA
"6131652","山勝角ふじ 南流山店","〒270-0163 千葉県流山市南流山5-14-6 ",35.844067,139.898915,"つくばエクスプレス","南流山駅","徒歩11",NA,"千葉県",1,3.5
"7294560","らーめんつけ麺 山勝軒","〒270-0163 千葉県流山市南流山7-7-12 ",NA,NA,"つくばエクスプレス","南流山駅","徒歩12",NA,"千葉県",0,NA
"5495320","らあめん花月嵐 浜野店","〒260-0824 千葉県千葉市中央区浜野町145-3 ",35.550024,140.139471,"ＪＲ内房線","浜野駅","徒歩10",NA,"千葉県",0,NA
"5496134","手打らーめん太郎","〒276-0032 千葉県八千代市八千代台東1-14-1 八千代プラザ3F",35.701225,140.091443,"京成本線","八千代台駅","徒歩1",NA,"千葉県",0,NA
"5025106","あざみや","〒270-2241 千葉県松戸市松戸新田30 アイビル2F",35.779364,139.916455,"新京成電鉄","上本郷駅","徒歩21",NA,"千葉県",0,NA
"6514654","ラーメン めん丸 匝瑳店","〒289-2148 千葉県匝瑳市飯倉台49-14 ",NA,NA,"JR総武本線（東京-銚子）","飯倉駅","徒歩3",NA,"千葉県",3,NA
"5495637","くるまやラーメン 館山バイパス店","〒294-0054 千葉県館山市湊30 ",35.006747,139.871373,"JR内房線","館山駅","徒歩24",NA,"千葉県",0,NA
"6436773","ラーメン居酒屋 たつみ","〒270-0121 千葉県流山市西初石3-100-21 ",35.883749,139.916859,"東武野田線","初石駅","徒歩1",NA,"千葉県",0,NA
"5712994","横浜ラーメン 末広家","〒260-0843 千葉県千葉市中央区末広1-15-7 ",35.597104,140.124945,"ＪＲ外房線","本千葉駅","徒歩10",NA,"千葉県",1,5
"6994662","ラーメン おおつか","〒292-0212 千葉県木更津市真里107-7-1 ",35.366592,140.059149,"ＪＲ久留里線","馬来田駅","徒歩1",NA,"千葉県",0,NA
"5619343","蔵出し味噌 麺場 喜久屋 蘇我店","〒260-0832 千葉県千葉市中央区寒川町2-200-1 ",35.59354,140.120281,"JR外房線","本千葉駅","徒歩14",NA,"千葉県",0,NA
"5826672","珍来 東金店","〒283-0811 千葉県東金市台方377 ",35.557651,140.344303,"JR東金線","福俵駅","徒歩21",NA,"千葉県",3,3
"5713051","道","〒297-0024 千葉県茂原市八千代2-5-6 ",35.422928,140.296657,"JR外房線","茂原駅","徒歩12",NA,"千葉県",0,NA
"7136744","支那ソバ 小むろ","〒272-0121 千葉県市川市末広1-18-13 SATOMI-4番館",35.683733,139.91812,"東京メトロ東西線","行徳駅","徒歩11",NA,"千葉県",0,NA
"6994656","ラーメン屋","〒293-0043 千葉県富津市岩瀬1097-2 ",35.288537,139.859113,"ＪＲ内房線","大貫駅","徒歩7",NA,"千葉県",0,NA
"6996050","ばりかた屋","〒290-0050 千葉県市原市更級4-3-2 アリオ市原2F",35.508305,140.101481,"小湊鉄道","上総村上駅","徒歩18",NA,"千葉県",0,NA
"7441794","紗々","〒273-0125 千葉県鎌ケ谷市初富本町2-1-1 ",35.772031,139.999104,"新京成電鉄","初富駅","徒歩3",NA,"千葉県",0,NA
"5496254","孫悟空 浦安店","〒279-0004 千葉県浦安市猫実4-6-43 ",35.663685,139.895884,"東京メトロ東西線","浦安（千葉県）駅","徒歩6",NA,"千葉県",0,NA
"7337840","光麺 セブン＆アイHLDGS セブンパーク アリオ柏店","〒277-0922 千葉県柏市大島田950-1 セブンパークアリオ柏3F",35.832336,140.011956,"","","",NA,"千葉県",0,NA
"6744626","横浜ラーメン 武蔵家 千葉本店","〒260-0006 千葉県千葉市中央区道場北町317 ",35.616363,140.132732,"ＪＲ総武本線（東京-銚子）","東千葉駅","徒歩15",NA,"千葉県",0,NA
"5495965","唐麺 太平","〒277-0054 千葉県柏市南増尾2-7-23 ",35.816406,139.968519,"東武野田線","逆井駅","徒歩21",NA,"千葉県",0,NA
"6277363","麺家 弘","〒273-0005 千葉県船橋市本町4-2-22 ",NA,NA,"東武野田線","船橋駅","徒歩26",NA,"千葉県",0,NA
"5495591","なかちゅう","〒273-0865 千葉県船橋市夏見4-7-24 ",35.712987,139.990799,"東葉高速線","東海神駅","徒歩17",NA,"千葉県",0,NA
"5713107","幸楽苑 印西店","〒270-1327 千葉県印西市大森2609-3 ",35.834728,140.143164,"JR成田線（我孫子-成田）","木下駅","徒歩10",NA,"千葉県",0,NA
"6728372","梅軒","〒294-0033 千葉県館山市宮城997-1 ",34.977921,139.836949,"","","",NA,"千葉県",0,NA
"6431940","らあめん花月嵐 妙典駅前店","〒272-0111 千葉県市川市妙典4-1-1 ",35.692466,139.926788,"東京メトロ東西線","妙典駅","徒歩3",NA,"千葉県",0,NA
"6182196","こだわり拉麺 一恭","〒260-0813 千葉県千葉市中央区生実町2524-1 ",35.56315,140.156082,"京成千原線","学園前（千葉県）駅","徒歩7",NA,"千葉県",3,3.5
"5825199","かぶとや","〒262-0023 千葉県千葉市花見川区検見川町3-316-3 ",35.648086,140.072525,"ＪＲ総武本線（東京-銚子）","新検見川駅","徒歩6",NA,"千葉県",0,NA
"7603698","岩地家","〒299-0245 千葉県袖ケ浦市蔵波台2-23-16 ",35.442457,139.992118,"JR内房線","長浦（千葉県）駅","徒歩14",NA,"千葉県",0,NA
"7677723","麺屋こころ 船橋店","〒273-0005 千葉県船橋市本町1-11-27 時田ビル1F",35.699775,139.984319,"京成本線","京成船橋駅","徒歩1",NA,"千葉県",0,NA
"6998763","ラーメン よ志乃","〒260-0031 千葉県千葉市中央区新千葉1-4-2 ウェストリオ2 2F",35.613374,140.111929,"ＪＲ外房線","千葉駅","徒歩1",NA,"千葉県",2,NA
"7263711","煮干中華そば のじじ","〒270-1168 千葉県我孫子市根戸1738-2 ",35.877422,139.993775,"JR常磐線","北柏駅","徒歩7",NA,"千葉県",0,NA
"5396102","幸楽苑 松戸五香店","〒270-2213 千葉県松戸市五香7-3-1 ",35.797272,139.970355,"新京成電鉄","五香駅","徒歩5",NA,"千葉県",0,NA
"5495310","第2らーめん亭よ志乃","〒260-0028 千葉県千葉市中央区新町250-3 ",35.611727,140.114378,"京成千葉線","京成千葉駅","徒歩1",NA,"千葉県",0,NA
"7698248","晋ラーメン","〒288-0055 千葉県銚子市陣屋町1-5 ",35.731489,140.838579,"銚子電気鉄道","観音駅","徒歩5",NA,"千葉県",0,NA
"7255191","幸楽苑 千葉おゆみ野店","〒266-0033 千葉県千葉市緑区おゆみ野南2-22-1-2 ",35.55156,140.169612,"京成千原線","おゆみ野駅","徒歩6",NA,"千葉県",0,NA
"5495568","くるまやラーメン 西船橋店","〒273-0026 千葉県船橋市山野町8-3 ",35.703421,139.964101,"東京メトロ東西線","西船橋駅","徒歩9",NA,"千葉県",0,NA
"7719824","ラーメン神月 赤井町店","〒260-0804 千葉県千葉市中央区赤井町745 ",35.574905,140.169206,"JR外房線","鎌取駅","徒歩21",NA,"千葉県",0,NA
"5396563","ラーメンレストランHao！ 新浦安店","〒279-0025 千葉県浦安市鉄鋼通り1-1-1 ",35.640429,139.901806,"ＪＲ京葉線","新浦安駅","徒歩19",NA,"千葉県",0,NA
"7652833","金麒麟","〒290-0065 千葉県市原市西五所34-25 ",35.52374,140.110085,"","","",NA,"千葉県",0,NA
"5495972","幸楽苑 酒井根店","〒277-0053 千葉県柏市酒井根1-1-12 ",35.825979,139.96276,"東武野田線","増尾駅","徒歩21",NA,"千葉県",0,NA
"7500556","中華そば 青葉 ららぽーと TOKYO BAY","〒273-8530 千葉県船橋市浜町2-1-1 ",35.685674,139.990169,"JR京葉線","南船橋駅","徒歩9",NA,"千葉県",0,NA
"5496019","らーめん MAKIBA","〒277-0922 千葉県柏市大島田42-3 ",35.842907,140.00832,"","","",NA,"千葉県",0,NA
"7748851","北海道ラーメン 温 ～haru～","〒260-0031 千葉県千葉市中央区新千葉2-8-10 第三雄秀ビル1F",35.614563,140.109234,"JR外房線","千葉駅","徒歩4",NA,"千葉県",0,NA
"7486315","ボウボウラーメンかそり","〒264-0017 千葉県千葉市若葉区加曽利町1680-1 ",35.617731,140.166332,"千葉都市モノレール2号線","小倉台駅","徒歩20",NA,"千葉県",0,NA
"6905896","らーめん北斗","〒279-0001 千葉県浦安市当代島2-1-21 108",35.668704,139.893356,"東京メトロ東西線","浦安（千葉県）駅","徒歩5",NA,"千葉県",0,NA
"7744502","龍晶ラーメン","〒270-0143 千葉県流山市向小金1-453-13 ",35.845332,139.950502,"","","",NA,"千葉県",0,NA
"6012342","精華楼","〒273-0128 千葉県鎌ケ谷市くぬぎ山4-8-26 ",35.783629,139.975156,"新京成電鉄","くぬぎ山駅","徒歩4",NA,"千葉県",0,NA
"6663277","ラーメン居酒屋ボーヨシ","〒278-0036 千葉県野田市中野台鹿島町23-4 ",35.946085,139.851351,"東武野田線","愛宕（千葉県）駅","徒歩17",NA,"千葉県",0,NA
"7683709","いいのラーメン","〒293-0006 千葉県富津市下飯野330-3 ",35.316137,139.86335,"","","",NA,"千葉県",0,NA
"5495826","ラーメン五衛門茂原店","〒297-0033 千葉県茂原市大芝512 ",35.408389,140.315175,"ＪＲ外房線","茂原駅","徒歩5",NA,"千葉県",0,NA
"7133284","ラーメンわかしお アルカード茂原FS店","〒297-0022 千葉県茂原市町保1 アルカード茂原",35.426894,140.304034,"JR外房線","茂原駅","徒歩1",NA,"千葉県",0,NA
"5495467","元祖札幌や 和田町店","〒288-0066 千葉県銚子市和田町1503-4 ",35.734178,140.843912,"銚子電気鉄道","本銚子駅","徒歩8",NA,"千葉県",0,NA
"5495493","幸楽苑 中山店","〒272-0811 千葉県市川市北方町4-1954-1 ",35.731248,139.959706,"JR武蔵野線（府中本町-南船橋）","船橋法典駅","徒歩11",NA,"千葉県",0,NA
"5496102","若貴","〒290-0073 千葉県市原市国分寺台中央1-5-7 ",NA,NA,"小湊鉄道","上総村上駅","徒歩21",NA,"千葉県",0,NA
"6266231","北海道らーめん ひむろ 稲毛店","〒263-0043 千葉県千葉市稲毛区小仲台2-5-13 ",35.637832,140.093651,"JR総武本線（東京-銚子）","稲毛駅","徒歩2",NA,"千葉県",0,NA
"7625440","麺処 こまとよ","〒290-0059 千葉県市原市白金町3-1 パルシャス101",NA,NA,"小湊鉄道","五井駅","徒歩25",NA,"千葉県",0,NA
"7731253","らーめん大 柏店","〒277-0005 千葉県柏市柏3-3-11 ",35.858529,139.974925,"東武野田線","柏駅","徒歩7",NA,"千葉県",0,NA
"5496323","くるまやラーメン 印西木下東店","〒270-1323 千葉県印西市木下東2-2-19 ",35.841544,140.161823,"JR成田線（我孫子-成田）","木下駅","徒歩18",NA,"千葉県",0,NA
"5495620","ばっ玉","〒273-0035 千葉県船橋市本中山5-10-20 ",35.708512,139.941375,"JR総武本線（東京-銚子）","下総中山駅","徒歩10",NA,"千葉県",0,NA
"5894888","壱番亭 関宿店","〒270-0215 千葉県野田市中戸500-1 ",36.059052,139.801739,"","","",NA,"千葉県",0,NA
"5713114","幸楽苑 大網白里店","〒299-3237 千葉県大網白里市仏島235-2 ",35.518604,140.323006,"JR外房線","大網駅","徒歩16",NA,"千葉県",0,NA
"7565698","かじや飲食店","〒289-0124 千葉県成田市西大須賀1434-5 ",35.855267,140.335164,"","","",NA,"千葉県",0,NA
"5496127","らあめん花月嵐 南流山駅前店","〒270-0163 千葉県流山市南流山1-25 ",NA,NA,"つくばエクスプレス","南流山駅","徒歩1",NA,"千葉県",1,3
"5496209","九州ラーメン 日吉 大和田店","〒299-1146 千葉県君津市大和田1-4-7 ",35.337899,139.875915,"JR内房線","君津駅","徒歩25",NA,"千葉県",0,NA
"7466083","晴晴飯店 イオン高根木戸店","〒274-0063 千葉県船橋市習志野台1-1-3 ",35.727055,140.035256,"新京成線","高根木戸駅","徒歩1",NA,"千葉県",0,NA
"5496221","つくもラーメン","〒292-1167 千葉県君津市平田77-2 ",35.246565,139.992617,"","","",NA,"千葉県",0,NA
"5495653","栄華","〒292-0051 千葉県木更津市清川1-19-12 ",35.389862,139.961511,"JR久留里線","上総清川駅","徒歩6",NA,"千葉県",0,NA
"5496287","寿ラーメン","〒299-0262 千葉県袖ケ浦市坂戸市場1439-8 ",35.42383,139.951908,"JR内房線","袖ヶ浦駅","徒歩16",NA,"千葉県",0,NA
"5496437","大龍ラーメン店","〒289-2242 千葉県香取郡多古町染井308-1 ",35.738011,140.452731,"","","",NA,"千葉県",0,NA
"0138058","幸楽苑 松戸古ヶ崎店","〒271-0068 千葉県松戸市古ケ崎3-3364-1 お好み村2F",35.801022,139.89602,"JR常磐線","北松戸駅","徒歩22",NA,"千葉県",0,NA
"7697752","らーめん 福助屋","〒292-0801 千葉県木更津市請西4-6-19 ",35.368839,139.955693,"","","",NA,"千葉県",0,NA
"7291685","道玄家","〒276-0049 千葉県八千代市緑が丘2-1-3 イオンモール八千代緑が丘2F",35.728032,140.07318,"東葉高速線","八千代緑が丘駅","徒歩4",NA,"千葉県",0,NA
"5026393","磯家","〒299-1861 千葉県富津市金谷2164-2 ",35.16868,139.819141,"JR内房線","浜金谷駅","徒歩5",NA,"千葉県",0,NA
"5496466","らーめん きじま","〒299-4334 千葉県長生郡長生村薮塚1018-1 ",35.406734,140.329019,"JR外房線","八積駅","徒歩25",NA,"千葉県",0,NA
"5495577","大勝軒 北習志野西口","〒274-0815 千葉県船橋市西習志野3-27-12 ",35.721021,140.041841,"新京成電鉄","北習志野駅","徒歩1",NA,"千葉県",0,NA
"5495923","ひかりや","〒289-2531 千葉県旭市井戸野3655-3 ",35.717243,140.62189,"JR総武本線（東京-銚子）","干潟駅","徒歩25",NA,"千葉県",0,NA
"6369914","ラーメンばんだい 我孫子店","〒270-1155 千葉県我孫子市我孫子新田22-27 ",35.865984,140.007772,"JR常磐線","我孫子（千葉県）駅","徒歩13",NA,"千葉県",0,NA
"5713110","天狗","〒295-0104 千葉県南房総市白浜町根本1880 ",34.909857,139.847148,"","","",NA,"千葉県",0,NA
"7622221","麺屋 一路","〒272-0035 千葉県市川市新田5-18-12 ",35.728583,139.910141,"JR総武本線（東京-銚子）","市川駅","徒歩3",NA,"千葉県",0,NA
"7175519","らー麺 N","〒272-0035 千葉県市川市新田3‐18‐9 ",35.721925,139.910794,"ＪＲ総武本線（東京-銚子）","市川駅","徒歩12",NA,"千葉県",0,NA
"5495538","ラーメンショップ 宝店","〒272-0122 千葉県市川市宝1-1-9 ",35.683881,139.928033,"東京メトロ東西線","妙典駅","徒歩15",NA,"千葉県",0,NA
"7630540","麺匠 えい蔵 京成大久保店","〒275-0011 千葉県習志野市大久保1-29-3 1F",35.689264,140.049936,"京成本線","京成大久保駅","徒歩5",NA,"千葉県",0,NA
"7086658","松戸富田製麺 ららぽーとTOKYO－BAY","〒273-8530 千葉県船橋市浜町2-1-1 ららぽーとTOKYO-BAY南館1F",35.685707,139.99005,"JR京葉線","南船橋駅","徒歩9",NA,"千葉県",2,4.25
"7493416","横浜家系ラーメン 印西家","〒270-1327 千葉県印西市大森2530-3 ",35.833836,140.145375,"JR成田線（我孫子-成田）","木下駅","徒歩10",NA,"千葉県",0,NA
"7681139","海鮮焼きそば 潮そば まる仁","〒292-0009 千葉県木更津市金田東1-40-5 ",35.437178,139.931973,"","","",NA,"千葉県",0,NA
"7581338","カインズキッチン 銚子店","〒288-0861 千葉県銚子市芦崎町810 カインズホーム銚子店",35.755526,140.774514,"JR成田線（佐倉-銚子）","椎柴駅","徒歩25",NA,"千葉県",0,NA
"7299164","バリバリジョニー","〒272-0132 千葉県市川市湊新田2-9-10 ",35.677717,139.912371,"東京メトロ東西線","行徳駅","徒歩10",NA,"千葉県",0,NA
"6285449","らぁめんと餃子の店 麺屋 わたる 幕張本郷店","〒262-0033 千葉県千葉市花見川区幕張本郷1-3-11 一松ビル1F",35.672449,140.040424,"京成千葉線","京成幕張本郷駅","徒歩2",NA,"千葉県",0,NA
"7681134","博多長浜らーめんもりや","〒270-2214 千葉県松戸市松飛台112-26 ",35.788114,139.966256,"新京成電鉄","五香駅","徒歩13",NA,"千葉県",0,NA
"6963886","らーめん 波市","〒292-0071 千葉県木更津市中島地先 ",NA,NA,"","","",NA,"千葉県",0,NA
"5844776","ガツ盛りラーメン みちる屋 松戸店","〒270-2231 千葉県松戸市稔台7-7-13 ",35.786838,139.925821,"新京成電鉄","みのり台駅","徒歩6",NA,"千葉県",1,3
"6402327","松戸富田製麺","〒292-0008 千葉県木更津市金田東3-1-1 三井アウトレットパーク木更津",35.43467,139.935309,"","","",NA,"千葉県",6,3.83333333333333
"7716351","ラーメン とらじ食堂","〒286-0046 千葉県成田市飯仲21-4 ",35.754608,140.302057,"京成本線","公津の杜駅","徒歩16",NA,"千葉県",0,NA
"7625064","幸楽苑 イオンモール柏店","〒277-0854 千葉県柏市豊町2-5-25 ",35.851693,139.961507,"JR常磐線","南柏駅","徒歩13",NA,"千葉県",0,NA
"5496278","ラーメンめん丸 四街道店","〒284-0027 千葉県四街道市栗山908-1 ",35.67956,140.176537,"JR総武本線（東京-銚子）","四街道駅","徒歩29",NA,"千葉県",0,NA
"7751499","王道いしい 市原五井店","〒290-0056 千葉県市原市五井4830 ",35.521059,140.09372,"","","",NA,"千葉県",0,NA
"5496402","長浜豚骨まるえいラーメン","〒289-1326 千葉県山武市成東775-2 ",35.594842,140.399588,"","","",NA,"千葉県",0,NA
"7134057","カインズキッチン 旭飯岡店","〒289-2714 千葉県旭市三川字犬林セの4334-1 カインズホームスーパーセンター旭飯岡店",NA,NA,"","","",NA,"千葉県",0,NA
"5496242","鈴屋","〒299-1621 千葉県富津市竹岡92 ",35.215259,139.858635,"JR内房線","上総湊駅","徒歩27",NA,"千葉県",3,4.5
"7721753","豚骨ラーメン ぜろや 鎌ヶ谷大仏店","〒273-0105 千葉県鎌ケ谷市鎌ケ谷1-8 鎌ケ谷大仏駅ビル",NA,NA,"新京成電鉄","鎌ヶ谷大仏駅","徒歩3",NA,"千葉県",0,NA
"6426169","じゃらし","〒292-0825 千葉県木更津市畑沢3-13-8 ",35.345613,139.906173,"JR内房線","君津駅","徒歩28",NA,"千葉県",0,NA
"5396148","珍来 紙敷店","〒270-2221 千葉県松戸市紙敷119 ",35.77441,139.941856,"JR武蔵野線（府中本町-南船橋）","東松戸駅","徒歩6",1000,"千葉県",4,4.33333333333333
"7751513","ラーメン＆BAR 本陣","〒287-0002 千葉県香取市北3-12-2 ",35.896567,140.497812,"","","",NA,"千葉県",0,NA
"5026367","本郷","〒292-1145 千葉県君津市糸川561 ",35.28621,139.986438,"","","",NA,"千葉県",0,NA
"7740590","蒙古タンメン中本 市川店","〒272-0034 千葉県市川市市川1-2-29 S60ビル1F",NA,NA,"","","",NA,"千葉県",0,NA
"6919313","ら～麺 あけどや","〒272-0033 千葉県市川市市川南1-2-22 ",35.727581,139.908599,"ＪＲ総武本線（東京-銚子）","市川駅","徒歩3",NA,"千葉県",0,NA
"7692412","丸源ラーメン 八千代店","〒276-0046 千葉県八千代市大和田新田41-7 ",35.720886,140.070272,"東葉高速線","八千代緑が丘駅","徒歩14",NA,"千葉県",0,NA
"5495426","味噌屋 庄助","〒264-0006 千葉県千葉市若葉区小倉台1-7-5 ",35.629307,140.169754,"千葉都市モノレール２号線","小倉台駅","徒歩4",NA,"千葉県",1,4
"6744148","祐ちゃんラーメン綾ちゃんギョーザ","〒273-0005 千葉県船橋市本町4-33-2 ",35.697414,139.99028,"京成本線","大神宮下駅","徒歩7",NA,"千葉県",0,NA
"6393897","ラーメン麺処サヤ","〒297-0073 千葉県茂原市長尾2577 ",35.449578,140.297422,"ＪＲ外房線","新茂原駅","徒歩9",NA,"千葉県",0,NA
"5495754","山勝角ふじ 新松戸店","〒270-0034 千葉県松戸市新松戸3-418 ",35.82179,139.914248,"流鉄流山線","幸谷駅","徒歩12",NA,"千葉県",0,NA
"7416917","ラーメン専門 三代目 月見軒","〒270-2204 千葉県松戸市六実4-3-2 ",35.79482,139.999089,"東武野田線","六実駅","徒歩2",NA,"千葉県",0,NA
"1012222","らーめん 頑々坊子","〒260-0031 千葉県千葉市中央区新千葉2-3-12 ",35.613813,140.11079,"ＪＲ外房線","千葉駅","徒歩3",NA,"千葉県",2,4
"5495676","番小屋 ラーメン","〒292-0043 千葉県木更津市東太田1-12-1 102",NA,NA,"JR久留里線","祇園（千葉県）駅","徒歩24",NA,"千葉県",0,NA
"7135328","彩蓮","〒260-0841 千葉県千葉市中央区白旗3-11-10 ",35.580415,140.143305,"京成千原線","大森台駅","徒歩9",NA,"千葉県",0,NA
"5496205","ラーメン亭 いっぷく","〒299-1133 千葉県君津市貞元176-3 ",35.32156,139.906441,"JR内房線","君津駅","徒歩24",NA,"千葉県",0,NA
"6335871","天一景","〒292-0044 千葉県木更津市太田4-12-19 ",35.378874,139.946802,"JR久留里線","祇園（千葉県）駅","徒歩18",NA,"千葉県",0,NA
"6851148","餃子ハウス 北珍","〒273-0135 千葉県鎌ケ谷市中佐津間2-10-31 ",35.800292,140.00153,"東武野田線","六実駅","徒歩11",NA,"千葉県",0,NA
"7219761","ラーメンショップ仲","〒270-1406 千葉県白井市中292-7 ",35.817278,140.055144,"","","",NA,"千葉県",0,NA
"6272757","鈴木さん","〒274-0825 千葉県船橋市前原西2-32-10 ",35.694276,140.023152,"ＪＲ総武本線（東京-銚子）","津田沼駅","徒歩3",NA,"千葉県",1,3.5
"6401370","どん きさろく 八柱店","〒270-2253 千葉県松戸市日暮1-17-10 ",35.790561,139.936295,"新京成電鉄","八柱駅","徒歩17",NA,"千葉県",1,4
"5496475","長久","〒297-0134 千葉県長生郡長南町芝原3237-2 ",35.368473,140.306341,"","","",NA,"千葉県",0,NA
"5496099","ラーメン味楽","〒299-0116 千葉県市原市迎田233 ",35.457146,140.052032,"","","",NA,"千葉県",0,NA
"5920346","らーめん超ひがし 皐月","〒270-0034 千葉県松戸市新松戸3-136 ",35.824109,139.916195,"流鉄流山線","幸谷駅","徒歩6",NA,"千葉県",0,NA
"5496237","ラーメンワンちゃん 君津常代店","〒299-1121 千葉県君津市常代3-1-1 ",35.309375,139.923179,"","","",NA,"千葉県",0,NA
"6752234","らーめんまる功","〒271-0077 千葉県松戸市根本57-10 1F-2F",35.787413,139.897423,"新京成電鉄","松戸駅","徒歩6",NA,"千葉県",0,NA
"7652572","喜多方ラーメン坂内 木更津店","〒292-0054 千葉県木更津市長須賀1977-1 ",35.395055,139.940846,"","","",NA,"千葉県",0,NA
"5495811","くるまやラーメン 茂原店","〒297-0021 千葉県茂原市高師町3-4-1 ",35.430538,140.296912,"連絡バス（［東京］羽田空港-茂原）","茂原駅","徒歩10",NA,"千葉県",0,NA
"7061554","聖徳","〒299-4337 千葉県長生郡長生村北水口633-5 ",35.408197,140.340068,"JR外房線","八積駅","徒歩10",NA,"千葉県",0,NA
"7727154","ザ・ラーメン 柏西口店","〒277-0852 千葉県柏市旭町1-11-3 バロンビル1F",35.862073,139.967761,"東武野田線","柏駅","徒歩3",NA,"千葉県",0,NA
"6191294","麺屋青山 臼井店","〒285-0864 千葉県佐倉市稲荷台1-10-2 1F",35.729804,140.180224,"","","",NA,"千葉県",1,4
"5495634","雷","〒294-0037 千葉県館山市長須賀464-1 ",34.991988,139.879739,"JR内房線","館山駅","徒歩24",NA,"千葉県",3,3.33333333333333
"7762580","らーめん 香華","〒289-0516 千葉県旭市米込1395-22 ",35.743712,140.612139,"","","",NA,"千葉県",0,NA
"6905877","珍来 南行徳店","〒272-0138 千葉県市川市南行徳1-16-16 メゾンフルール1F",35.67134,139.903541,"東京メトロ東西線","南行徳駅","徒歩3",NA,"千葉県",0,NA
"5496400","珍来 成東店","〒289-1327 千葉県山武市姫島827-1 ",35.592193,140.395461,"JR東金線","求名駅","徒歩22",NA,"千葉県",0,NA
"6183245","横浜らーめん 酒々井家","〒285-0921 千葉県印旛郡酒々井町中川58-11 ",35.735434,140.273293,"京成本線","京成酒々井駅","徒歩5",NA,"千葉県",0,NA
"5026511","ラーメン ゆき","〒299-0245 千葉県袖ケ浦市蔵波台7-11-21 ",35.442829,140.001448,"JR内房線","長浦（千葉県）駅","徒歩16",NA,"千葉県",0,NA
"7543177","横浜家系ラーメン壱角家 流山店","〒270-0144 千葉県流山市前ヶ崎722-2 ",35.840474,139.941628,"JR常磐線","北小金駅","徒歩18",NA,"千葉県",0,NA
"5495946","パンケ","〒275-0011 千葉県習志野市大久保2-1-1 ",35.686089,140.049889,"京成本線","京成大久保駅","徒歩3",NA,"千葉県",1,5
"7671784","らーめん柊","〒275-0002 千葉県習志野市実籾4-5-14 ",35.690495,140.06984,"京成本線","実籾駅","徒歩6",NA,"千葉県",0,NA
"7464768","藤堂製麺","〒283-0005 千葉県東金市田間884-3 ",35.571069,140.378847,"JR東金線","東金駅","徒歩25",NA,"千葉県",0,NA
"5495927","ラーメン カズ","〒289-2714 千葉県旭市三川6557-3 ",35.712142,140.688281,"JR総武本線（東京-銚子）","飯岡駅","徒歩28",NA,"千葉県",0,NA
"7524088","麺処 威吹","〒262-0012 千葉県千葉市花見川区千種町223-1 ",35.677797,140.113581,"","","",NA,"千葉県",0,NA
"7456534","街道ラーメン 美味","〒270-0211 千葉県野田市東高野31-1 ",36.070225,139.797253,"","","",NA,"千葉県",0,NA
"0033089","ラーメンハウス中島","〒270-0157 千葉県流山市平和台3-2-44 ",35.851206,139.901342,"流鉄流山線","平和台（千葉県）駅","徒歩1",NA,"千葉県",0,NA
"6716917","ラーメンのなか","〒276-0042 千葉県八千代市ゆりのき台7-22-3 ",35.738501,140.104738,"東葉高速線","八千代中央駅","徒歩15",NA,"千葉県",0,NA
"7756084","とものもと","〒273-0005 千葉県船橋市本町7-23-14 文平ビル1F",35.706666,139.981894,"東葉高速線","東海神駅","徒歩1",NA,"千葉県",1,5
"6893163","月影 法木作店","〒299-1174 千葉県君津市法木作1-15-2 ",NA,NA,"","","",NA,"千葉県",0,NA
"6165030","北海とんこつ ら～めん純輝 八千代店","〒276-0015 千葉県八千代市米本2146 ",35.750364,140.115828,"東葉高速線","八千代中央駅","徒歩2",NA,"千葉県",3,3
"5496336","らーめん 一芯","〒270-1431 千葉県白井市根97-50 ",35.794505,140.057498,"京成成田空港線・北総鉄道線","白井駅","徒歩17",NA,"千葉県",0,NA
"6272991","真剣勝負","〒279-0031 千葉県浦安市舞浜1-4 イクスピアリ 1F ザ・コートヤード",35.634688,139.88518,"ＪＲ京葉線","舞浜駅","徒歩8",NA,"千葉県",0,NA
"6663377","くるまやラーメン 君津坂田店","〒299-1144 千葉県君津市東坂田3-4-16 ",35.336913,139.892092,"JR内房線","君津駅","徒歩6",NA,"千葉県",0,NA
"5495619","ラーメンハウス カド","〒274-0804 千葉県船橋市みやぎ台3-1-3 ",35.75394,140.037813,"新京成電鉄","三咲駅","徒歩13",NA,"千葉県",0,NA
"5026758","すしや","〒289-1512 千葉県山武市松尾町八田51 ",35.657062,140.476166,"ＪＲ総武本線（東京-銚子）","横芝駅","徒歩22",1000,"千葉県",0,NA
"5495631","おかもと","〒294-0045 千葉県館山市北条1625 ",34.991515,139.862805,"JR内房線","館山駅","徒歩6",NA,"千葉県",0,NA
"7367250","ゆにろーず 流山店","〒270-0133 千葉県流山市十太夫92-83 ",35.877634,139.930847,"つくばエクスプレス","流山おおたかの森駅","徒歩9",NA,"千葉県",0,NA
"5914515","幸楽苑 佐倉鏑木町店","〒285-0025 千葉県佐倉市鏑木町399-3 ",35.713494,140.228881,"JR成田線（佐倉-銚子）","佐倉駅","徒歩8",NA,"千葉県",1,3
"7628125","珍来 柏日立台店","〒277-0083 千葉県柏市日立台1-2-55 ",35.85013,139.974325,"東武野田線","柏駅","徒歩18",NA,"千葉県",0,NA
"5496083","ラーメン王将 山倉店","〒290-0074 千葉県市原市東国分寺台3-2 ",NA,NA,"","","",NA,"千葉県",0,NA
"5643194","竜ちゃんラーメン","〒283-0811 千葉県東金市台方495-3 ",35.551393,140.350844,"JR東金線","福俵駅","徒歩16",NA,"千葉県",1,3.5
"6544289","友楽","〒272-0831 千葉県市川市稲越町307 ",35.753753,139.928863,"京成成田空港線・北総鉄道線","秋山駅","徒歩18",NA,"千葉県",0,NA
"5495895","あさか","〒283-0046 千葉県東金市上谷3439-150 ",35.516181,140.365747,"","","",NA,"千葉県",0,NA
"7433492","鶏SOBA 春夏冬～あきない～","〒286-0044 千葉県成田市不動ケ岡1874-1 ",35.767346,140.310022,"京成本線","京成成田駅","徒歩17",NA,"千葉県",0,NA
"1011824","宗庵 千葉店","〒260-0014 千葉県千葉市中央区本千葉町16-5 ",35.608511,140.117556,"京成千原線","千葉中央駅","徒歩2",NA,"千葉県",0,NA
"6052944","めん花","〒261-0001 千葉県千葉市美浜区幸町1-37-13 ",NA,NA,"京成千葉線","西登戸駅","徒歩8",NA,"千葉県",0,NA
"6277957","丸源ラーメン 南流山店","〒270-0161 千葉県流山市鰭ヶ崎10-6 ",35.838821,139.908239,"","","",NA,"千葉県",0,NA
"7089632","麺や座家","〒290-0065 千葉県市原市西五所8-14 石川ビル1F",35.524129,140.111113,"JR内房線","八幡宿駅","徒歩22",NA,"千葉県",0,NA
"5496408","らーめん姫島屋","〒289-1326 千葉県山武市成東2483-20 ",35.604253,140.408834,"JR東金線","成東駅","徒歩8",NA,"千葉県",0,NA
"5910977","ごいみ","〒295-0024 千葉県南房総市千倉町平磯1323 ",34.935776,139.951622,"","","",NA,"千葉県",0,NA
"5677538","いちろく亭","〒277-0872 千葉県柏市十余二254-25 ",35.87774,139.967594,"東武野田線","柏駅","徒歩24",NA,"千葉県",0,NA
"5495750","麺心","〒271-0064 千葉県松戸市上本郷3059 ",35.794557,139.918271,"新京成電鉄","上本郷駅","徒歩8",NA,"千葉県",0,NA
"7357955","麺屋 武士道 船橋店","〒274-0817 千葉県船橋市高根町538-2 ",35.717684,140.006931,"東葉高速線","飯山満駅","徒歩22",NA,"千葉県",0,NA
"6291295","ラーメン 日可里","〒292-0812 千葉県木更津市矢那1417-1 ",35.335594,139.998005,"","","",NA,"千葉県",0,NA
"5495781","王様ラーメン関宿店","〒270-0226 千葉県野田市東宝珠花247-2 ",36.024948,139.820448,"東武野田線","川間駅","徒歩3",NA,"千葉県",0,NA
"5026053","どさん娘ラーメン","〒290-0066 千葉県市原市五所1663-7 ",35.533711,140.111937,"JR内房線","八幡宿駅","徒歩12",NA,"千葉県",0,NA
"6741719","AKEBI","〒277-0005 千葉県柏市柏3-6-26 ",35.860598,139.974333,"東武野田線","柏駅","徒歩5",NA,"千葉県",0,NA
"7280080","どてちん習志野店","〒274-0071 千葉県船橋市習志野5-6-38 ",35.695969,140.062404,"京成本線","実籾駅","徒歩17",NA,"千葉県",0,NA
"7180379","てんがら 柏店","〒277-0872 千葉県柏市十余二249-5 MARUHAN ENTERTAINMANT MALL 1F",35.882071,139.959351,"つくばエクスプレス","柏の葉キャンパス駅","徒歩22",NA,"千葉県",0,NA
"6273450","屋台拉麺一’s  幕張店","〒262-0032 千葉県千葉市花見川区幕張町5-417-112 ミノサ幕張1F",35.656462,140.05449,"ＪＲ総武本線（東京-銚子）","幕張駅","徒歩2",NA,"千葉県",2,4
"7311823","らーめん神月 小倉町店","〒264-0007 千葉県千葉市若葉区小倉町882-8 ",35.6227,140.174562,"千葉都市モノレール2号線","小倉台駅","徒歩8",NA,"千葉県",0,NA
"7182326","麺屋月影 木更津長須賀店","〒292-0054 千葉県木更津市長須賀2384 ",35.392091,139.938617,"ＪＲ久留里線","祇園（千葉県）駅","徒歩14",NA,"千葉県",0,NA
"0031901","こまつや","〒273-0003 千葉県船橋市宮本6-5-13 ",35.698906,139.993491,"京成本線","大神宮下駅","徒歩8",NA,"千葉県",0,NA
"7701790","天龍","〒297-0032 千葉県茂原市東茂原9 ",35.41661,140.314747,"","","",NA,"千葉県",0,NA
"7389313","うま煮ラーメン醤","〒284-0027 千葉県四街道市栗山862-1 ",35.680546,140.177187,"","","",NA,"千葉県",0,NA
"7703636","熱麺醤々","〒292-0008 千葉県木更津市中島地先 うみほたるPA5F",NA,NA,"","","",NA,"千葉県",0,NA
"7617131","鶏らぁめん たけなか","〒273-0005 千葉県船橋市本町4-3-3 船橋駅前ビル B1F",35.700772,139.986519,"京成本線","京成船橋駅","徒歩1",NA,"千葉県",0,NA
"6376371","どろそば屋 ひろし","〒275-0011 千葉県習志野市大久保3-12-5 ",35.691158,140.050153,"","","",NA,"千葉県",1,4
"5495640","お食事処 支那そば家","〒294-0051 千葉県館山市正木787-29 ",35.012935,139.870387,"","","",NA,"千葉県",0,NA
"5495348","ラーメンめん丸 仁戸名店","〒260-0801 千葉県千葉市中央区仁戸名町714-2 ",35.578724,140.166359,"ＪＲ外房線","鎌取駅","徒歩27",NA,"千葉県",0,NA
"6165000","らあめん花月 嵐 馬橋店","〒271-0051 千葉県松戸市馬橋2276-3 ",35.810033,139.921276,"流鉄流山線","馬橋駅","徒歩7",NA,"千葉県",1,2.5
"5496151","ラーメン明日香 八千代台店","〒276-0032 千葉県八千代市八千代台東1-2-12 元カネコビル1F",35.699925,140.092052,"京成本線","八千代台駅","徒歩3",NA,"千葉県",5,3
"7053641","蔵出し味噌ラーメン そい屋","〒271-0092 千葉県松戸市松戸1150 ニューハイム松戸1F",35.784816,139.902909,"新京成電鉄","松戸駅","徒歩3",NA,"千葉県",0,NA
"5496222","ともちゃんらーめん","〒299-1106 千葉県君津市中島181-2 ",35.306879,139.950574,"","","",NA,"千葉県",0,NA
"7188244","らあめん 玄","〒289-1700 千葉県山武郡横芝光町宮川11915-1 ",35.667501,140.504982,"JR総武本線（東京-銚子）","横芝駅","徒歩22",NA,"千葉県",0,NA
"5496219","大ちゃんらーめん","〒299-1121 千葉県君津市常代5-4-2 ",35.307114,139.925226,"","","",NA,"千葉県",0,NA
"6012550","らーめん むげん","〒272-0132 千葉県市川市湊新田1-3-15 ",35.681983,139.909823,"東京メトロ東西線","行徳駅","徒歩7",NA,"千葉県",1,3
"6663363","麺 定食 嵐神","〒290-0051 千葉県市原市君塚1-21-5 ",35.518051,140.102952,"小湊鉄道","五井駅","徒歩20",NA,"千葉県",0,NA
"7200038","麺場 田所商店 木更津店","〒292-0833 千葉県木更津市貝渕3-13-24 ",35.370082,139.917844,"ＪＲ久留里線","木更津駅","徒歩23",NA,"千葉県",0,NA
"5495894","ラーメンとん太 ユーカリが丘店","〒285-0854 千葉県佐倉市上座577-2 ",35.721505,140.15256,"山万ユーカリが丘線","ユーカリが丘駅","徒歩5",NA,"千葉県",0,NA
"7603454","大輪 鴨川店","〒296-0032 千葉県鴨川市花房35-1 ",35.121151,140.085528,"JR内房線"," 安房鴨川駅","車で7",NA,"千葉県",1,4.5
"7648832","麺場四代目","〒285-0005 千葉県佐倉市宮前3-12-2 ",35.726128,140.229745,"京成本線","京成佐倉駅","徒歩2",NA,"千葉県",0,NA
"6767774","パンケ 成東店","〒289-1326 千葉県山武市成東613-1 ",35.599811,140.403004,"ＪＲ東金線","成東駅","徒歩17",NA,"千葉県",0,NA
"5816075","ラーメン戯拉戯拉","〒273-0005 千葉県船橋市本町4-41-29 ",35.699156,139.986325,"京成本線","京成船橋駅","徒歩2",NA,"千葉県",1,1
"6361600","まる長","〒272-0138 千葉県市川市南行徳2-11-3 ",35.669323,139.907452,"東京メトロ東西線","南行徳駅","徒歩6",NA,"千葉県",0,NA
"5134853","味処めんめん","〒288-0055 千葉県銚子市陣屋町3-34 ",35.730831,140.837521,"銚子電気鉄道","観音駅","徒歩6",NA,"千葉県",0,NA
"5026565","ゆにろーず 千葉ニュータウン店","〒270-1345 千葉県印西市船尾400-3 ",35.786374,140.128928,"","","",1000,"千葉県",0,NA
"7624938","松戸 縁屋","〒271-0046 千葉県松戸市西馬橋蔵元町165 みのりコーポ A-1",35.813338,139.91274,"流鉄流山線","馬橋駅","徒歩5",NA,"千葉県",0,NA
"7172085","道玄家 アトレ新浦安店","〒279-0012 千葉県浦安市入船1-1-1 アトレ新浦安1F",35.649372,139.912491,"ＪＲ京葉線","新浦安駅","徒歩1",NA,"千葉県",0,NA
"7353715","珍來 柏東口店","〒277-0005 千葉県柏市柏1-7-1 DayOneタワー 1F",NA,NA,"東武野田線","柏駅","徒歩3",NA,"千葉県",0,NA
"7267176","麺家 香湯らーめん","〒289-0313 千葉県香取市小見川806-3 ",35.853538,140.607138,"","","",NA,"千葉県",0,NA
"7691170","横浜家系ラーメン 吟家 東金店","〒283-0821 千葉県東金市小野73-1 ",35.571407,140.331026,"","","",NA,"千葉県",0,NA
"6922971","ラーメン春樹 イオン柏店","〒277-0854 千葉県柏市豊町2-5-25 イオンモール柏1F",35.851693,139.961507,"ＪＲ常磐線","南柏駅","徒歩13",NA,"千葉県",0,NA
"7172636","ピッコリー Olympic馬橋店","〒271-0062 千葉県松戸市栄町8-691-1 Olympic 馬橋店1F",35.811504,139.906594,"流鉄流山線","馬橋駅","徒歩15",NA,"千葉県",0,NA
"5495388","大王","〒263-0051 千葉県千葉市稲毛区園生町1306-6 ",35.655261,140.124776,"千葉都市モノレール２号線","スポーツセンター駅","徒歩21",NA,"千葉県",0,NA
"5496266","うさぎや","〒284-0003 千葉県四街道市鹿渡1046-1 ",35.665286,140.170155,"JR総武本線（東京-銚子）","四街道駅","徒歩7",NA,"千葉県",0,NA
"7721331","中華そば富士鹿","〒270-1337 千葉県印西市草深1062-1 ",35.804426,140.137538,"京成成田空港線・北総鉄道線","千葉ニュータウン中央駅","徒歩26",NA,"千葉県",0,NA
"7617148","中華居酒屋 香香","〒270-0013 千葉県松戸市小金きよしヶ丘2-1 ",NA,NA,"JR常磐線","北小金駅","徒歩6",NA,"千葉県",0,NA
"7235489","らぁめん屋うどす","〒283-0811 千葉県東金市台方932-1 ",35.550007,140.350747,"ＪＲ東金線","福俵駅","徒歩15",NA,"千葉県",0,NA
"7685468","山亀家 稲毛店","〒263-0043 千葉県千葉市稲毛区小仲台1-6-21 ",35.636521,140.096507,"JR総武本線（東京-銚子）","稲毛駅","徒歩5",NA,"千葉県",0,NA
"6267866","ラーメン魁力屋 南行徳店","〒272-0144 千葉県市川市新井2-15 ",NA,NA,"東京メトロ東西線","南行徳駅","徒歩11",NA,"千葉県",1,4
"5495354","栄来軒","〒262-0033 千葉県千葉市花見川区幕張本郷7-13 ",NA,NA,"京成千葉線","京成幕張本郷駅","徒歩10",NA,"千葉県",0,NA
"5646044","東池袋大勝軒 木更津","〒292-0822 千葉県木更津市桜井704-173 ",35.362794,139.915239,"","","",NA,"千葉県",0,NA
"5495497","札幌ラーメンどさん子","〒272-0834 千葉県市川市国分2-2-20 ",35.74001,139.917654,"京成本線","市川真間駅","徒歩16",NA,"千葉県",2,NA
"7463628","幸楽苑 イオンモール八千代緑が丘店","〒276-0049 千葉県八千代市緑が丘2-1-3 ",35.728032,140.07318,"東葉高速線","八千代緑が丘駅","徒歩1",NA,"千葉県",0,NA
"6919393","麺隆","〒285-0906 千葉県印旛郡酒々井町柏木504 ",35.745864,140.271218,"京成本線","京成酒々井駅","徒歩14",NA,"千葉県",0,NA
"5495299","幸楽苑 千葉中央店","〒260-0022 千葉県千葉市中央区神明町21-9 ",NA,NA,"ＪＲ外房線","本千葉駅","徒歩7",NA,"千葉県",5,4
"7276754","栄勝軒","〒278-0055 千葉県野田市岩名1748-6 ",35.96971,139.84029,"東武野田線","川間駅","徒歩18",NA,"千葉県",0,NA
"7054583","つけ麺らーめん春樹 長沼ワンズモール店","〒263-0005 千葉県千葉市稲毛区長沼町330-50 ワンズモール 1F",35.656722,140.11786,"千葉都市モノレール2号線","スポーツセンター駅","徒歩21",NA,"千葉県",0,NA
"5495360","さむらい","〒262-0011 千葉県千葉市花見川区三角町785-3 ",35.681564,140.126969,"","","",NA,"千葉県",0,NA
"5496085","ラーメンガキ大将 市原山田橋店","〒290-0021 千葉県市原市山田橋1-5-5 ",35.502279,140.123949,"","","",NA,"千葉県",0,NA
"6896400","田所商店 WBG店","〒261-0023 千葉県千葉市美浜区中瀬2-6-1 WBGマリブダイニング2F",35.648204,140.038878,"JR京葉線","海浜幕張駅","徒歩4",NA,"千葉県",2,NA
"7189422","結まーる","〒264-0025 千葉県千葉市若葉区都賀3-30-7-2 ",35.63677,140.152738,"JR総武本線（東京","銚子）","徒歩11",NA,"千葉県",0,NA
"7416009","極上煮干し鶏そば やまだ邸","〒274-0805 千葉県船橋市二和東5-62-3 ",35.750145,140.027908,"新京成電鉄","三咲駅","徒歩3",NA,"千葉県",0,NA
"5713014","麺場 田所商店","〒272-0105 千葉県市川市関ヶ島15-11 ",35.687922,139.918559,"東京メトロ東西線","妙典駅","徒歩1",NA,"千葉県",1,4.5
"5495949","ポッポラーメン","〒275-0002 千葉県習志野市実籾4-24-6 ",35.690001,140.072229,"京成本線","実籾駅","徒歩7",NA,"千葉県",0,NA
"7640922","濃厚ラーメンと油そばの店 蝙蝠","〒271-0092 千葉県松戸市松戸1164-1 シェスタビル1F",35.784902,139.90242,"新京成電鉄","松戸駅","徒歩3",NA,"千葉県",0,NA
"7646438","もののこころ","〒270-2225 千葉県松戸市東松戸3-6-11 レアル東松戸1F",NA,NA,"JR武蔵野線（府中本町-南船橋）","東松戸駅","徒歩1",NA,"千葉県",0,NA
"5614343","ラーメン つち家","〒263-0051 千葉県千葉市稲毛区園生町569-1 ",35.64509,140.108175,"千葉都市モノレール２号線","穴川（千葉県）駅","徒歩11",NA,"千葉県",0,NA
"6742785","お食事処 しんでん","〒299-5226 千葉県勝浦市串浜1776-2 ",35.164527,140.304305,"JR外房線","勝浦駅","徒歩28",NA,"千葉県",0,NA
"5495842","くるまやラーメン 成田公津店","〒286-0048 千葉県成田市公津の杜3-38-1 ",35.757421,140.298307,"京成本線","公津の杜駅","徒歩6",NA,"千葉県",0,NA
"5496110","純手打ラーメン 長八","〒270-0123 千葉県流山市若葉台3-5 ",35.883952,139.90986,"東武野田線","初石駅","徒歩9",NA,"千葉県",1,4.5
"5496092","ラーメン田島商店","〒290-0141 千葉県市原市ちはら台東4-11-25 ",35.540715,140.192486,"ＪＲ外房線","誉田駅","徒歩30",NA,"千葉県",0,NA
"5495414","幸楽苑 若松店","〒264-0021 千葉県千葉市若葉区若松町2093-1 ",35.63627,140.165176,"千葉都市モノレール2号線","桜木（千葉県）駅","徒歩10",NA,"千葉県",0,NA
"5495743","北海道らーめんひむろ松戸店","〒271-0091 千葉県松戸市本町1-13 ",35.783957,139.899867,"新京成電鉄","松戸駅","徒歩11",NA,"千葉県",0,NA
"5495922","東陽ラーメン","〒289-2505 千葉県旭市鎌数9419-3 ",35.72107,140.606083,"JR総武本線（東京-銚子）","干潟駅","徒歩6",NA,"千葉県",0,NA
"5683500","らーめん鈴家","〒272-0023 千葉県市川市南八幡4-1-5 1F",35.720282,139.927221,"JR総武本線（東京-銚子）","本八幡（総武線）駅","徒歩2",NA,"千葉県",2,NA
"5495516","なりたけ 本八幡店","〒272-0021 千葉県市川市八幡2-16-20 ",35.722024,139.926596,"都営新宿線","本八幡（都営線）駅","徒歩1",NA,"千葉県",5,3
"5026798","旬の味 ゆうき","〒299-4612 千葉県いすみ市岬町江場土4423-1 ",35.306347,140.40115,"JR外房線","長者町駅","徒歩29",NA,"千葉県",0,NA
"5496394","くるまやラーメン 松尾店","〒289-1516 千葉県山武市松尾町田越字神袋71-1 ",NA,NA,"","","",NA,"千葉県",0,NA
"7510852","幸楽苑 旭店","〒289-2500 千葉県旭市二の2753-1 ",NA,NA,"","","",NA,"千葉県",0,NA
"5495484","伊勢ラーメン 喰うかい","〒272-0133 千葉県市川市行徳駅前4-1-16 ",35.679947,139.917442,"東京メトロ東西線","行徳駅","徒歩5",NA,"千葉県",0,NA
"6930065","ラーメン青木亭 野田店","〒278-0055 千葉県野田市岩名1697-6 ",35.968028,139.839731,"東武野田線（東武アーバンパークライン）","川間駅","徒歩21",750,"千葉県",0,NA
"5496027","はらだ","〒299-5211 千葉県勝浦市松野388 ",35.204874,140.271509,"","","",NA,"千葉県",0,NA
"5496226","満福","〒292-0501 千葉県君津市山滝野1634 ",35.269708,140.046434,"JR久留里線","平山駅","徒歩26",NA,"千葉県",0,NA
"5496316","ラーメンめん丸 八街店","〒289-1104 千葉県八街市文違301-157 ",35.675312,140.317481,"JR総武本線（東京-銚子）","八街駅","徒歩19",NA,"千葉県",0,NA
"6380767","醤道 ver東金","〒283-0005 千葉県東金市田間554-3 ",35.568789,140.377566,"JR東金線","東金駅","徒歩21",NA,"千葉県",0,NA
"7357691","金華","〒262-0012 千葉県千葉市花見川区千種町205 ",35.678814,140.110515,"","","",NA,"千葉県",0,NA
"7378490","麺屋 義國","〒273-0113 千葉県鎌ケ谷市道野辺中央2丁目9-27 ",35.76299,139.996143,"東武野田線","鎌ヶ谷駅","徒歩2",NA,"千葉県",0,NA
"6411870","来来亭 千葉花見川店","〒262-0014 千葉県千葉市花見川区さつきが丘1-46-12 ",35.666157,140.100997,"","","",NA,"千葉県",0,NA
"6335881","ラーメン 定度","〒299-0205 千葉県袖ケ浦市上泉1345 ",35.408887,140.049939,"","","",NA,"千葉県",1,NA
"7118881","RAGUMAN 2014","〒285-0026 千葉県佐倉市鏑木仲田町11-2 ",35.714566,140.233089,"JR成田線（佐倉-銚子）","佐倉駅","徒歩13",NA,"千葉県",0,NA
"7123476","ガッツ","〒263-0043 千葉県千葉市稲毛区小仲台6-14-3 太田ビル1F",35.640079,140.09244,"JR総武本線（東京-銚子）","稲毛駅","徒歩4",NA,"千葉県",0,NA
"7716284","らーめん 森田屋 キテミテマツド店","〒271-0092 千葉県松戸市松戸1307-1 キテミテマツド10F",35.782599,139.899184,"新京成電鉄","松戸駅","徒歩3",NA,"千葉県",0,NA
"7360524","ら～めん コジマル","〒297-0024 千葉県茂原市八千代1-8-7 ",35.423172,140.298498,"ＪＲ外房線","茂原駅","徒歩9",NA,"千葉県",0,NA
"5496091","ラーメン推手","〒290-0074 千葉県市原市東国分寺台2-8-2 101",NA,NA,"小湊鉄道","海士有木駅","徒歩19",NA,"千葉県",0,NA
"5496013","らーめん真真","〒277-0921 千葉県柏市大津ケ丘2-22-22 ",35.842256,139.997982,"","","",NA,"千葉県",0,NA
"6277003","麺工房むつ味","〒296-0001 千葉県鴨川市横渚1701-1 ",35.100314,140.09627,"JR内房線","安房鴨川駅","徒歩17",NA,"千葉県",0,NA
"5495862","ニューとん太 成田北店","〒286-0101 千葉県成田市十余三30-43 ",35.801415,140.360406,"","","",NA,"千葉県",0,NA
"5522413","麺や福一","〒286-0033 千葉県成田市花崎町846-15 ",35.779246,140.314792,"","","",NA,"千葉県",4,3.75
"7267154","幸楽苑 木更津請西店","〒292-0807 千葉県木更津市請西南3-2-2 ",35.358854,139.943374,"ＪＲ","木更津駅","車14",NA,"千葉県",0,NA
"7698066","博多一風堂 ららぽーと柏の葉店","〒277-0871 千葉県柏市若柴175 ららぽーと柏の葉 3F",35.893674,139.951061,"つくばエクスプレス","柏の葉キャンパス駅","徒歩1",NA,"千葉県",0,NA
"7493409","ラーメンがんことんこつ","〒272-0023 千葉県市川市南八幡1-22-8 ",35.715155,139.930062,"JR総武本線（東京-銚子）","本八幡（総武線）駅","徒歩12",NA,"千葉県",0,NA
"6165004","北青山","〒287-0036 千葉県香取市観音811 ",35.859198,140.469838,"","","",NA,"千葉県",0,NA
"5615921","幸楽苑 ユニモちはら台店","〒290-0143 千葉県市原市ちはら台西3-4 ",NA,NA,"京成千原線","ちはら台駅","徒歩14",NA,"千葉県",0,NA
"5495778","あじ平","〒278-0035 千葉県野田市中野台1085-8 ",35.945682,139.850809,"東武野田線","愛宕（千葉県）駅","徒歩2",NA,"千葉県",0,NA
"7626318","SAMAP","〒299-4328 千葉県長生郡長生村一松甲2510-58 ",35.386676,140.387531,"","","",NA,"千葉県",0,NA
"5495823","ラーメン 一本やり","〒297-0016 千葉県茂原市木崎291-1 ",35.427811,140.313272,"JR外房線","茂原駅","徒歩12",800,"千葉県",0,NA
"5026722","とんかつ らーめん はな芳","〒287-0003 千葉県香取市佐原イ3400 ",35.888892,140.498337,"JR成田線（佐倉-銚子）","佐原駅","徒歩11",NA,"千葉県",0,NA
"6900563","ラーメン 桃々華","〒290-0166 千葉県市原市犬成1054-4 ",35.472989,140.193615,"","","",NA,"千葉県",0,NA
"7751504","らーめん 小花村","〒278-0022 千葉県野田市山崎2683-1 霊波之光教会本部内 RHKプラザ館 B1",35.921945,139.90675,"","","",NA,"千葉県",0,NA
"7749034","中国ラーメン揚州商人 イオン新浦安店","〒279-0012 千葉県浦安市入船1-4-1 イオン新浦安4F",35.64902,139.914836,"","","",NA,"千葉県",0,NA
"6282657","はたかくる","〒276-0046 千葉県八千代市大和田新田917-36 ",35.72673,140.083249,"東葉高速線","八千代緑が丘駅","徒歩15",NA,"千葉県",3,4
"6744629","中華 ガキ大将 茂原店","〒297-0063 千葉県茂原市長谷1116-1 ",35.438854,140.28168,"","","",NA,"千葉県",0,NA
"7510150","どうとんぼり神座 ペリエ千葉店","〒260-0031 千葉県千葉市中央区新千葉1-1-1 ペリエ千葉本館5F",35.612391,140.114614,"JR外房線","千葉駅","徒歩1",NA,"千葉県",0,NA
"5496170","みのりや","〒270-1137 千葉県我孫子市岡発戸556 ",35.870294,140.062953,"JR成田線（我孫子-成田）","湖北駅","徒歩19",NA,"千葉県",0,NA
"7582883","札幌ラーメン どさん子 田尾店","〒290-0515 千葉県市原市田尾58-5 ",35.360728,140.188259,"小湊鉄道小湊鉄道線","上総鶴舞駅","徒歩25",NA,"千葉県",0,NA
"7680228","らぁ麺家康 千城台店","〒264-0005 千葉県千葉市若葉区千城台北4-8-35 第二パレス飛鳥1F",35.624739,140.193996,"千葉都市モノレール2号線","千城台駅","徒歩9",NA,"千葉県",0,NA
"7760208","麺屋武田 原木中山店","〒272-0004 千葉県市川市原木1-20-18 シティ原木中山1F",35.701693,139.944306,"東京メトロ東西線","原木中山駅","徒歩4",NA,"千葉県",0,NA
"7483196","横浜八景楼 アピタ木更津FS店","〒292-0038 千葉県木更津市ほたる野4-2-48 アピタ木更津 2F",35.375769,139.962759,"JR久留里線","上総清川駅","徒歩27",NA,"千葉県",0,NA
"6426103","小樽らーめん豆の木 我孫子店","〒270-1164 千葉県我孫子市つくし野1-1-2 ",35.877139,140.014751,"JR常磐線","我孫子（千葉県）駅","徒歩9",NA,"千葉県",0,NA
"5496348","ラーメンショップネモト","〒286-0205 千葉県富里市根木名1013 ",35.744932,140.348778,"","","",NA,"千葉県",0,NA
"5713044","麺家 がむしゃら","〒270-0032 千葉県松戸市新松戸北1-5-5 ",35.83168,139.916784,"流鉄流山線","小金城趾駅","徒歩7",NA,"千葉県",1,4
"7369914","清誠","〒260-0824 千葉県千葉市中央区浜野町1011 ",35.555248,140.128432,"JR内房線","浜野駅","徒歩8",NA,"千葉県",0,NA
"5495506","中華あじくらべ","〒272-0802 千葉県市川市柏井町4-359 ",35.750394,139.970304,"JR武蔵野線（府中本町-南船橋）","市川大野駅","徒歩30",NA,"千葉県",0,NA
"5251684","大塚支店","〒288-0048 千葉県銚子市双葉町4-18 ",35.733055,140.830291,"銚子電気鉄道","銚子駅","徒歩7",NA,"千葉県",1,3
"5495447","ラーメンめん丸 おゆみ野店","〒266-0032 千葉県千葉市緑区おゆみ野中央2-13-15 ",35.554115,140.163338,"京成千原線","おゆみ野駅","徒歩8",NA,"千葉県",0,NA
"5670748","トント宮本","〒299-4503 千葉県いすみ市岬町和泉305-8 ",35.32312,140.402427,"","","",NA,"千葉県",0,NA
"5496196","飛龍","〒273-0101 千葉県鎌ケ谷市富岡2-8-5 ",35.765879,140.003487,"東武野田線","鎌ヶ谷駅","徒歩10",NA,"千葉県",0,NA
"5026533","どんどん","〒289-1115 千葉県八街市八街ほ244 ",35.662619,140.319903,"JR総武本線（東京-銚子）","八街駅","徒歩2",NA,"千葉県",0,NA
"6966041","弌家","〒289-1327 千葉県山武市姫島520-6 ",35.589734,140.392739,"ＪＲ東金線","求名駅","徒歩19",NA,"千葉県",0,NA
"6276634","ラーメン海王","〒297-0029 千葉県茂原市高師845-30 101",35.425867,140.300679,"JR外房線","茂原駅","徒歩6",NA,"千葉県",0,NA
"6768677","ドン","〒275-0001 千葉県習志野市東習志野8-23-1 ",NA,NA,"京成本線","八千代台駅","徒歩15",NA,"千葉県",0,NA
"5496284","オロチョンラーメン40Q","〒299-0213 千葉県袖ケ浦市百目木30-1 ",35.381781,140.042049,"JR久留里線","東横田駅","徒歩9",NA,"千葉県",0,NA
"5252020","いしい","〒299-5234 千葉県勝浦市勝浦159 ",35.148201,140.315133,"JR外房線","勝浦駅","徒歩8",NA,"千葉県",2,4.5
"6514591","喜多方ラーメン坂内 市川店","〒272-0034 千葉県市川市市川1-1-1 シャポー市川1F",35.729358,139.907649,"JR総武本線（東京-銚子）","市川駅","徒歩1",NA,"千葉県",3,4
"7178426","船橋頑力屋ららぽーとTOKYO-BAY店","〒273-0012 千葉県船橋市浜町2-1-1 ららぽーとTOKYO-BAY北館1F",35.68567,139.990156,"ＪＲ京葉線","南船橋駅","徒歩10",NA,"千葉県",0,NA
"7337846","アスレチック食堂さくら","〒278-0043 千葉県野田市清水906 清水公園フィールドアスレチック",35.958256,139.853989,"東武野田線","清水公園駅","徒歩6",NA,"千葉県",0,NA
"5495700","えぞふじ 常盤平店","〒270-2263 千葉県松戸市常盤平柳町27-24 ",NA,NA,"JR武蔵野線（府中本町-南船橋）","新八柱駅","徒歩13",NA,"千葉県",0,NA
"6419267","丸源ラーメン 君津店","〒299-1173 千葉県君津市外箕輪3-17-12 ",35.319585,139.925862,"","","",NA,"千葉県",0,NA
"5495632","かすやらーめん","〒294-0045 千葉県館山市北条1729-3 ",34.993712,139.866318,"JR内房線","館山駅","徒歩6",NA,"千葉県",0,NA
"5496118","大和家","〒270-0121 千葉県流山市西初石3-100 ",35.883822,139.91719,"東武野田線","初石駅","徒歩5",NA,"千葉県",0,NA
"5496442","味々","〒299-3236 千葉県大網白里市みやこ野1-1-1 ",NA,NA,"JR外房線","大網駅","徒歩7",NA,"千葉県",0,NA
"6900525","健勝軒","〒275-0016 千葉県習志野市津田沼1-2-11 ",35.690727,140.021591,"ＪＲ総武本線（東京-銚子）","津田沼駅","徒歩1",NA,"千葉県",0,NA
"5496043","活力亭 市原店","〒290-0059 千葉県市原市白金町5-14-3 ",35.525256,140.099622,"小湊鉄道","五井駅","徒歩23",NA,"千葉県",0,NA
"7371259","味の広瀬や","〒283-0102 千葉県山武郡九十九里町小関2292 ",35.539156,140.452369,"","","",NA,"千葉県",0,NA
"6982446","博多だるまJAPAN イオンモール幕張新都心店","〒261-0024 千葉県千葉市美浜区豊砂1-1 イオンモール幕張新都心グランドモール3F",35.652495,140.032128,"ＪＲ京葉線","海浜幕張駅","徒歩19",NA,"千葉県",2,NA
"5025731","幸楽苑 新習志野店","〒275-0024 千葉県習志野市茜浜2-19-3 セントラルホテルフクオカ 2F",35.666582,140.014482,"JR京葉線","新習志野駅","徒歩2",NA,"千葉県",0,NA
"6963569","つたや","〒290-0081 千葉県市原市五井中央西1-6-22 ",35.511871,140.08736,"小湊鉄道","五井駅","徒歩3",NA,"千葉県",0,NA
"7723850","ラーメン 麺呶家","〒285-0906 千葉県印旛郡酒々井町柏木161-12 ",35.744194,140.271854,"京成本線","京成酒々井駅","徒歩11",NA,"千葉県",0,NA
"5624757","中華そば 麦家","〒286-0041 千葉県成田市飯田町2-94 ",35.763624,140.304728,"京成本線","公津の杜駅","徒歩14",900,"千葉県",1,3.5
"5026059","8番亭","〒290-0216 千葉県市原市二日市場752-4 ",35.440905,140.117968,"小湊鉄道","光風台（千葉県）駅","徒歩6",NA,"千葉県",0,NA
"7617112","ramen case- K","〒275-0011 千葉県習志野市大久保1-16-18 プラザグレミオ 1F左奥",NA,NA,"京成本線","京成大久保駅","徒歩4",NA,"千葉県",0,NA
"5495503","すずらんラーメン とみざわ","〒272-0133 千葉県市川市行徳駅前2-8-15 ",35.681081,139.916056,"東京メトロ東西線","行徳駅","徒歩3",NA,"千葉県",0,NA
"6773401","力丸","〒275-0002 千葉県習志野市実籾1-2-15 ",35.687409,140.068354,"京成本線","実籾駅","徒歩1",NA,"千葉県",0,NA
"5496342","幸楽苑 富里店","〒286-0221 千葉県富里市七栄550-43 ",35.74487,140.314217,"","","",NA,"千葉県",0,NA
"6401474","激旨麺厨房 リウ","〒277-0863 千葉県柏市豊四季206-9 ",35.866688,139.943141,"東武野田線","豊四季駅","徒歩5",NA,"千葉県",0,NA
"5496250","京らーめん 糸ぐるま 浦安西友店","〒279-0002 千葉県浦安市北栄1-13-25 西友浦安店2",35.665973,139.893828,"東京メトロ東西線","浦安（千葉県）駅","徒歩1",NA,"千葉県",0,NA
"5495733","どさん娘 まこちゃん","〒270-2253 千葉県松戸市日暮1-20-5 ",35.789749,139.933187,"新京成電鉄","みのり台駅","徒歩5",NA,"千葉県",0,NA
"6165029","越後秘蔵麺 無尽蔵 銚子家","〒288-0815 千葉県銚子市三崎町2-2660-1 イオンモール銚子 2F",35.710637,140.788109,"ＪＲ成田線（佐倉-銚子）","松岸駅","徒歩29",NA,"千葉県",0,NA
"5495787","太郎松","〒278-0031 千葉県野田市中根36-1 イオンノア店",35.947888,139.876888,"東武野田線","野田市駅","徒歩19",NA,"千葉県",0,NA
"5495402","らーめんしゃんしゃん","〒263-0051 千葉県千葉市稲毛区園生町989-13 ",35.640946,140.109053,"千葉都市モノレール２号線","穴川（千葉県）駅","徒歩7",NA,"千葉県",0,NA
"7169043","前足ラーメンかくれが","〒294-0006 千葉県館山市薗173-1 ",35.002726,139.922688,"JR内房線","九重駅","徒歩16",NA,"千葉県",0,NA
"5026903","らーめん大漁","〒289-1603 千葉県山武郡芝山町大里1912-1 ",35.742446,140.421103,"","","",NA,"千葉県",1,3
"6270443","森田屋","〒290-0056 千葉県市原市五井5117 ",35.515779,140.088576,"小湊鉄道","五井駅","徒歩4",NA,"千葉県",0,NA
"5605900","ばんから 八千代店","〒276-0004 千葉県八千代市島田台997-2 ",35.768998,140.098268,"","","",NA,"千葉県",0,NA
"5496114","柏竜","〒270-0121 千葉県流山市西初石3-12-6 ",35.884155,139.915534,"東武野田線","初石駅","徒歩2",NA,"千葉県",0,NA
"5836410","竹岡らーめん 清川店","〒292-0041 千葉県木更津市清見台東2-15-6 ",35.383168,139.959789,"JR久留里線","上総清川駅","徒歩14",NA,"千葉県",0,NA
"7721552","鶏そばやま木 成田店","〒286-0048 千葉県成田市公津の杜4-5-3 ユアエルム成田",35.759793,140.296604,"京成本線","公津の杜駅","徒歩3",NA,"千葉県",0,NA
"6419420","らーめん大○虎","〒275-0011 千葉県習志野市大久保1-18-12 ",35.687286,140.04852,"京成本線","京成大久保駅","徒歩2",NA,"千葉県",0,NA
"7479396","うま煮ラーメン醤 船橋新高根店","〒274-0814 千葉県船橋市新高根6-19-17 ",35.724031,140.02579,"新京成電鉄","高根公団駅","徒歩11",NA,"千葉県",0,NA
"7646700","熟成醤油らーめん ヤマト醤店","〒292-0054 千葉県木更津市長須賀929-2 ",35.386622,139.929236,"連絡バス（［東京］羽田空港-木更津）","木更津駅","徒歩9",NA,"千葉県",0,NA
"6426097","幸楽苑 野田堤台店","〒278-0044 千葉県野田市堤台125-4 ",35.950315,139.848196,"東武野田線","愛宕（千葉県）駅","徒歩21",NA,"千葉県",0,NA
"5495435","くるまやラーメン 土気店","〒267-0057 千葉県千葉市緑区大木戸町232-1 ",35.532693,140.257922,"ＪＲ外房線","土気駅","徒歩14",NA,"千葉県",0,NA
"7182332","麺屋寛虎","〒299-1147 千葉県君津市人見4-3-26 ",35.332482,139.876729,"ＪＲ内房線","青堀駅","徒歩24",NA,"千葉県",0,NA
"5920342","香蘭","〒272-0823 千葉県市川市東菅野5-13-15 ",35.73487,139.946382,"京成本線","鬼越駅","徒歩26",NA,"千葉県",0,NA
"5646048","らーめん ふくみ","〒299-4323 千葉県長生郡長生村一松戊3451-141 ",35.414209,140.390555,"","","",NA,"千葉県",0,NA
"7749281","麺や結","〒285-0805 千葉県佐倉市小篠塚1154 ",NA,NA,"","","",NA,"千葉県",0,NA
"7691208","喜喜ラーメン 本店","〒270-0021 千葉県松戸市小金原7-9-10 ",35.813172,139.948548,"新京成電鉄","常盤平駅","徒歩17",NA,"千葉県",0,NA
"7605830","食事処みやま","〒270-0163 千葉県流山市南流山6-17-14 光ハイツ1F",35.838171,139.897668,"つくばエクスプレス","南流山駅","徒歩8",NA,"千葉県",0,NA
"7582887","札幌ラーメン どさん子 野里店","〒299-0211 千葉県袖ケ浦市野里字大坪624-5 ",35.391806,140.038222,"ＪＲ久留里線","東横田駅","徒歩9",NA,"千葉県",0,NA
"7244632","らーめん福たけ五井店","〒290-0038 千葉県市原市五井西4-2-8 ",35.516306,140.068767,"","","",NA,"千葉県",0,NA
"6973483","あさひや","〒287-0204 千葉県成田市伊能1318-1 ",35.838719,140.433798,"","","",1000,"千葉県",0,NA
"7721405","麺屋 福龍","〒287-0002 千葉県香取市北3-8-5 ",35.898386,140.496007,"JR成田線（佐倉-銚子）","佐原駅","徒歩5",NA,"千葉県",0,NA
"6181316","杏樹亭","〒272-0114 千葉県市川市塩焼3-1-4 ",35.686461,139.924216,"東京メトロ東西線","妙典駅","徒歩6",NA,"千葉県",0,NA
"6273605","横浜ラーメン 壱鉄家","〒272-0034 千葉県市川市市川2-1-12 フルールセゾン中台102号",35.730591,139.90565,"","","",NA,"千葉県",0,NA
"6905682","どうとんぼり神座 酒々井プレミアムアウトレット店","〒285-0912 千葉県印旛郡酒々井町飯積689 酒々井プレミアムアウトレットフードコート",NA,NA,"","","",NA,"千葉県",2,3.5
"6587543","豊七ラーメン","〒299-3201 千葉県大網白里市北今泉3629 ",35.493557,140.420438,"","","",NA,"千葉県",0,NA
"6715230","自家製太打麺 勢拉 行徳店","〒272-0133 千葉県市川市行徳駅前2-13-15 ",35.681519,139.913931,"東京メトロ東西線","行徳駅","徒歩4",NA,"千葉県",0,NA
"7486377","幸楽苑モリシア津田沼店","〒275-0026 千葉県習志野市谷津1-16-1 ",35.689852,140.019169,"JR総武本線（東京-銚子）","津田沼駅","徒歩3",NA,"千葉県",0,NA
"6267702","風凛","〒272-0032 千葉県市川市大洲4-8-11 ",35.719698,139.908816,"JR総武本線（東京-銚子）","市川駅","徒歩16",NA,"千葉県",0,NA
"5496432","ラーメンショップ酒々井店","〒285-0925 千葉県印旛郡酒々井町上本佐倉191-1 ",35.720771,140.260369,"京成本線","大佐倉駅","徒歩24",NA,"千葉県",0,NA
"6131528","とんこつ醤油ラーメン 麺大将 Pasar幕張","〒262-0032 千葉県千葉市花見川区幕張町2-2651-1 pasar幕張1F",35.671439,140.054004,"京成千葉線","京成幕張本郷駅","徒歩18",NA,"千葉県",0,NA
"7102842","居酒屋 川間らー麺","〒278-0055 千葉県野田市岩名2023-42 ",35.977762,139.833923,"東武野田線","川間駅","徒歩2",NA,"千葉県",0,NA
"5495849","台方ラーメン甚兵衛渡し","〒286-0006 千葉県成田市北須賀無番地 ",35.787053,140.254837,"ＪＲ成田線（我孫子-成田）","下総松崎駅","徒歩14",NA,"千葉県",0,NA
"5495410","くるまやラーメン 北谷津店","〒265-0067 千葉県千葉市若葉区北谷津町90 ",35.604777,140.197102,"千葉都市モノレール2号線","千城台駅","徒歩30",NA,"千葉県",0,NA
"6276640","北海道ラーメンロッキー秀","〒286-0221 千葉県富里市七栄446-14 ",35.738677,140.324272,"","","",NA,"千葉県",1,4.5
"5495651","ラーメン豊楽","〒294-0051 千葉県館山市正木787-23 ",35.01264,139.871509,"","","",NA,"千葉県",0,NA
"6839828","阿波両国屋 白井本店","〒270-1432 千葉県白井市富士114-47 ",NA,NA,"","","",NA,"千葉県",0,NA
"7724155","中華料理 龍屋","〒299-0111 千葉県市原市姉崎642-4 ",35.47919,140.046523,"JR内房線","姉ヶ崎駅","徒歩6",NA,"千葉県",0,NA
"7399654","麺酒場 まがり 南行徳本店","〒272-0138 千葉県市川市南行徳1-14-10 1F",35.672107,139.904514,"地下鉄東西線","南行徳駅","徒歩5",NA,"千葉県",0,NA
"5495408","金安軒","〒264-0028 千葉県千葉市若葉区桜木7-5-2 ",35.628799,140.158246,"千葉都市モノレール２号線","桜木（千葉県）駅","徒歩6",NA,"千葉県",0,NA
"6544463","珍来 牛久店","〒290-0225 千葉県市原市牛久922-2 ",35.401185,140.143126,"小湊鉄道","上総牛久駅","徒歩5",NA,"千葉県",0,NA
"6963568","天心","〒298-0012 千葉県いすみ市小沢1121-1 ",35.221806,140.382469,"JR外房線","浪花駅","徒歩6",NA,"千葉県",0,NA
"7751508","辛麺 辛坊","〒278-0022 千葉県野田市山崎2638-35 ピテ・クレール1F",35.91809,139.903914,"","","",NA,"千葉県",0,NA
"5656916","横浜ラーメン 武蔵家 西千葉店","〒260-0033 千葉県千葉市中央区春日2-19-9 ",35.622328,140.102473,"ＪＲ総武本線（東京-銚子）","西千葉駅","徒歩1",NA,"千葉県",0,NA
"5495411","江北","〒264-0026 千葉県千葉市若葉区西都賀3-18-1 ",35.636931,140.149802,"ＪＲ総武本線（東京-銚子）","都賀駅","徒歩1",NA,"千葉県",0,NA
"7685472","鶏そば やま木","〒261-0004 千葉県千葉市美浜区高洲2-3-14 高洲第一ショッピングセンター内",35.623422,140.079084,"JR京葉線","稲毛海岸駅","徒歩13",NA,"千葉県",0,NA
"5495283","一風堂 千葉店","〒260-0015 千葉県千葉市中央区富士見2-9-15 ",35.610019,140.119303,"千葉都市モノレール1号線","葭川公園駅","徒歩2",NA,"千葉県",5,3.9
"5496325","ほまれラーメン","〒270-1327 千葉県印西市大森4450-51 ",35.836922,140.13962,"JR成田線（我孫子-成田）","木下駅","徒歩11",NA,"千葉県",0,NA
"7403185","ラーメンショップ マルクニ","〒274-0082 千葉県船橋市大神保町1300-1 ",35.767306,140.063965,"","","",NA,"千葉県",0,NA
"6165023","中華そば 金ちゃん","〒279-0002 千葉県浦安市北栄2-5-20 ",35.667856,139.894081,"東京メトロ東西線","浦安（千葉県）駅","徒歩5",NA,"千葉県",0,NA
"5495316","どさんこラーメン 生実店","〒260-0813 千葉県千葉市中央区生実町1767-5 ",35.561603,140.144339,"京成千原線","学園前（千葉県）駅","徒歩20",NA,"千葉県",0,NA
"5495968","くるまやラーメン 柏大津ヶ丘店","〒277-0921 千葉県柏市大津ヶ丘1-49-3 ",35.841226,140.002962,"","","",NA,"千葉県",0,NA
"6270447","らーめん福たけ 富里店","〒286-0221 千葉県富里市七栄440-37 ",35.738563,140.327297,"","","",NA,"千葉県",0,NA
"6294122","舎鈴 プレナ幕張店","〒261-0021 千葉県千葉市美浜区ひび野2-4-1 プレナ幕張1F",35.647768,140.040411,"JR京葉線","海浜幕張駅","徒歩3",NA,"千葉県",1,2.5
"7726715","王道家 柏本店","〒277-0843 千葉県柏市明原1-7-26 ",35.862964,139.967453,"東武野田線","柏駅","徒歩5",NA,"千葉県",0,NA
"6411874","富士屋ラーメン 五井店","〒290-0038 千葉県市原市五井西5-13-1 ",35.515453,140.069494,"小湊鉄道","五井駅","徒歩29",NA,"千葉県",0,NA
"6716988","カインズキッチン カインズホーム市原店","〒290-0024 千葉県市原市根田786 ",NA,NA,"","","",NA,"千葉県",0,NA
"7464771","タイガー食堂","〒279-0032 千葉県浦安市千鳥10-7 ",35.621226,139.900296,"ディズニーリゾートライン","東京ディズニーシー駅","徒歩26",NA,"千葉県",0,NA
"5495804","寺子屋しみず","〒278-0043 千葉県野田市清水434-30 ",35.957903,139.858747,"東武野田線","清水公園駅","徒歩3",NA,"千葉県",0,NA
"7239239","とりの助 イオンモール千葉ニュータウン店","〒270-1350 千葉県印西市中央北3-2 イオンモール千葉ニュータウンモール棟1F",NA,NA,"京成成田空港線・北総鉄道線","千葉ニュータウン中央駅","徒歩8",NA,"千葉県",0,NA
"6286600","中華そば 葦屋","〒273-0031 千葉県船橋市西船4-24-5 ",35.708476,139.959152,"東京メトロ東西線","西船橋駅","徒歩20",NA,"千葉県",0,NA
"5496381","皐月","〒287-0003 千葉県香取市佐原イ597 ",35.890681,140.494993,"JR成田線（佐倉-銚子）","佐原駅","徒歩7",NA,"千葉県",0,NA
"5496060","ちばから","〒290-0072 千葉県市原市西国分寺台1-3-16 ",35.501667,140.112555,"小湊鉄道","上総村上駅","徒歩14",NA,"千葉県",2,5
"5496276","ラーメンショップ 大日店","〒284-0001 千葉県四街道市大日466-5 ",35.677593,140.161766,"JR総武本線（東京-銚子）","四街道駅","徒歩20",NA,"千葉県",0,NA
"6014871","味楽","〒263-0023 千葉県千葉市稲毛区緑町1-9-16 ",35.625272,140.097601,"京成千葉線","みどり台駅","徒歩1",NA,"千葉県",0,NA
"7089703","金華","〒273-0047 千葉県船橋市藤原2-17-17 ",35.73126,139.968561,"ＪＲ武蔵野線（府中本町-南船橋）","船橋法典駅","徒歩3",NA,"千葉県",0,NA
"5496423","みそ膳","〒299-4503 千葉県いすみ市岬町和泉357 ",35.321827,140.402521,"","","",NA,"千葉県",0,NA
"7304176","中華そば 亀喜屋","〒265-0045 千葉県千葉市若葉区上泉町616-4 ",35.625168,140.23594,"","","",NA,"千葉県",0,NA
"5496478","来来","〒298-0212 千葉県夷隅郡大多喜町猿稲426-1 ",35.296144,140.248327,"いすみ鉄道","城見ヶ丘駅","徒歩12",NA,"千葉県",0,NA
"5137047","あざみ","〒299-5218 千葉県勝浦市小羽戸423 ",NA,NA,"","","",1000,"千葉県",0,NA
"5495878","千成らーめん 佐倉西店","〒285-0804 千葉県佐倉市馬渡1180-1 ",35.665385,140.221831,"","","",NA,"千葉県",0,NA
"7219765","ほりうち食堂","〒263-0003 千葉県千葉市稲毛区小深町109 ",35.659298,140.151584,"ＪＲ総武本線（東京-銚子）","四街道駅","徒歩16",NA,"千葉県",0,NA
"5496081","ラーメン旭日","〒290-0205 千葉県市原市山田756-1-4 ",35.457792,140.123462,"小湊鉄道","上総山田駅","徒歩8",NA,"千葉県",0,NA
"5495412","幸楽苑 東寺山店","〒264-0035 千葉県千葉市若葉区東寺山町443-1 ",35.629031,140.130129,"千葉都市モノレール２号線","みつわ台駅","徒歩17",NA,"千葉県",0,NA
"6956958","ラーメン 定食 晩酌 たまや","〒299-5225 千葉県勝浦市墨名801-24 タウンズビル勝浦101",35.149209,140.313744,"JR外房線","勝浦駅","徒歩6",NA,"千葉県",0,NA
"7617137","舎鈴 イオンモール船橋店","〒273-0045 千葉県船橋市山手1-1-8 イオンモール船橋 3Fフードコート",35.712595,139.9784,"東武野田線","新船橋駅","徒歩5",NA,"千葉県",0,NA
"7632819","麺BUILD g．B．m","〒290-0061 千葉県市原市八幡石塚1-19-5 石塚マンション 101",35.539886,140.129299,"JR内房線","八幡宿駅","徒歩14",NA,"千葉県",0,NA
"5654598","麺屋一番亭","〒270-1516 千葉県印旛郡栄町安食2172-1 ",35.836483,140.24908,"JR成田線（我孫子-成田）","安食駅","徒歩9",NA,"千葉県",0,NA
"7205334","ラーメンショップ 野田店","〒270-0213 千葉県野田市桐ヶ作890-2 ",36.053119,139.805271,"","","",NA,"千葉県",0,NA
"5495532","山ちゃんらーめん","〒272-0132 千葉県市川市湊新田2-9-11 ",35.677759,139.912298,"東京メトロ東西線","行徳駅","徒歩10",NA,"千葉県",0,NA
"6277364","横浜家系 肉そば家","〒277-0075 千葉県柏市南柏中央1-4 君塚ビル1F",35.844191,139.953652,"ＪＲ常磐線","南柏駅","徒歩14",NA,"千葉県",0,NA
"6903797","味噌屋庄助 仁戸名店","〒260-0801 千葉県千葉市中央区仁戸名町480-255 ",35.587806,140.161184,"京成千原線","大森台駅","徒歩18",NA,"千葉県",2,NA
"5495798","らあめん まるおう","〒270-0228 千葉県野田市次木337 ",36.037532,139.821331,"","","",NA,"千葉県",0,NA
"5495405","ラーメンとん太 山王店","〒263-0002 千葉県千葉市稲毛区山王町144-1 ",35.663525,140.141052,"","","",NA,"千葉県",0,NA
"5808716","麺場 田所商店 本店","〒262-0031 千葉県千葉市花見川区武石町1-227-1 ",35.671297,140.064719,"京成千葉線","京成幕張駅","徒歩19",NA,"千葉県",3,3.83333333333333
"7690362","大勝軒next 勝浦ビーチ店","〒299-5223 千葉県勝浦市部原1951-3 ",35.169869,140.337963,"","","",NA,"千葉県",0,NA
"7582884","札幌ラーメン どさん子 馬立店","〒290-0221 千葉県市原市馬立2062-1 ",35.438111,140.117324,"小湊鉄道小湊鉄道線","光風台駅","徒歩7",NA,"千葉県",0,NA
"6839830","ゆきき","〒274-0063 千葉県船橋市習志野台1-25-14 ",35.724846,140.040369,"東葉高速線","北習志野駅","徒歩7",NA,"千葉県",0,NA
"7403212","京都北白川 ラーメン魁力屋 木更津店","〒292-0009 千葉県木更津市金田東6-27-1 ",35.429854,139.929721,"","","",NA,"千葉県",0,NA
"5495403","ラーメンショップ 穴川","〒263-0051 千葉県千葉市稲毛区園生町889-4 ",35.643129,140.108253,"千葉都市モノレール２号線","穴川（千葉県）駅","徒歩7",NA,"千葉県",0,NA
"7744429","麺屋 真星","〒279-0002 千葉県浦安市北栄2-19-26 ",35.670576,139.894709,"","","",NA,"千葉県",0,NA
"7524093","横浜家系ラーメン壱角家","〒270-2213 千葉県松戸市五香2-12-1 ",35.795566,139.969961,"新京成電鉄","五香駅","徒歩6",NA,"千葉県",0,NA
"6965954","麺屋 月影 君津大和田店","〒299-1146 千葉県君津市大和田4-1-1 ",35.334524,139.881656,"ＪＲ内房線","君津駅","徒歩17",NA,"千葉県",0,NA
"7135342","雷神屋","〒264-0006 千葉県千葉市若葉区小倉台2-1-7 ",35.627344,140.171356,"千葉都市モノレール2号線","小倉台駅","徒歩1",NA,"千葉県",0,NA
"5495443","ラーメンSunQ 2号店","〒266-0004 千葉県千葉市緑区平川町1622-3 ",35.541835,140.234327,"ＪＲ外房線","誉田駅","徒歩25",NA,"千葉県",0,NA
"7592968","麺家 ぼくんち","〒275-0016 千葉県習志野市津田沼3-20-17 ",35.687475,140.029438,"新京成電鉄","新津田沼駅","徒歩8",NA,"千葉県",0,NA
"5553211","寺田家 北柏店","〒277-0832 千葉県柏市北柏3-21-7 ",35.86975,139.98957,"JR常磐線","北柏駅","徒歩10",NA,"千葉県",0,NA
"7604942","餃子バル 福スケ","〒286-0033 千葉県成田市花崎町750-1 沢田ビルB1",35.777672,140.317628,"京成本線","京成成田駅","徒歩4",NA,"千葉県",0,NA
"6403308","ラーメンショップ鎌ケ谷","〒273-0115 千葉県鎌ケ谷市東道野辺4-9-38 ",35.754152,140.004604,"新京成電鉄","鎌ヶ谷大仏駅","徒歩14",NA,"千葉県",0,NA
"6430079","丸源ラーメン 北習志野店","〒274-0063 千葉県船橋市習志野台2-12-21 ",35.72391,140.041952,"","","",NA,"千葉県",0,NA
"6411872","幸楽苑 島忠ホームズ蘇我店","〒260-0835 千葉県千葉市中央区川崎町55-3 ",35.584852,140.123473,"ＪＲ京葉線","蘇我駅","徒歩14",NA,"千葉県",0,NA
"5025575","さつまっ子 臼井店","〒285-0837 千葉県佐倉市王子台3-26-10 ",35.724588,140.179443,"京成本線","京成臼井駅","徒歩10",NA,"千葉県",0,NA
"1012954","麺屋 翼","〒273-0033 千葉県船橋市本郷町421-2 大塚ビル1F",35.707573,139.954935,"東京メトロ東西線","西船橋駅","徒歩6",NA,"千葉県",1,5
"7213839","せい家下総中山店","〒273-0035 千葉県船橋市本中山2-18-8 光信ビル1F",35.714925,139.943078,"ＪＲ総武本線（東京-銚子）","下総中山駅","徒歩1",NA,"千葉県",0,NA
"7403204","日本の中華そば 富田","〒286-0116 千葉県成田市三里塚御料牧場1-1 第1ターミナル中央ビル4F",35.76517,140.384549,"連絡バス（成田空港-羽田空港）","成田空港第1ターミナル駅","徒歩1",NA,"千葉県",0,NA
"7006054","悠来","〒287-0003 千葉県香取市佐原イ93-4 ",35.893961,140.494096,"JR成田線（佐倉-銚子）","佐原駅","徒歩1",NA,"千葉県",0,NA
"7510639","節骨麺たいぞう 本八幡店","〒272-0021 千葉県市川市八幡2-4-11 シティパルもとやわた1F",35.722693,139.92817,"京成本線","京成八幡駅","徒歩2",NA,"千葉県",0,NA
"5496117","麺屋あじくま 初石店","〒270-0121 千葉県流山市西初石3-98-22 本山ビル1F",35.884216,139.91712,"東武野田線","初石駅","徒歩1",NA,"千葉県",0,NA
"7721526","百年味噌ラーメン 竹富商店","〒292-0044 千葉県木更津市太田1-3-9 ドリームビレッジ太田内",NA,NA,"JR久留里線","祇園（千葉県）駅","徒歩15",NA,"千葉県",0,NA
"6282647","幸楽苑 船橋市場通店","〒273-0865 千葉県船橋市夏見1-4-60 ",35.706805,139.986669,"東葉高速線","東海神駅","徒歩7",NA,"千葉県",1,4.5
"5617589","竹亭","〒273-0021 千葉県船橋市海神6-20-23 ",35.705029,139.969309,"京成本線","海神駅","徒歩5",NA,"千葉県",0,NA
"6183264","ヨシベー八千代店","〒276-0046 千葉県八千代市大和田新田138-74 ",35.723317,140.089798,"東葉高速線","八千代中央駅","徒歩2",NA,"千葉県",1,3.5
"5495975","幸楽苑 若柴店","〒277-0871 千葉県柏市若柴226-15 ",NA,NA,"つくばエクスプレス","柏の葉キャンパス駅","徒歩8",NA,"千葉県",0,NA
"6914331","背脂らーめん宮本 東金店","〒283-0802 千葉県東金市東金547-1 畔蒜不動産第2ビル1F",35.556876,140.369018,"JR東金線","東金駅","徒歩8",NA,"千葉県",0,NA
"6514273","てらッちょ柏店","〒277-0005 千葉県柏市柏1-6-15 ",35.860373,139.972753,"東武野田線","柏駅","徒歩4",NA,"千葉県",0,NA
"7582881","札幌ラーメン どさん子 小湊店","〒299-5501 千葉県鴨川市内浦27-1 ",35.124697,140.184988,"ＪＲ外房線","安房小湊駅","徒歩8",NA,"千葉県",0,NA
"6316544","幸楽苑 八千代台店","〒276-0034 千葉県八千代市八千代台西9-15-3 ",35.694959,140.081692,"京成本線","八千代台駅","徒歩15",NA,"千葉県",0,NA
"5496150","ラーメン明日香 勝田台店","〒276-0023 千葉県八千代市勝田台1-16 E-102",NA,NA,"京成本線","勝田台駅","徒歩2",NA,"千葉県",0,NA
"7640843","餃子の王様 龍吟 ペリエ千葉店","〒260-0031 千葉県千葉市中央区新千葉1-1-1 本館B1Fペリチカバル",35.612444,140.114589,"千葉都市モノレール1号線","千葉駅","徒歩1",NA,"千葉県",0,NA
"7565647","うま煮ラーメン醤 成東店","〒289-1326 千葉県山武市成東1808-1 ",35.596056,140.398005,"JR東金線","成東駅","徒歩26",NA,"千葉県",0,NA
"5495607","麺屋 ふく","〒274-0805 千葉県船橋市二和東2-3-17 ",35.745238,140.022645,"新京成電鉄","三咲駅","徒歩9",NA,"千葉県",0,NA
"7092227","光の葉","〒290-0038 千葉県市原市五井西5-12-7 グランドール 101",35.514792,140.067672,"","","",NA,"千葉県",0,NA
"5026370","めんぐるめん","〒299-1152 千葉県君津市久保1-1 アピタ君津2Ｆ",NA,NA,"JR内房線","君津駅","徒歩4",NA,"千葉県",0,NA
"7416745","ラーメン現代","〒270-0033 千葉県松戸市新松戸東8-1 ",35.827045,139.924461,"流鉄流山線","幸谷駅","徒歩9",NA,"千葉県",0,NA
"5496446","昇龍","〒299-3202 千葉県大網白里市南今泉1046-2 ",35.490932,140.404201,"","","",NA,"千葉県",0,NA
"6965944","らぁーめん たむぞう","〒299-0126 千葉県市原市天羽田541 ",35.429479,140.044867,"","","",NA,"千葉県",0,NA
"6914320","丸源ラーメン 成田店","〒286-0134 千葉県成田市東和田字高崎565-6 ",NA,NA,"京成本線","京成成田駅","徒歩16",NA,"千葉県",0,NA
"7734877","ケンラボ","〒270-0163 千葉県流山市南流山4-4-2 近代コーポ1F",35.841046,139.903095,"つくばエクスプレス","南流山駅","徒歩4",NA,"千葉県",0,NA
"6374640","らーめん どてちん","〒286-0041 千葉県成田市飯田町161-11 ",35.768026,140.30064,"京成本線","公津の杜駅","徒歩4",NA,"千葉県",2,4
"6740552","はにわラーメン","〒289-1501 千葉県山武市松尾町山室132-7 ",35.678831,140.425422,"","","",NA,"千葉県",0,NA
"6302849","ラーメンショップ 八柱店","〒270-2253 千葉県松戸市日暮6-190 ",35.790602,139.943369,"JR武蔵野線（府中本町-南船橋）","新八柱駅","徒歩7",NA,"千葉県",0,NA
"7505256","麺処・餃子処 TESHI","〒277-0021 千葉県柏市中央町5-22 1F",35.859134,139.972106,"東武野田線","柏駅","徒歩4",NA,"千葉県",0,NA
"7661616","美楽","〒289-1104 千葉県八街市文違159-14 ",35.675648,140.323053,"JR総武本線（東京-銚子）","八街駅","徒歩21",NA,"千葉県",0,NA
"7271407","麺屋 なか邑","〒270-0237 千葉県野田市中里718-1 ",35.996065,139.843953,"","","",NA,"千葉県",0,NA
"5495937","くるまやラーメン実籾店","〒275-0002 千葉県習志野市実籾3-24-1 ",35.683815,140.071576,"京成本線","実籾駅","徒歩6",NA,"千葉県",0,NA
"5496355","たつみ中華","〒299-2403 千葉県南房総市富浦町原岡456 ",35.044586,139.837977,"JR内房線","富浦（千葉県）駅","徒歩1",NA,"千葉県",0,NA
"7254848","麺屋雷神","〒273-0123 千葉県鎌ケ谷市南初富4-1-34 ",35.772664,140.004001,"新京成電鉄","初富駅","徒歩5",NA,"千葉県",0,NA
"7651314","麺屋黄門さま","〒264-0026 千葉県千葉市若葉区西都賀3-5-1 ",35.636961,140.148163,"JR総武本線（東京-銚子）","都賀駅","徒歩1",NA,"千葉県",0,NA
"5495611","由次郎ラーメン","〒274-0812 千葉県船橋市三咲3-1-17 ",35.749618,140.031033,"新京成電鉄","三咲駅","徒歩9",NA,"千葉県",0,NA
"6631725","幸楽苑 イオンおゆみ野店","〒266-0033 千葉県千葉市緑区おゆみ野南5-37-1 イオンおゆみ野店",35.544758,140.17492,"京成千原線","おゆみ野駅","徒歩13",NA,"千葉県",1,NA
"7744455","博多・長浜らーめん 一途","〒292-0051 千葉県木更津市清川2-12-9 ",35.388801,139.966114,"","","",NA,"千葉県",0,NA
"7355532","横浜中華ハングリーパンダ アリオ市原店","〒290-0050 千葉県市原市更級4-3-2 アリオ市原2F",35.508305,140.101481,"小湊鉄道","五井駅","徒歩18",NA,"千葉県",0,NA
"7357278","魂心家船橋店","〒273-0005 千葉県船橋市本町3-36-34 石井ビル1F",35.697125,139.985775,"京成本線","京成船橋駅","徒歩5",NA,"千葉県",0,NA
"7582886","札幌ラーメン どさん子 袖ヶ浦店","〒299-0253 千葉県袖ケ浦市大曽根469 ",35.414084,140.014813,"ＪＲ久留里線","東横田駅","徒歩9",NA,"千葉県",0,NA
"5630717","竹岡ラーメン バイパス店","〒292-0014 千葉県木更津市高柳4-5-14 ",35.407995,139.946295,"JR内房線","巌根駅","徒歩19",NA,"千葉県",0,NA
"6164994","中華そば 志の田","〒270-2241 千葉県松戸市松戸新田573-2 ニューコーポ稔台1F",35.788438,139.928201,"新京成電鉄","みのり台駅","徒歩11",NA,"千葉県",0,NA
"7382332","センワ屋","〒277-0055 千葉県柏市青葉台1-24-7 ",35.815053,139.960297,"新京成電鉄","常盤平駅","徒歩25",NA,"千葉県",0,NA
"5495574","山海らーめん","〒273-0864 千葉県船橋市北本町1-4-5 ",35.707277,139.982736,"東葉高速線","東海神駅","徒歩2",NA,"千葉県",0,NA
"5495874","元祖 札幌や","〒285-0854 千葉県佐倉市上座1239-1 ",35.724279,140.158442,"山万ユーカリが丘線","ユーカリが丘駅","徒歩4",NA,"千葉県",0,NA
"6335948","萬味ラーメン","〒277-0852 千葉県柏市旭町1-11-1 ",NA,NA,"東武野田線","柏駅","徒歩4",NA,"千葉県",0,NA
"5495517","にゃがにゃが亭","〒272-0141 千葉県市川市香取1-4-9 ",35.680472,139.905638,"東京メトロ東西線","行徳駅","徒歩13",NA,"千葉県",2,3
"5496299","らーめんとも","〒299-0246 千葉県袖ケ浦市長浦駅前3-3-1 ",35.448184,140.00055,"JR内房線","長浦（千葉県）駅","徒歩7",NA,"千葉県",0,NA
"5608634","純輝 白井店","〒270-1404 千葉県白井市折立591-20 ",35.805253,140.044837,"","","",NA,"千葉県",1,4
"5495669","竹岡らーめん 清見台店","〒292-0045 千葉県木更津市清見台2-6-13 ",35.383334,139.947438,"JR久留里線","祇園（千葉県）駅","徒歩11",NA,"千葉県",0,NA
"5894883","せい拉 北習志野店","〒274-0063 千葉県船橋市習志野台2-73-14 ",NA,NA,"東葉高速線","北習志野駅","徒歩11",NA,"千葉県",1,NA
"5395787","竜花","〒264-0032 千葉県千葉市若葉区みつわ台5-31-16 ",35.647435,140.139181,"千葉都市モノレール2号線","みつわ台駅","徒歩15",NA,"千葉県",0,NA
"7656413","幸楽苑 館山店","〒294-0037 千葉県館山市長須賀460 ",34.991729,139.879345,"JR内房線","館山駅","徒歩23",NA,"千葉県",0,NA
"5914511","珍来 前原店","〒274-0822 千葉県船橋市飯山満町2-548-5 ",35.705139,140.025452,"新京成電鉄","前原駅","徒歩6",NA,"千葉県",0,NA
"5496176","大龍","〒296-0041 千葉県鴨川市東町1048 ",35.121896,140.136416,"JR外房線","安房天津駅","徒歩28",NA,"千葉県",0,NA
"6316546","幸楽苑 浦安店","〒279-0041 千葉県浦安市堀江1-11-11 ",NA,NA,"東京メトロ東西線","浦安（千葉県）駅","徒歩19",NA,"千葉県",0,NA
"7208378","麺処 サッポロ軒","〒261-0002 千葉県千葉市美浜区新港32-6 ミハマ・ニュ-ポ-ト・リゾ-ト2号棟「湯けむり横丁」みはま店内",35.621075,140.08655,"JR京葉線","稲毛海岸駅","徒歩24",NA,"千葉県",0,NA
"6126948","らーめん 一真堂","〒277-0827 千葉県柏市松葉町6-1-7 ",35.889692,139.975865,"JR常磐線","北柏駅","徒歩25",NA,"千葉県",0,NA
"7745872","味噌ラーメン専門店 日月堂 南流山店","〒270-0161 千葉県流山市鰭ケ崎11-12 ",35.839757,139.907192,"","","",NA,"千葉県",0,NA
"7271084","ここ一","〒274-0825 千葉県船橋市前原西5-3-4 ",35.697079,140.020577,"新京成電鉄","前原駅","徒歩12",NA,"千葉県",0,NA
"7479290","ラーメン楢蔵","〒263-0051 千葉県千葉市稲毛区園生町406-7 石渡ビル1F",35.654192,140.123009,"千葉都市モノレール2号線","スポーツセンター駅","徒歩20",NA,"千葉県",0,NA
"5026523","コロッケ屋","〒289-1124 千葉県八街市山田台225 ",35.574222,140.290412,"","","",NA,"千葉県",0,NA
"6164998","帯広ロッキー 大網店","〒299-4116 千葉県茂原市高田535-1 ",35.500328,140.317538,"ＪＲ外房線","永田（千葉県）駅","徒歩3",NA,"千葉県",1,4
"5496038","ラーメン王将 五井店","〒290-0037 千葉県市原市飯沼136-7 ",35.505235,140.072631,"","","",NA,"千葉県",0,NA
"5898769","くるまやラーメン 四街道店","〒284-0001 千葉県四街道市大日1807 ",35.695338,140.158016,"","","",NA,"千葉県",0,NA
"5496179","馬琴","〒296-0004 千葉県鴨川市貝渚308-1 ",35.104656,140.096036,"JR内房線","安房鴨川駅","徒歩11",NA,"千葉県",0,NA
"7456541","麺や 盛多","〒278-0034 千葉県野田市上花輪新町38-33 ",35.935031,139.864361,"東武野田線","野田市駅","徒歩16",NA,"千葉県",0,NA
"5496063","珍来 市原店","〒290-0059 千葉県市原市白金町4-10 ",35.527469,140.099011,"小湊鉄道","五井駅","徒歩27",NA,"千葉県",0,NA
"7210263","なりたけ","〒274-0825 千葉県船橋市前原西2-11-7 第２矢野ビル　１Ｆ",NA,NA,"","","",NA,"千葉県",4,4.375
"5495675","ラーメン林家 木更津店","〒292-0055 千葉県木更津市朝日3-6-15 ",35.386806,139.937289,"JR久留里線","祇園（千葉県）駅","徒歩15",NA,"千葉県",0,NA
"6900573","めん丸 佐倉藤沢店","〒285-0036 千葉県佐倉市藤沢町44-1 ",35.720377,140.249515,"京成本線","大佐倉駅","徒歩26",NA,"千葉県",0,NA
"6996141","麺屋お浦","〒273-0122 千葉県鎌ヶ谷市東初富6-7-21 ",35.761346,140.011992,"新京成電鉄","鎌ヶ谷大仏駅","徒歩6",NA,"千葉県",0,NA
"6183258","中華そば 匠","〒267-0066 千葉県千葉市緑区あすみが丘4-2-7 ",35.522316,140.267841,"ＪＲ外房線","土気駅","徒歩13",NA,"千葉県",0,NA
"6716487","青柳ラー麺","〒299-0102 千葉県市原市青柳686 ",35.505885,140.063259,"","","",NA,"千葉県",0,NA
"7061531","増田家 西船橋店","〒273-0031 千葉県船橋市西船4-26-8 サンアイビル1F",35.708304,139.959718,"東京メトロ東西線","西船橋駅","徒歩1",NA,"千葉県",0,NA
"6768635","ラーメン幸樂","〒273-0003 千葉県船橋市宮本6-28-7 ",35.697014,139.996104,"京成本線","大神宮下駅","徒歩8",NA,"千葉県",0,NA
"5827084","茅橋らーめん","〒270-1345 千葉県印西市船尾1409-2 ",35.792554,140.1323,"京成成田空港線・北総鉄道線","千葉ニュータウン中央駅","徒歩28",NA,"千葉県",1,4
"7279735","らぁ麺 家康 極","〒289-2505 千葉県旭市鎌数2544-13 ",35.744593,140.630163,"","","",NA,"千葉県",0,NA
"7218460","中華蕎麦 みやま","〒277-0835 千葉県柏市松ヶ崎517-3 山澤マンション 101",35.880618,139.978896,"JR常磐線","北柏駅","徒歩15",NA,"千葉県",0,NA
"5496399","中華らーめん はなまる","〒289-1521 千葉県山武市松尾町本柏3256-1 ",35.630101,140.472956,"JR総武本線（東京-銚子）","松尾（千葉県）駅","徒歩24",NA,"千葉県",0,NA
"6270434","らーめん 梅のや 芦崎店","〒288-0861 千葉県銚子市芦崎町928-1 ",35.753371,140.775139,"ＪＲ成田線（佐倉-銚子）","椎柴駅","徒歩26",NA,"千葉県",1,3
"5495575","志源商塾","〒273-0004 千葉県船橋市南本町1-14 ",35.69735,139.980289,"京成本線","京成船橋駅","徒歩8",NA,"千葉県",0,NA
"7403178","壱角家 西船橋店","〒273-0031 千葉県船橋市西船4-26-8 FB-TERRACE 1F",35.708304,139.959718,"東京メトロ東西線","西船橋駅","徒歩1",NA,"千葉県",0,NA
"6911186","蔵出し味噌 麺場 喜久屋 白金店","〒290-0059 千葉県市原市白金町3-64-1 ",NA,NA,"小湊鉄道","五井駅","徒歩25",NA,"千葉県",0,NA
"6270437","幸楽苑 東松戸駅前店","〒270-2221 千葉県松戸市紙敷933-1 ",35.76763,139.942201,"JR武蔵野線（府中本町-南船橋）","東松戸駅","徒歩5",NA,"千葉県",0,NA
"6743485","ラーメンショップ　山倉店","〒290-0022 千葉県市原市西広6-5-11 ",35.487683,140.125416,"小湊鉄道","海士有木駅","徒歩11",NA,"千葉県",0,NA
"5801546","らあめん花月嵐 ニッケルコルトンプラザ店","〒272-0015 千葉県市川市鬼高1-1-1 ニッケコルトンプラザ3F",35.716788,139.934226,"京成本線","鬼越駅","徒歩8",NA,"千葉県",0,NA
"5495608","盛壱","〒274-0063 千葉県船橋市習志野台5-11-8 ",35.717114,140.053665,"新京成電鉄","習志野駅","徒歩14",NA,"千葉県",0,NA
"6351666","かいざん 西船橋店","〒273-0025 千葉県船橋市印内町599-3 ",35.706654,139.958421,"東京メトロ東西線","西船橋駅","徒歩1",NA,"千葉県",0,NA
"5396653","レジエ","〒299-3202 千葉県大網白里市南今泉25-4 ",35.493468,140.396926,"","","",NA,"千葉県",0,NA
"5495415","らーめん亭 山頭軒","〒264-0006 千葉県千葉市若葉区小倉台6-26-11 ",35.628649,140.179106,"千葉都市モノレール２号線","千城台北駅","徒歩4",NA,"千葉県",0,NA
"5917491","増田家 海浜幕張店","〒261-0021 千葉県千葉市美浜区ひび野1-14 aune幕張1F",35.648443,140.042583,"JR京葉線","海浜幕張駅","徒歩1",NA,"千葉県",0,NA
"5496056","タンタンメン天天","〒290-0038 千葉県市原市五井西5-13-1 ",35.515453,140.069494,"小湊鉄道","五井駅","徒歩29",NA,"千葉県",0,NA
"5801973","玉子家らーめん","〒283-0068 千葉県東金市東岩崎2-10 ",35.560441,140.365402,"連絡バス（[東京]羽田空港-東金）","東金駅","徒歩2",NA,"千葉県",0,NA
"5026956","お食事処 やちよ","〒297-0112 千葉県長生郡長南町米満567-1 ",35.414672,140.251789,"","","",NA,"千葉県",0,NA
"7092321","ゴッチ","〒283-0068 千葉県東金市東岩崎1-12 ",35.559615,140.367209,"連絡バス（［東京］羽田空港-東金）","東金駅","徒歩5",NA,"千葉県",0,NA
"5495623","らーめんやひろ","〒273-0866 千葉県船橋市夏見台4-7-11 ",35.726411,139.994864,"東武野田線","塚田駅","徒歩18",NA,"千葉県",0,NA
"6199000","鉄鍋らあめん権左衛門","〒272-0811 千葉県市川市北方町4-1863-2 ",35.728507,139.959295,"JR武蔵野線（府中本町-南船橋）","船橋法典駅","徒歩10",NA,"千葉県",0,NA
"5496214","幸楽苑 君津店","〒299-1174 千葉県君津市法木作1-1-55 ",35.322529,139.92582,"","","",NA,"千葉県",0,NA
"6914279","麺屋 こはく","〒290-0071 千葉県市原市北国分寺台1-8-1 ",35.506097,140.118019,"小湊鉄道","上総村上駅","徒歩27",NA,"千葉県",0,NA
"5495682","ラーメン大将","〒292-0054 千葉県木更津市長須賀212 ",35.386703,139.932992,"連絡バス（［東京］羽田空港-木更津）","木更津駅","徒歩12",NA,"千葉県",0,NA
"5496065","地どりラーメン","〒290-0024 千葉県市原市根田4-5-37 ",35.505183,140.107364,"小湊鉄道","上総村上駅","徒歩17",NA,"千葉県",0,NA
"7463924","千客万来 ZOZOマリンスタジアム","〒261-0022 千葉県千葉市美浜区美浜1 ZOZOマリンスタジアム内",35.646437,140.030912,"JR京葉線","海浜幕張駅","徒歩17",NA,"千葉県",0,NA
"6393909","ぼのぼの","〒283-0802 千葉県東金市東金128-2 ",35.551463,140.362679,"JR東金線","東金駅","徒歩15",NA,"千葉県",0,NA
"5801555","くるまやラーメン 南流山店","〒270-0163 千葉県流山市南流山1-15-9 ",35.838507,139.908028,"JR武蔵野常磐連絡線（南流山-北小金）","南流山駅","徒歩6",NA,"千葉県",0,NA
"5496329","岩間らーめん","〒270-1416 千葉県白井市神々廻1865 ",35.808101,140.086526,"","","",NA,"千葉県",0,NA
"7472343","麺屋こころ 柏店","〒277-0005 千葉県柏市柏2-9-9 ",35.862439,139.973952,"東武野田線","柏駅","徒歩2",NA,"千葉県",0,NA
"5496313","らーめんがんこ屋 八街店","〒289-1123 千葉県八街市滝台421 ",35.591385,140.320095,"","","",NA,"千葉県",0,NA
"6514277","三ツ矢堂製麺 流山おおたかの森店","〒270-0121 千葉県流山市西初石6-185-2 流山おおたかの森SC3F",35.870134,139.923962,"つくばエクスプレス","流山おおたかの森駅","徒歩4",NA,"千葉県",1,5
"7484156","麺屋 湊","〒284-0016 千葉県四街道市もねの里1-2-5 ",35.687376,140.184086,"JR総武本線（東京-銚子）","物井駅","徒歩24",NA,"千葉県",0,NA
"5496418","くるまやラーメン 大原店","〒298-0004 千葉県いすみ市大原8315-13 ",35.242851,140.392561,"いすみ鉄道","大原（千葉県）駅","徒歩13",NA,"千葉県",0,NA
