"ID","Name","Pref","Zipcode","Latitude","Longitude","Line","Station","Walk","Bus","Car","Budget","ScoreN","Score"
"e539604","居酒屋 龍記 京橋店","東京都",1040031,35.675639,139.768106,"地下鉄有楽町線","銀座一丁目駅",3,NA,NA,3000,0,NA
"gfeb600","本格上海料理 新錦江 上野御徒町本店","東京都",1100005,35.70516,139.775679,"地下鉄日比谷線","仲御徒町駅",1,NA,NA,2000,2,4.5
"ggt5900","食べ飲み放題×中華ビストロ NOZOMI（のぞみ）","東京都",1250041,35.770366,139.872101,"ＪＲ常磐線","金町駅",2,NA,NA,2980,0,NA
"g181340","博多餃子軒 八王子店 タピオカ店 Bull Pulu（ブルプル）併設","東京都",1920904,35.654648,139.337483,"ＪＲ","八王子駅",1,NA,NA,2000,0,NA
"ggww100","まさ屋 渋谷店","東京都",1500042,35.662647,139.697296,"地下鉄半蔵門線","渋谷駅",7,NA,NA,380,0,NA
"gdzk500","完全個室 上海レストラン 檸檬 霞ヶ関ビル内店","東京都",1000013,35.67144,139.747543,"地下鉄銀座線","虎ノ門駅",3,NA,NA,2980,0,NA
"ga2g202","鶏そば きらり","東京都",1760006,35.737104,139.671286,"西武池袋線","江古田駅",2,NA,NA,850,0,NA
"gg9m100","宴会個室×餃子酒場 北京飯店 秋葉原本店","東京都",1010021,35.701294,139.772105,"ＪＲ","秋葉原駅",4,NA,NA,2000,3,3.33333333333333
"gdvk200","中国料理 宝龍","東京都",1000006,35.675093,139.763669,"ＪＲ","有楽町駅",1,NA,NA,1000,2,2.5
"gggb200","中国料理 天安門","東京都",1140002,35.754986,139.73796,"地下鉄南北線","王子駅",2,NA,NA,2000,0,NA
"a321508","麺達 うま家","東京都",1690075,35.714075,139.703884,"ＪＲ","高田馬場駅",1,NA,NA,800,2,3
"ggwj600","中華食堂 一番館 大森駅前店","東京都",1430016,35.588015,139.728667,"ＪＲ京浜東北線","大森駅",1,NA,NA,1000,0,NA
"g314424","刀削麺・火鍋・西安料理 XI’AN（シーアン） 後楽園店","東京都",1120002,35.708717,139.751389,"地下鉄丸ノ内線","後楽園駅",1,NA,NA,3000,1,NA
"a321510","吟風 赤羽店","東京都",1150045,35.779364,139.724357,"ＪＲ","赤羽駅",5,NA,NA,650,0,NA
"a321507","吟太","東京都",1440051,35.563567,139.716061,"ＪＲ京浜東北線","蒲田駅",2,NA,NA,650,0,NA
"p645304","からあげバル ハイカラ 新小岩店","東京都",1240023,35.718283,139.858241,"ＪＲ総武線","新小岩駅",1,NA,NA,3000,0,NA
"gg5f414","旭川味噌ラーメン ばんから 上野店","東京都",1100005,35.708035,139.773979,"ＪＲ","御徒町駅",1,NA,NA,1000,0,NA
"a858210","ラーメン玉 赤備 アクアシティ お台場店","東京都",1358707,35.627819,139.773568,"ゆりかもめ","台場駅",5,NA,NA,1000,0,NA
"gffc200","七志らーめん 渋谷道玄坂店","東京都",1500043,35.658968,139.698107,"ＪＲ","渋谷駅",2,NA,NA,900,7,4.5
"b990000","永楽","東京都",1330051,35.740491,139.889241,"京成本線","京成小岩駅",6,NA,NA,980,6,4.41666666666667
"ge9n604","よってこや お台場店","東京都",1350091,35.629089,139.776013,"ゆりかもめ","お台場海浜公園駅",4,NA,NA,1000,1,4
"gfp1000","ラーメン武藤製麺所","東京都",1210813,35.795065,139.792057,"東武伊勢崎線（東武スカイツリーライン）","竹ノ塚駅",2,NA,NA,900,4,3.5
"gesm800","桂花ラーメン 新宿末広店","東京都",1600022,35.690843,139.706058,"都営新宿線","新宿三丁目駅",1,NA,NA,900,8,3
"gfrg800","八雲","東京都",1530043,35.650084,139.686864,"東急田園都市線","池尻大橋駅",4,NA,NA,900,0,NA
"e642000","北斗 新橋店","東京都",1050004,35.66544,139.757946,"ＪＲ","新橋駅",1,NA,NA,1000,4,2.5
"gesm802","桂花ラーメン 新宿ふぁんてん","東京都",1600022,35.693075,139.702214,"ＪＲ","新宿駅",1,NA,NA,900,9,3.16666666666667
"gesm801","桂花ラーメン 新宿東口駅前店","東京都",1600022,35.692754,139.701986,"ＪＲ","新宿駅",1,NA,NA,900,7,3.5
"ge48900","まさ吉","東京都",1520002,35.619646,139.701115,"東急目黒線","武蔵小山駅",4,NA,NA,4000,2,NA
"gc77004","魚介系醤油ラーメン せたが屋 アクアシティお台場店","東京都",1350091,35.627819,139.773568,"ゆりかもめ","台場駅",1,NA,NA,900,0,NA
"gfrk804","麻布ラーメン 麻布十番店","東京都",1060045,35.656615,139.736467,"地下鉄南北線","麻布十番駅",4,NA,NA,1000,2,4
"gftn103","東京餃子楼 茶沢通り店","東京都",1540004,35.646013,139.670103,"東急世田谷線","三軒茶屋駅",4,NA,NA,2000,3,3
"gfs8000","SOBAHOUSE 金色不如帰","東京都",1600022,35.688771,139.708241,"地下鉄丸ノ内線","新宿御苑前駅",2,NA,NA,950,4,4.83333333333333
"e645906","珍味館 築地店","東京都",1040045,35.669673,139.773278,"地下鉄有楽町線","新富町駅",2,NA,NA,2500,0,NA
"gap9725","ふぐだし潮 八代目 けいすけ","東京都",1040061,35.672176,139.762441,"地下鉄丸ノ内線","銀座駅",2,NA,NA,1000,0,NA
"gfvy400","利尻昆布ラーメン くろおび","東京都",1050003,35.667726,139.752169,"ＪＲ","新橋駅",8,NA,NA,1000,0,NA
"gd1n633","中華そば 福味","東京都",1007090,35.6798,139.764877,"ＪＲ","東京駅",2,NA,NA,1000,0,NA
"gfsr800","船見坂","東京都",1040061,35.671414,139.769286,"地下鉄日比谷線","東銀座駅",3,NA,NA,999,5,3.83333333333333
"a092400","味丸","東京都",1400001,35.618165,139.742449,"京急本線","新馬場駅",1,NA,NA,1000,4,3.875
"gabc500","福津留","東京都",1000005,35.676989,139.761181,"JR","有楽町駅",5,NA,NA,4000,0,NA
"gbpe400","風雲児","東京都",1510053,35.686844,139.696649,"都営新宿線","新宿駅",2,NA,NA,800,17,3.88235294117647
"p879915","しゃぶしゃぶ温野菜 立川南口店","東京都",1900023,35.696769,139.414282,"ＪＲ","立川駅",1,NA,NA,3000,0,NA
"gbct700","らーめん潤 蒲田店","東京都",1440052,35.561796,139.718846,"ＪＲ京浜東北線","蒲田駅",3,NA,NA,1000,5,3.4
"gdv6152","ラーメン山岡家 瑞穂店","東京都",1901213,35.765089,139.354096,"ＪＲ八高線","箱根ケ崎駅",NA,NA,5,800,4,3.5
"e049601","半蔵門 中国料理 紅花","東京都",1020092,35.682797,139.741971,"地下鉄半蔵門線","半蔵門駅",1,NA,NA,2500,0,NA
"g095625","浅草聚楽","東京都",1110032,35.712188,139.793757,"地下鉄銀座線","浅草駅",8,NA,NA,1100,8,3.125
"gfux401","香港料理 萬来［マンライ］荻窪","東京都",1670051,35.699705,139.617419,"地下鉄丸ノ内線","荻窪駅",7,NA,NA,2000,2,4.75
"gfn3600","さつまっこ MEGAドンキホーテ大森山王店","東京都",1430023,35.583432,139.72368,"ＪＲ京浜東北線","大森駅",7,NA,NA,700,0,NA
"b446018","らーめん冠尾","東京都",1500021,35.647904,139.708541,"ＪＲ","恵比寿駅",1,NA,NA,900,0,NA
"gg5f416","東京豚骨拉麺ばんから 新宿歌舞伎町店","東京都",1600021,35.694153,139.701277,"西武新宿線","西武新宿駅",3,NA,NA,1000,0,NA
"a424601","胡椒饅頭 ＰＡＯＰＡＯ","東京都",1010032,35.694776,139.776019,"ＪＲ","秋葉原駅",5,NA,NA,3200,4,3.625
"gebm900","個室Asian Dining 2階のぞうさん 国分寺店","東京都",1850012,35.702445,139.480152,"ＪＲ中央線","国分寺駅",3,NA,NA,3000,0,NA
"gdup054","博多かわ串・高知餃子 酒場フタマタ 西新橋店","東京都",1050003,35.669017,139.754708,"都営三田線","内幸町駅",1,NA,NA,2700,0,NA
"gfn3601","さつまっこ 平和島店","東京都",1430011,35.57778,139.73739,"京急本線","平和島駅",5,NA,NA,700,1,3
"b912201","ラーメン居酒屋 久慈清商店","東京都",1530051,35.645368,139.698109,"東急東横線","中目黒駅",2,NA,NA,1500,5,3.3
"a263006","ほおずきや","東京都",1350063,35.630926,139.790565,"ゆりかもめ","国際展示場正門駅",2,NA,NA,3000,2,5
"gb1b600","慶賓楼 赤坂店","東京都",1070052,35.676871,139.736789,"地下鉄","赤坂見附駅",1,NA,NA,2000,0,NA
"gfn3602","さつまっこ 田園調布","東京都",1450071,35.594799,139.673551,"東急東横線","田園調布駅",7,NA,NA,700,0,NA
"gf88100","三ツ星餃子堂 石神井公園店","東京都",1770041,35.742963,139.605964,"西武池袋線","石神井公園駅",2,NA,NA,1000,0,NA
"gezv300","らーめん 華月","東京都",1680065,35.682703,139.62935,"京王井の頭線","浜田山駅",5,NA,NA,800,2,3
"gdh4401","昌平ラーメン 成子坂店","東京都",1600023,35.694859,139.690802,"地下鉄丸ノ内線","西新宿駅",2,NA,NA,800,0,NA
"g501135","タイ屋台料理 ティーヌン 市ヶ谷店","東京都",1020073,35.691625,139.736807,"ＪＲ","市ケ谷駅",1,NA,NA,2000,4,4.25
"gben800","らーめん ぽっぽっ屋 水道橋店","東京都",1010061,35.701457,139.753651,"ＪＲ総武線","水道橋駅",2,NA,NA,700,4,3.75
"gfa2600","ラーメン 新高揚","東京都",1600023,35.689361,139.697981,"ＪＲ","新宿駅",3,NA,NA,1000,1,3
"g053664","1／2PPUDO ルミネ立川店","東京都",1900012,35.698469,139.413611,"ＪＲ","立川駅",1,NA,NA,950,0,NA
"gesm804","桂花ラーメン 渋谷センター街店","東京都",1500042,35.660225,139.698654,"ＪＲ","渋谷駅",1,NA,NA,900,7,3.57142857142857
"gbd0800","中華そば屋 伊藤","東京都",1140003,35.763265,139.74596,"地下鉄南北線","王子神谷駅",12,NA,NA,550,6,4
"gbt9800","麺処 銀笹","東京都",1040061,35.666228,139.763437,"都営大江戸線","汐留駅",5,NA,NA,1000,8,4.375
"ge58500","ラーメン屋トイ・ボックス","東京都",1160014,35.73115,139.792066,"地下鉄日比谷線","三ノ輪駅",2,NA,NA,1000,2,NA
"ge38200","RAMEN GOTTSU","東京都",1760001,35.739423,139.656842,"西武池袋線","練馬駅",4,NA,NA,900,2,4
"gfmg500","九州らーめん 頭","東京都",1550031,35.660904,139.667646,"京王井の頭線","下北沢駅",2,NA,NA,999,1,NA
"gfwy100","らぁ麺 すぎ本","東京都",1650032,35.723087,139.63766,"西武新宿線","鷺ノ宮駅",2,NA,NA,2000,0,NA
"gfs8800","もとまる","東京都",1100005,35.708283,139.773972,"ＪＲ","御徒町駅",2,NA,NA,999,0,NA
"gesm807","桂花ラーメン 幡ヶ谷北口店","東京都",1510072,35.677502,139.676963,"京王新線","幡ヶ谷駅",1,NA,NA,900,1,3
"gfw5600","RAMEN にじゅうぶんのいち （RAMEN 1／20）","東京都",1160012,35.744548,139.772936,"都電荒川線","東尾久三丁目駅",3,NA,NA,800,0,NA
"gchw600","中国屋台 十八番 新川店","東京都",1040033,35.675819,139.780528,"地下鉄日比谷線","八丁堀駅",4,NA,NA,2000,0,NA
"gbkz700","麺屋 翔","東京都",1600023,35.696594,139.696601,"都営大江戸線","新宿西口駅",6,NA,NA,950,5,3.6
"gg0r300","百麺 中目黒店","東京都",1530042,35.64614,139.696977,"地下鉄日比谷線","中目黒駅",3,NA,NA,900,3,3
"gesm803","桂花ラーメン 新宿西口店","東京都",1600023,35.688971,139.696989,"ＪＲ","新宿駅",1,NA,NA,900,2,3
"gees600","中華料理 華山","東京都",1360076,35.668177,139.833186,"地下鉄","南砂町駅",2,NA,NA,1000,0,NA
"a350200","地蔵そば 大橋屋","東京都",1700002,35.735392,139.735765,"ＪＲ","巣鴨駅",5,NA,NA,900,1,3
"gffn300","中華料理 多来福 練馬","東京都",1760013,35.730324,139.659416,"西武池袋線","練馬駅",10,NA,NA,2500,0,NA
"gfnu600","中国蘭州ラーメン 火焔山蘭州拉麺 池袋店","東京都",1710014,35.733778,139.710908,"ＪＲ","池袋駅",5,NA,NA,1500,0,NA
"ggva100","えびす亭","東京都",1240005,35.745869,139.839882,"京成本線","お花茶屋駅",2,NA,NA,700,0,NA
"gesm806","桂花ラーメン 池袋西一番街店","東京都",1710021,35.732786,139.710208,"ＪＲ","池袋駅",2,NA,NA,900,0,NA
"a309800","福徳","東京都",1520004,35.629564,139.685505,"東急東横線","学芸大学駅",1,NA,NA,700,3,5
"geur300","博多 一瑞亭","東京都",1600022,35.688241,139.711388,"地下鉄丸ノ内線","新宿御苑前駅",1,NA,NA,800,0,NA
"ge3y000","麺処 びぎ屋","東京都",1520004,35.628836,139.689138,"東急東横線","学芸大学駅",5,NA,NA,1000,7,4.25
"p662405","東京豚骨 背脂とんこつらーめん 雷門 門前仲町店","東京都",1350047,35.671693,139.795993,"地下鉄東西線","門前仲町駅",2,NA,NA,800,1,NA
"ggtv300","韓韓麺 竹ノ塚店","東京都",1210813,35.792607,139.791634,"東武伊勢崎線（東武スカイツリーライン）","竹ノ塚駅",3,NA,NA,3000,3,4.5
"gd1n634","松戸富田麺絆","東京都",1007090,35.6798,139.764877,"ＪＲ","東京駅",2,NA,NA,1000,0,NA
"gfrs200","麺処 篠はら","東京都",1710014,35.73306,139.702172,"地下鉄副都心線","要町駅",3,NA,NA,900,0,NA
"ge9n607","太陽のトマト麺NEXT 新宿ミロード店","東京都",1600023,35.689937,139.699683,"ＪＲ","新宿駅",2,NA,NA,1000,11,3.27272727272727
"ge9n608","太陽のトマト麺 新宿東宝ビル店","東京都",1600021,35.695444,139.701811,"西武新宿線","西武新宿駅",3,NA,NA,1000,0,NA
"geft801","無尽蔵 汐留家","東京都",1050021,35.663121,139.761346,"都営大江戸線","汐留駅",2,NA,NA,2000,0,NA
"g186600","呑来醍","東京都",1640001,35.704158,139.666108,"ＪＲ","中野駅",2,NA,NA,2600,0,NA
"p879918","しゃぶしゃぶ温野菜 代々木西口店","東京都",1510053,35.681955,139.701842,"ＪＲ","代々木駅",1,NA,NA,3000,0,NA
"gd17200","中国料理 渝園","東京都",1820024,35.652264,139.544496,"京王線","調布駅",1,NA,NA,2500,0,NA
"gd4v307","餃子市場 東大前店","東京都",1130034,35.707576,139.765586,"都営大江戸線","本郷三丁目駅",7,NA,NA,2500,0,NA
"gg5f413","東京豚骨拉麺 ばんから 池袋東口店","東京都",1700013,35.731916,139.714914,"地下鉄丸ノ内線","池袋駅",3,NA,NA,1000,0,NA
"gfez000","中華居酒屋 好味屋","東京都",1620841,35.696852,139.73463,"都営新宿線","市ケ谷駅",5,NA,NA,3000,0,NA
"gf98000","人形町らーめん いなせ","東京都",1030013,35.684788,139.783911,"地下鉄日比谷線","人形町駅",1,NA,NA,700,2,3.5
"gfbz503","札幌や 溜池山王店","東京都",1070052,35.670194,139.741514,"地下鉄銀座線","溜池山王駅",2,NA,NA,700,1,3
"gdu0500","広東料理 香港飲茶 徳吉酒家","東京都",1360072,35.689001,139.821359,"都営新宿線","住吉駅",5,NA,NA,2000,4,4.75
"ge9r200","自家製麺 伊藤","東京都",1040061,35.669298,139.764906,"地下鉄銀座線","銀座駅",3,NA,NA,700,3,4
"ggaw400","中華料理 薩斐（サフェイ） 蘭州拉麺 池袋本店","東京都",1700014,35.732087,139.707448,"ＪＲ","池袋駅",3,NA,NA,1000,1,3
"g055601","中国家庭料理 北斗 青山店","東京都",1070061,35.666184,139.713066,"地下鉄銀座線","表参道駅",1,NA,NA,3000,0,NA
"g265400","黒兵衛","東京都",1620825,35.700828,139.742325,"ＪＲ","飯田橋駅",2,NA,NA,1000,3,3.66666666666667
"gdpt702","黄金の塩らぁ麺 ドゥエ イタリアン","東京都",1020074,35.692293,139.740739,"ＪＲ総武線","市ケ谷駅",5,NA,NA,880,2,4
"gf7t800","阿夫利 ルミネ新宿店","東京都",1600023,35.689207,139.6993,"ＪＲ","新宿駅",1,NA,NA,1000,0,NA
"gg5f415","東京豚骨拉麺 ばんから 秋葉原店","東京都",1010021,35.701256,139.772063,"地下鉄銀座線","末広町駅",3,NA,NA,1000,0,NA
"gesf254","どさん子ラーメン 八重洲店","東京都",1040028,35.679522,139.770695,"ＪＲ","東京駅",3,NA,NA,850,0,NA
"gfpw201","一竜 錦糸町店","東京都",1300022,35.694791,139.815355,"ＪＲ","錦糸町駅",2,NA,NA,1000,3,3
"g910420","JASMINE 憶江南","東京都",1530043,35.647104,139.692477,"地下鉄日比谷線","中目黒駅",7,NA,NA,7000,0,NA
"gd1n637","博多屋台ラーメン 一幸舎","東京都",1007090,35.6798,139.764877,"ＪＲ","東京駅",2,NA,NA,1000,0,NA
"gfbz501","札幌や 東銀座店","東京都",1040061,35.668517,139.767757,"地下鉄日比谷線","東銀座駅",2,NA,NA,700,0,NA
"gfbz502","札幌や 大崎ニューシティ店","東京都",1410032,35.620219,139.72905,"ＪＲ","大崎駅",3,NA,NA,700,1,3.5
"b612800","羽衣 銀座本店","東京都",1040061,35.667924,139.763413,"地下鉄","銀座駅",5,NA,NA,6000,0,NA
"genv501","らぁ麺 やまぐち 辣式","東京都",1350016,35.670204,139.819284,"地下鉄東西線","東陽町駅",2,NA,NA,1000,0,NA
"gekj301","中華居酒屋 慶錦閣 大森町店","東京都",1430014,35.570053,139.731547,"京急本線","大森町駅",4,NA,NA,2500,0,NA
"gea9700","好日","東京都",1640003,35.705344,139.684065,"ＪＲ中央線","東中野駅",2,NA,NA,800,1,4
"gfz2700","らあめん渋英","東京都",1500043,35.658978,139.699479,"ＪＲ","渋谷駅",3,NA,NA,999,3,3.5
"a332300","居酒屋 州 麹町","東京都",1020083,35.68488,139.740466,"地下鉄有楽町線","麹町駅",1,NA,NA,2500,0,NA
"gbw8500","饗 くろ喜","東京都",1010024,35.698825,139.780138,"ＪＲ総武線","浅草橋駅",7,NA,NA,1000,7,3.64285714285714
"gbsa600","中華そば 青葉 中野本店","東京都",1640001,35.707972,139.666488,"ＪＲ","中野駅",4,NA,NA,800,12,3.90909090909091
"g029010","おおーい北海道 長万部酒場 銀座店","東京都",1040061,35.671451,139.766935,"地下鉄","銀座駅",1,NA,NA,3500,2,4.5
"gf7p100","濃厚鶏麺ゆきかげ","東京都",1110032,35.71123,139.796814,"都営浅草線","浅草駅",1,NA,NA,900,0,NA
"gc77005","金澤濃厚豚骨ラーメン 神仙 アクアシティお台場店","東京都",1350091,35.627819,139.773568,"ゆりかもめ","台場駅",1,NA,NA,800,0,NA
"gfsw600","北海道らーめん 味八","東京都",1600023,35.694493,139.698956,"ＪＲ","新宿駅",3,NA,NA,999,0,NA
"a045215","大漁市場 魚ます 二子玉川本店","東京都",1580094,35.612856,139.6257,"東急大井町線","二子玉川駅",2,NA,NA,2500,0,NA
"gd1n635","東京スタイルみそらーめん ど・みそ","東京都",1007090,35.6798,139.764877,"ＪＲ","東京駅",2,NA,NA,1000,0,NA
"ge73300","麺 えどや","東京都",1330056,35.731346,139.881171,"ＪＲ総武線","小岩駅",3,NA,NA,1000,0,NA
"gaj0300","中華料理 ポパイラーメン","東京都",1920352,35.637619,139.418601,"多摩モノレール","大塚・帝京大学駅",1,NA,NA,1000,1,5
"gdm9023","油ソバ専門店 山ト天","東京都",1040031,35.67611,139.76873,"地下鉄銀座線","京橋駅",1,NA,NA,1000,1,NA
"gagn956","餃子の王将 フレスポ八王子みなみ野店","東京都",1920916,35.632255,139.328703,"ＪＲ横浜線","八王子みなみ野駅",4,NA,NA,800,1,3
"gf6s000","らーめん 一郎","東京都",1040061,35.673028,139.764656,"地下鉄丸ノ内線","銀座駅",1,NA,NA,800,0,NA
"gesm805","桂花ラーメン 池袋サンシャイン60通り店","東京都",1700013,35.729888,139.716041,"ＪＲ","池袋駅",3,NA,NA,900,5,3.7
"gery900","初代哲麺縁 昭島店","東京都",1960003,35.714129,139.350529,"ＪＲ青梅線","昭島駅",14,NA,NA,850,4,4
"ggg4800","東福舎","東京都",1020072,35.699738,139.748793,"地下鉄東西線","飯田橋駅",3,NA,NA,1000,0,NA
"gbsc500","らぁめん 一福","東京都",1510071,35.683015,139.680866,"京王新線","初台駅",9,NA,NA,800,3,3.33333333333333
"gfp1400","麺処 さとう 桜新町店","東京都",1540015,35.631448,139.644113,"東急田園都市線","桜新町駅",1,NA,NA,1000,0,NA
"gfba301","個室中華バル 食べ放題 吉祥餃子や 神田店","東京都",1010044,35.690335,139.771435,"ＪＲ","神田駅",2,NA,NA,2800,0,NA
"g078400","福新楼","東京都",1070061,35.670459,139.717067,"地下鉄銀座線","外苑前駅",1,NA,NA,2000,0,NA
"gfk4401","秋刀魚中華そば 生粋","東京都",1710014,35.732261,139.707436,"地下鉄副都心線","池袋駅",1,NA,NA,999,3,4.5
"e769300","CHINA GARDEN","東京都",1050021,35.662146,139.760115,"ゆりかもめ","汐留駅",1,NA,NA,3000,3,3.16666666666667
"g330014","てしごとや ふくの鳥 大泉学園店","東京都",1780063,35.750407,139.586175,"西武池袋線","大泉学園駅",2,NA,NA,2800,0,NA
"gd4v308","餃子市場 早稲田店","東京都",1690051,35.711478,139.720949,"都電荒川線","早稲田駅",3,NA,NA,2500,0,NA
"gd1n636","四川担担麺 阿吽","東京都",1007090,35.6798,139.764877,"ＪＲ","東京駅",2,NA,NA,1000,0,NA
"ga4h022","太陽のトマト麺 NEXT サンシャインシティ店","東京都",1706090,35.72885,139.719215,"ＪＲ","池袋駅",5,NA,NA,1000,1,3
"geft800","無尽蔵 しながわ家","東京都",1080075,35.630122,139.741257,"ＪＲ","品川駅",2,NA,NA,1000,0,NA
"gd1f504","麺屋虎杖 日本橋","東京都",1030027,35.682983,139.77325,"地下鉄銀座線","日本橋駅",1,NA,NA,1000,0,NA
"gdp1900","かんの 本店","東京都",1040045,35.665742,139.770136,"地下鉄日比谷線","築地駅",2,NA,NA,1000,9,3.72222222222222
"gfrk800","麻布ラーメン 慶応三田店","東京都",1080014,35.64821,139.744783,"ＪＲ","田町駅",6,NA,NA,1000,0,NA
"gfhw000","九月堂","東京都",1500041,35.663877,139.699384,"ＪＲ","渋谷駅",10,NA,NA,800,7,3.64285714285714
"gfrk802","麻布ラーメン 西麻布店","東京都",1060031,35.658897,139.723463,"地下鉄日比谷線","広尾駅",10,NA,NA,1000,0,NA
"genv500","らぁ麺 やまぐち","東京都",1690051,35.709959,139.713902,"地下鉄東西線","高田馬場駅",10,NA,NA,900,7,4.08333333333333
"ggvt600","出汁茶漬け専門店 新橋深夜食堂","東京都",1050004,35.665827,139.756273,"ＪＲ","新橋駅",2,NA,NA,1500,0,NA
"e378904","雲林坊 九段店","東京都",1020073,35.696663,139.751693,"地下鉄東西線","九段下駅",2,NA,NA,1000,0,NA
"gezr800","中華銘菜 餃子菜館","東京都",1810013,35.698372,139.561967,"ＪＲ中央線","三鷹駅",7,NA,NA,3000,0,NA
"e378903","雲林坊 秋葉原店","東京都",1010041,35.695504,139.772767,"ＪＲ","神田駅",2,NA,NA,1000,0,NA
"geur301","博多一瑞亭 三田店","東京都",1050014,35.648763,139.744914,"都営三田線","三田駅",1,NA,NA,900,0,NA
"geat200","中華そば しながわ","東京都",1710021,35.730278,139.698859,"地下鉄有楽町線","要町駅",6,NA,NA,1000,4,3.5
"gg5f412","ばんから担々麺 池袋本店","東京都",1710022,35.727002,139.711285,"西武池袋線","池袋駅",1,NA,NA,1000,0,NA
"gc77003","濃厚魚介豚骨つけ麺 頑者 NEXT LEVEL アクアシティお台場店","東京都",1350091,35.627819,139.773568,"ゆりかもめ","台場駅",1,NA,NA,1000,0,NA
"gfkk302","らーめん香月～KAZUKi～ 五反田店","東京都",1410031,35.623697,139.722138,"ＪＲ","五反田駅",4,NA,NA,850,0,NA
"gfyr300","麺 みつヰ","東京都",1110035,35.71256,139.790497,"つくばエクスプレス","浅草駅",5,NA,NA,1000,0,NA
"gcep001","鶏ポタラーメン THANK お茶の水店","東京都",1010054,35.693896,139.764227,"都営新宿線","小川町駅",2,NA,NA,1000,2,NA
"gacg800","九十九ラーメン","東京都",1500012,35.649851,139.712073,"ＪＲ","恵比寿駅",5,NA,NA,850,9,3.44444444444444
"e378905","雲林坊 日本橋室町店","東京都",1030022,35.689744,139.771914,"ＪＲ総武本線快速線","新日本橋駅",3,NA,NA,1000,2,NA
"gg80401","古武士 新宿6丁目店","東京都",1600022,35.693423,139.710036,"地下鉄副都心線","新宿三丁目駅",7,NA,NA,800,1,NA
"gg95601","ビストロ de 麺酒場 燿","東京都",1640003,35.706541,139.683843,"ＪＲ中央線","東中野駅",2,NA,NA,2500,8,3.92857142857143
"gc77006","札幌ラーメンみその","東京都",1350091,35.627819,139.773568,"ゆりかもめ","台場駅",1,NA,NA,1000,0,NA
"gepm600","ソラノイロ","東京都",1020093,35.683031,139.739391,"地下鉄有楽町線","麹町駅",4,NA,NA,900,18,3.97222222222222
"gc77002","二代目 博多 だるま","東京都",1350091,35.627819,139.773568,"ゆりかもめ","台場駅",1,NA,NA,1000,0,NA
"gfrh300","麺屋 Hulu‐lu","東京都",1710014,35.73501,139.70911,"地下鉄副都心線","池袋駅",6,NA,NA,950,5,3.4
"g761703","定食屋 かあちゃん","東京都",1200005,35.762132,139.827081,"地下鉄千代田線","綾瀬駅",1,NA,NA,800,0,NA
"p855400","由 膳 高輪台","東京都",1410022,35.631066,139.729767,"都営浅草線","高輪台駅",1,NA,NA,4000,0,NA
"gf8f400","創作麺工房 鳴龍","東京都",1700005,35.728676,139.730343,"ＪＲ","大塚駅",4,NA,NA,1000,3,3.5
"gfs5400","野方ホープ 目黒店","東京都",1530063,35.63471,139.712854,"ＪＲ","目黒駅",5,NA,NA,1500,4,3
"gg66400","麺や 七彩","東京都",1040032,35.677139,139.776272,"地下鉄日比谷線","八丁堀駅",3,NA,NA,1000,0,NA
"e557831","一風堂 ルミネエスト新宿店","東京都",1600022,35.691324,139.701144,"ＪＲ","新宿駅",1,NA,NA,1000,4,3.875
"gfbz500","札幌や 丸の内帝国劇場店","東京都",1000005,35.676755,139.760848,"都営三田線","日比谷駅",1,NA,NA,700,0,NA
"gfrk803","麻布ラーメン 芝浦店","東京都",1080023,35.642545,139.749539,"ＪＲ","田町駅",4,NA,NA,1000,0,NA
"gekj300","中華居酒屋 慶錦閣 青物横丁本店","東京都",1400002,35.61009,139.745388,"京急本線","青物横丁駅",5,NA,NA,2500,0,NA
"e959512","らぁ麺 いしばし 南阿佐ヶ谷店","東京都",1660004,35.700791,139.637424,"地下鉄丸ノ内線","南阿佐ヶ谷駅",3,NA,NA,1000,0,NA
"g135400","新世界菜館","東京都",1010051,35.69616,139.75741,"都営三田線","神保町駅",1,NA,NA,4000,11,4.13636363636364
"gfne800","つけ麺屋 ひまわり","東京都",1690075,35.714579,139.702826,"ＪＲ","高田馬場駅",3,NA,NA,999,4,2.75
"g105903","新派四川ダイニング 百菜百味 大森店","東京都",1430016,35.588692,139.728648,"ＪＲ京浜東北線","大森駅",1,NA,NA,3500,2,1.75
"gcep002","鶏ポタラーメン THANK 大門店","東京都",1050012,35.655912,139.753074,"都営大江戸線","大門駅",3,NA,NA,1000,0,NA
"gg80400","古武士 新宿西口小滝橋通り店","東京都",1600023,35.696126,139.698369,"都営大江戸線","新宿西口駅",3,NA,NA,800,3,2.83333333333333
"gfrg400","らーめん はやし","東京都",1500043,35.657261,139.698005,"京王井の頭線","渋谷駅",4,NA,NA,900,7,3.66666666666667
"ge43300","中華蕎麦 三藤","東京都",1520034,35.610027,139.677513,"東急大井町線","緑が丘駅",5,NA,NA,1500,1,5
"gc5w900","麺居酒屋 HAREZOU（晴蔵）","東京都",1160012,35.747973,139.771469,"日暮里・舎人ライナー","熊野前駅",1,NA,NA,2000,0,NA
"gg38700","Japanese Soba Noodles 蔦","東京都",1700002,35.732948,139.740624,"ＪＲ","巣鴨駅",2,NA,NA,1500,8,3.66666666666667
"b071300","中華宴会×飲み放題 中国料理 龍","東京都",1440052,35.563957,139.71546,"ＪＲ京浜東北線","蒲田駅",2,NA,NA,1800,19,3
"gfg1001","元祖ニュータンタンメン本舗 羽田店","東京都",1440042,35.551857,139.746273,"京急空港線","穴守稲荷駅",5,NA,NA,1000,0,NA
"ge5h100","肉×ワインバル 三ツ星村 住吉店","東京都",1350002,35.688353,139.81636,"都営新宿線","住吉駅",1,NA,NA,3000,2,NA
"gfs5401","野方ホープ 原宿店","東京都",1500001,35.674081,139.706253,"ＪＲ","原宿駅",5,NA,NA,1500,2,4
"g746630","AFURI 辛紅 新宿 サブナード","東京都",1600021,35.693596,139.700274,"地下鉄丸ノ内線","新宿駅",3,NA,NA,1000,0,NA
"ge32400","麺や金時","東京都",1760004,35.738406,139.678305,"西武池袋線","江古田駅",6,NA,NA,850,1,3.5
"gery963","石器ラーメン 高田馬場","東京都",1690075,35.712546,139.706922,"地下鉄東西線","高田馬場駅",1,NA,NA,750,0,NA
"a298900","盛","東京都",1350013,35.681424,139.816244,"地下鉄都営新宿線","住吉駅",10,NA,NA,800,3,3.66666666666667
"gddc900","みずとくじら","東京都",1230841,35.778761,139.780081,"東武大師線","大師前駅",2,NA,NA,1000,1,5
"ggrc900","大海軒 八王子店","東京都",1920084,35.656858,139.336397,"ＪＲ","八王子駅",4,NA,NA,1000,0,NA
"gddu500","蘭ちゃん","東京都",1100016,35.701299,139.780246,"ＪＲ","秋葉原駅",10,NA,NA,2000,0,NA
"ge5s600","麺や 維新","東京都",1410021,35.63419,139.71877,"ＪＲ","目黒駅",5,NA,NA,1000,1,5
"gd5u805","麺や 美風 戸越銀座店","東京都",1420041,35.615306,139.717093,"都営浅草線","戸越駅",1,NA,NA,1000,0,NA
"g262207","JA全農ミートフーズ直営 焼肉本舗 ぴゅあ 北千住マルイ店","東京都",1208501,35.75084,139.804741,"ＪＲ常磐線","北千住駅",1,NA,NA,4000,0,NA
"ge40000","Bum Bun Blau Cafe","東京都",1420064,35.605031,139.703575,"東急大井町線","旗の台駅",1,NA,NA,2000,0,NA
"gdxe101","麺酒房 実之和 六本木店","東京都",1060032,35.662588,139.733991,"都営大江戸線","六本木駅",3,NA,NA,2500,2,4
"gcwt100","宴会食べ飲み放題 馬さん餃子酒場 神保町店","東京都",1010051,35.695164,139.757809,"地下鉄","神保町駅",1,NA,NA,2000,6,2.33333333333333
"7656921","新潟三宝亭 東京ラボ 渋谷宮益坂店","東京都",1500002,35.659632,139.704186,"","",NA,NA,NA,1000,0,NA
"7236453","とんこつラーメン 博多風龍 新橋店","東京都",1050004,35.666701,139.756871,"ＪＲ","新橋駅",2,NA,NA,650,1,4
"3119667","中華麺家 まんまる","東京都",1240000,35.735156,139.835343,"","",NA,NA,NA,1000,0,NA
"7071567","めん処 紅葉","東京都",1440043,35.551568,139.745125,"京急空港線","穴守稲荷駅",4,NA,NA,800,0,NA
"6043763","ヒノマル食堂","東京都",1050004,35.664333,139.757173,"","",NA,NA,NA,3000,0,NA
"7398545","浅草ラーメン じゃん腹","東京都",1110035,35.714979,139.792314,"つくばエクスプレス","浅草駅",1,NA,NA,1000,0,NA
"7614494","麺飯食堂チャアヤ 八王子南口 煮干し豚骨醤油らーめん","東京都",1920904,35.653925,139.339632,"ＪＲ","八王子駅",1,NA,NA,1000,0,NA
"7286905","つけめん屋 赤羽京介","東京都",1150055,35.777453,139.718676,"ＪＲ","赤羽駅",3,NA,NA,680,5,4.2
"6106688","らぁめん ほりうち","東京都",1600023,35.692911,139.698326,"ＪＲ山手線","新宿駅",3,NA,NA,850,1,4
"5498091","味大将","東京都",1680063,35.677629,139.644221,"","",NA,NA,NA,1200,2,3
"6958894","肉汁らーめん 公","東京都",1400001,35.618859,139.744957,"京急本線","新馬場駅",4,NA,NA,800,1,NA
"6389617","3SO","東京都",1940037,35.56473,139.420251,"ＪＲ横浜線","古淵駅",15,NA,NA,800,0,NA
"5496741","うり坊 神谷町店","東京都",1050001,35.663613,139.745409,"地下鉄日比谷線","神谷町駅",1,NA,NA,1700,1,4.5
"7204575","由助","東京都",1420053,35.603374,139.70801,"東急大井町線","荏原町駅",1,NA,NA,999,0,NA
"7324549","ラーメン道楽 蒲田店","東京都",1440052,35.56056,139.716959,"ＪＲ京浜東北線","蒲田駅",3,NA,NA,1000,0,NA
"7281000","麺屋 音","東京都",1200034,35.752103,139.80365,"地下鉄千代田線","北千住駅",4,NA,NA,1000,0,NA
"7148322","油そば専門店 ぶらぶら 赤坂店","東京都",1070052,35.674317,139.736379,"地下鉄千代田線","赤坂駅",2,NA,NA,700,2,4
"7242070","メシドコロ NICONICO","東京都",1040045,35.667359,139.770823,"地下鉄日比谷線","築地駅",2,NA,NA,3500,0,NA
"7377127","一蘭 町田店","東京都",1940013,35.543834,139.447537,"ＪＲ横浜線","町田駅",3,NA,NA,800,4,3
"6393506","小川軒","東京都",2060823,35.609995,139.495722,"小田急小田原線","新百合ヶ丘駅",NA,NA,10,800,0,NA
"7512944","ばしらあ","東京都",1030013,35.685476,139.784596,"地下鉄日比谷線","人形町駅",2,NA,NA,800,1,NA
"7234510","TOM’s CAFE","東京都",1240025,35.717759,139.857762,"ＪＲ総武線","新小岩駅",1,NA,NA,1500,0,NA
"7384907","横浜家系ラーメン 稲田家 人形町店","東京都",1030013,35.686363,139.781938,"都営浅草線","人形町駅",1,NA,NA,900,0,NA
"7173976","薬膳食堂ちゃぶ膳","東京都",1550033,35.666639,139.663151,"","",NA,NA,NA,1200,0,NA
"7236456","とんこつラーメン 博多風龍 中野サンモール店","東京都",1640001,35.707591,139.665742,"ＪＲ中央線","中野駅",2,NA,NA,650,1,2.5
"7498223","風は南から 学芸大学店","東京都",1520004,35.629333,139.686523,"東急東横線","学芸大学駅",2,NA,NA,1000,0,NA
"7682123","つじ田 六本木店","東京都",1060032,35.664601,139.729901,"","",NA,NA,NA,1000,0,NA
"7374339","一蘭 原宿店","東京都",1500001,35.667827,139.705228,"地下鉄千代田線","明治神宮前駅",1,NA,NA,800,0,NA
"7512342","蓮華亭","東京都",1740046,35.782854,139.678918,"都営三田線","蓮根駅",2,NA,NA,3000,7,3.75
"7507082","一圓 三鷹南口店","東京都",1810013,35.694812,139.561756,"ＪＲ中央線","三鷹駅",12,NA,NA,800,0,NA
"7181005","博多 一風堂 二子玉川ライズS．C．店","東京都",1580094,35.612281,139.628515,"東急田園都市線","二子玉川駅",3,NA,NA,900,2,NA
"6124777","麺屋 宗","東京都",1530061,35.640837,139.701998,"東横線","中目黒駅",6,NA,NA,800,1,3
"6588698","そば処為治郎","東京都",1000005,35.676564,139.765076,"ＪＲ","東京駅",1,NA,NA,850,0,NA
"7236444","とんこつラーメン 博多風龍 大久保店","東京都",1690073,35.701591,139.697571,"ＪＲ中央線","大久保駅",1,NA,NA,650,2,3
"7736589","麺屋虎杖 大門浜松町店","東京都",1050012,35.656649,139.754435,"","",NA,NA,NA,1000,0,NA
"7236448","とんこつラーメン 博多風龍 西武新宿店","東京都",1600021,35.694484,139.70055,"西武新宿線","西武新宿駅",1,NA,NA,650,2,3
"1024219","ぶらり","東京都",1160014,35.727388,139.772248,"ＪＲ","日暮里駅",2,NA,NA,3000,3,4
"6900287","麺屋 はやたろう 立川店","東京都",1900003,35.712076,139.428536,"ＪＲ中央線","立川駅",15,NA,NA,1000,1,2.5
"7488145","わ蔵","東京都",1600021,35.694798,139.703166,"地下鉄丸ノ内線","新宿駅",5,NA,NA,999,2,4
"7491990","よつ家","東京都",1210813,35.795045,139.792846,"東武伊勢崎線（東武スカイツリーライン）","竹ノ塚駅",3,NA,NA,800,0,NA
"7380227","蘭家","東京都",1050012,35.658629,139.754663,"都営浅草線","大門駅",3,NA,NA,800,0,NA
"5252575","伊勢屋食堂 淀橋青果市場内","東京都",1690074,35.704854,139.694001,"ＪＲ","大久保駅",5,NA,NA,800,0,NA
"7760333","中野家 東長崎店","東京都",1710052,35.72957,139.683092,"","",NA,NA,NA,800,0,NA
"7098314","旨辛らーめん 表裏","東京都",1690075,35.713074,139.707254,"ＪＲ","高田馬場駅",5,NA,NA,1000,0,NA
"7377101","一蘭 渋谷スペイン坂店","東京都",1500042,35.660977,139.698659,"ＪＲ","渋谷駅",5,NA,NA,800,2,NA
"7268851","板橋 大勝軒 なりたや","東京都",1730004,35.749948,139.711355,"都営三田線","板橋区役所前駅",3,NA,NA,800,4,2.75
"5844552","立川中華そば ととホンテン","東京都",1900012,NA,NA,"","",NA,NA,NA,880,5,3.9
"7522294","日本橋麺処こはる","東京都",1030022,35.686335,139.774872,"地下鉄銀座線","三越前駅",2,NA,NA,1000,0,NA
"7201777","北海道らーめん なまら 浅草西参道店","東京都",1110032,35.714568,139.794705,"つくばエクスプレス","浅草駅",4,NA,NA,1000,1,5
"7630337","スープ道 連","東京都",1700001,35.744588,139.728862,"都営三田線","西巣鴨駅",2,NA,NA,800,4,3.75
"7140495","十文字","東京都",1690051,35.709439,139.716942,"都電荒川線","早稲田駅",6,NA,NA,680,0,NA
"5499325","秀華","東京都",1820007,35.652196,139.567821,"京王線","柴崎駅",NA,NA,5,550,0,NA
"7488149","わ蔵 中目黒店","東京都",1530061,35.640665,139.70217,"東急東横線","中目黒駅",7,NA,NA,999,0,NA
"7405117","ラーメン春樹","東京都",2060033,35.624861,139.425548,"京王相模原線","京王多摩センター駅",2,NA,NA,900,0,NA
"7512463","J’sラーメン","東京都",1750082,35.786165,139.671141,"都営三田線","西台駅",3,NA,NA,1500,3,2.83333333333333
"6966883","一風堂 池袋店","東京都",1710022,35.7279,139.713516,"","",NA,NA,NA,1000,3,3
"7750308","麺菜 Regamen","東京都",1510051,35.67707,139.707674,"","",NA,NA,NA,950,0,NA
"7728912","はな火屋","東京都",1600023,35.69525,139.698097,"","",NA,NA,NA,850,3,3.83333333333333
"7276037","麺や 京水","東京都",1680073,35.669524,139.629537,"","",NA,NA,NA,800,1,4.5
"7702343","初代葱寅 御茶ノ水店","東京都",1010062,35.696075,139.764113,"","",NA,NA,NA,1000,0,NA
"6388641","三歩一","東京都",1690075,35.71326,139.70618,"ＪＲ","高田馬場駅",3,NA,NA,750,8,4.5625
"7482216","谷ラーメン","東京都",1000005,35.676609,139.764897,"ＪＲ","有楽町駅",4,NA,NA,1000,0,NA
"7512977","担々麺 辣椒漢 駒込店","東京都",1700003,35.73704,139.748963,"ＪＲ","駒込駅",1,NA,NA,1000,2,NA
"7484830","中華料理 銀座 ヤンヤン","東京都",1040061,35.670192,139.766932,"都営浅草線","東銀座駅",1,NA,NA,2000,1,4.5
"6513299","手作り餃子とラーメンのお店 GYUTON","東京都",1850011,35.703761,139.481346,"ＪＲ中央線","国分寺駅",5,NA,NA,800,1,3
"7236447","とんこつラーメン 博多風龍 神田西口店","東京都",1010047,35.691335,139.770197,"ＪＲ","神田駅",1,NA,NA,650,2,3
"7737313","一蘭 浅草六区店","東京都",1110032,35.714435,139.793539,"","",NA,NA,NA,1000,0,NA
"7379591","一蘭 中野店","東京都",1640001,35.707271,139.665438,"","",NA,NA,NA,1000,0,NA
"7487942","わ蔵 板橋本店","東京都",1730004,35.748719,139.71899,"都営三田線","新板橋駅",1,NA,NA,850,5,3.4
"7236457","とんこつラーメン 博多風龍 池袋東口店","東京都",1700013,35.731852,139.714363,"ＪＲ","池袋駅",3,NA,NA,650,2,NA
"7431564","桜吹雪が風に舞う 東大和店","東京都",2070013,35.742509,139.442567,"西武拝島線","東大和市駅",19,NA,NA,1200,0,NA
"7481115","中華料理 日光軒","東京都",1320035,35.713194,139.842008,"ＪＲ総武線","平井駅",11,NA,NA,2000,0,NA
"7302389","中国酒家 瑞華","東京都",1110032,35.718399,139.794564,"つくばエクスプレス","浅草駅",8,NA,NA,1500,0,NA
"7630300","旭川味噌ラーメン ばんから 池袋西口店","東京都",1710021,35.732589,139.710315,"地下鉄丸ノ内線","池袋駅",3,NA,NA,1000,5,4.25
"6272654","山手ラーメン 安庵 本郷店","東京都",1130033,35.709261,139.760094,"都営大江戸線","本郷三丁目駅",3,NA,NA,700,1,3
"5400198","チャイニーズレストラン 一番","東京都",1870024,35.722766,139.457428,"西武国分寺線","鷹の台駅",5,NA,NA,800,0,NA
"7481110","やきとり丸井","東京都",1100001,35.719227,139.766971,"地下鉄千代田線","根津駅",3,NA,NA,2200,0,NA
"7621391","名華園料理店","東京都",1070052,35.674291,139.737748,"地下鉄千代田線","赤坂駅",3,NA,NA,3000,0,NA
"3113796","らーめん 麺好","東京都",1640013,35.690866,139.669694,"地下鉄丸ノ内線","中野富士見町駅",3,NA,NA,750,0,NA
"6140899","中国酒家 大天門 八重洲","東京都",1040028,35.678168,139.769213,"ＪＲ","東京駅",2,NA,NA,4000,4,4.125
"7509809","仕事鶏 A（エース）","東京都",1010061,35.70121,139.753201,"ＪＲ中央線","水道橋駅",3,NA,NA,2500,0,NA
"6049033","神勢。","東京都",1130033,35.707379,139.763196,"地下鉄","本郷三丁目駅",4,NA,NA,800,0,NA
"6546104","浅草 醤油らーめん きび太郎","東京都",1110032,35.715413,139.792803,"","",NA,NA,NA,800,0,NA
"7501956","ホープ軒本舗 大塚店","東京都",1700004,35.731997,139.729424,"都電荒川線","大塚駅前駅",1,NA,NA,800,5,3.75
"7010229","麺や葵","東京都",1160013,35.729061,139.770509,"ＪＲ","日暮里駅",1,NA,NA,1000,2,4
"7229391","博多食堂 歌舞伎町店","東京都",1600021,35.694754,139.702686,"西武新宿線","西武新宿駅",4,NA,NA,1000,2,NA
"5496890","えぞ菊 戸塚店","東京都",1690051,35.711312,139.711303,"ＪＲ山手線","高田馬場駅",7,NA,NA,900,4,3.625
"6900304","志奈そば 田なか","東京都",1700013,35.730859,139.723457,"都電荒川線","向原駅",2,NA,NA,750,4,4
"6271385","東京とんこつラーメン　屯ちん　池袋本店","東京都",1710022,NA,NA,"山手線","池袋駅",5,NA,NA,800,11,3.77272727272727
"7372798","枝燦亭","東京都",1350051,35.658824,139.809262,"","",NA,NA,NA,3000,0,NA
"7753540","らぁ麺よりみち 伊豆大島","東京都",1000212,34.688068,139.440429,"","",NA,NA,NA,900,0,NA
"7541506","ら～めん いち","東京都",1920904,35.653148,139.339869,"ＪＲ","八王子駅",3,NA,NA,800,0,NA
"7288057","濱之家 入谷店","東京都",1210836,35.805775,139.766993,"日暮里・舎人ライナー","舎人駅",5,NA,NA,1000,10,3.83333333333333
"7498704","麺屋 大申 神保町店","東京都",1010051,35.696511,139.756431,"都営新宿線","神保町駅",2,NA,NA,1000,0,NA
"7595428","濱之家","東京都",1130031,35.720973,139.761845,"地下鉄千代田線","千駄木駅",6,NA,NA,1000,0,NA
"7733271","舎鈴 赤坂インターシティAIR店","東京都",1070052,35.67005,139.742701,"東京メトロ","溜池山王駅",1,NA,NA,630,0,NA
"6155448","荏原町しなてつ","東京都",1420053,35.60326,139.708288,"東急大井町線","荏原町駅",1,NA,NA,800,2,3
"7738966","横浜家系ラーメン 寛ぎ家","東京都",1460092,35.569842,139.685893,"","",NA,NA,NA,1000,0,NA
"6898605","横浜家系らーめん 家丸","東京都",1540012,35.630572,139.656426,"東急田園都市線","駒沢大学駅",5,NA,NA,999,0,NA
"7229388","博多食堂 渋谷店","東京都",1500042,35.661699,139.696379,"地下鉄半蔵門線","渋谷駅",5,NA,NA,1000,1,4.5
"7431530","風風ラーメン 赤塚店","東京都",1750093,35.770032,139.644483,"東武東上線","下赤塚駅",1,NA,NA,1200,0,NA
"7523507","麺屋やっとこ 三田店","東京都",1080073,35.647811,139.742925,"ＪＲ","田町駅",4,NA,NA,900,3,3.5
"7308745","双葉","東京都",1030013,35.68617,139.781029,"地下鉄日比谷線","人形町駅",1,NA,NA,2000,0,NA
"7349905","IPPUDO NOODLE EXPRESS 東京スカイツリータウン・ソラマチ店","東京都",1310045,35.710033,139.810716,"都営浅草線","押上駅",2,NA,NA,850,1,NA
"7501949","ホープ軒本舗 吉祥寺店","東京都",1800004,35.704281,139.580298,"ＪＲ中央線","吉祥寺駅",2,NA,NA,900,3,4.5
"5917522","麺屋宗　肉そば総本店","東京都",1740071,35.759346,139.690641,"東武東上線","ときわ台駅",2,NA,NA,800,4,3.125
"7267967","ラーメン いつき","東京都",1710014,35.735224,139.700942,"ＪＲ","池袋駅",10,NA,NA,1000,0,NA
"7377091","一蘭 新宿歌舞伎町店","東京都",1600021,35.694394,139.701561,"JR","新宿駅",5,NA,NA,800,0,NA
"7718279","博多屋台 六助","東京都",1970011,35.743578,139.331459,"","",NA,NA,NA,900,0,NA
"7513257","節骨麺たいぞう","東京都",1320035,35.705961,139.843826,"ＪＲ総武線","平井駅",2,NA,NA,1000,0,NA
"6776301","家系中華蕎麦 家道","東京都",1420051,35.615711,139.714102,"東急池上線","戸越銀座駅",1,NA,NA,750,2,4.5
"7377130","一蘭 アトレ上野山下口店","東京都",1100005,35.712442,139.77538,"ＪＲ","上野駅",1,NA,NA,800,9,3.5
"7325751","武道家 龍","東京都",1570066,35.639304,139.599545,"小田急小田原線","成城学園前駅",1,NA,NA,800,0,NA
"7198660","○宿 めんてんてん","東京都",1600021,35.696897,139.705178,"都営大江戸線","東新宿駅",3,NA,NA,1000,2,NA
"7377128","一蘭 池袋店","東京都",1700013,35.732511,139.714158,"ＪＲ","池袋駅",2,NA,NA,800,3,3.16666666666667
"6998138","斬鉄軒","東京都",1080023,35.643523,139.752474,"ＪＲ","田町駅",7,NA,NA,2000,0,NA
"7236452","とんこつラーメン 博多風龍 新橋銀座口店","東京都",1050004,35.667892,139.758368,"ＪＲ","新橋駅",2,NA,NA,650,4,3.5
"7180249","麺処 夏海","東京都",1150045,35.7798,139.720193,"ＪＲ京浜東北線","赤羽駅",3,NA,NA,800,4,4.125
"5400222","二幸","東京都",1870024,NA,NA,"","",NA,NA,NA,850,0,NA
"7653948","中国蘭州牛肉ラーメン 国壱麺 御徒町本店","東京都",1100005,35.708082,139.773646,"ＪＲ","御徒町駅",1,NA,NA,1000,0,NA
"7308935","日本橋札幌や","東京都",1030027,35.680185,139.771475,"地下鉄銀座線","日本橋駅",3,NA,NA,2000,0,NA
"7498486","香満楼","東京都",1340088,35.66585,139.864003,"地下鉄東西線","西葛西駅",8,NA,NA,3000,0,NA
"7356447","ミヤミヤ","東京都",2060011,35.650491,139.448628,"京王線","聖蹟桜ヶ丘駅",5,NA,NA,800,0,NA
"7296113","麺屋 多伊夢","東京都",1230843,35.777331,139.782003,"","",NA,NA,NA,800,1,5
"7496716","ごまる 銀座店","東京都",1040061,35.673398,139.769775,"地下鉄有楽町線","銀座一丁目駅",2,NA,NA,1000,0,NA
"5412834","天天飯店","東京都",1690075,NA,NA,"","",NA,NA,NA,1800,0,NA
"5713135","つじ田 飯田橋店","東京都",1020072,35.701327,139.746211,"","",NA,NA,NA,1000,10,3.5
"7291112","たん坦めん麺 炎真","東京都",1250061,35.766352,139.848766,"ＪＲ常磐線","亀有駅",2,NA,NA,900,0,NA
"7662071","ななごう酒場","東京都",1240024,35.714222,139.859421,"","",NA,NA,NA,3200,0,NA
"7377119","一蘭 下北沢店","東京都",1550031,35.660282,139.66756,"小田急小田原線","下北沢駅",2,NA,NA,800,0,NA
"7280827","喜多方ラーメン坂内  戸越銀座店","東京都",1420051,35.615387,139.716386,"","",NA,NA,NA,800,0,NA
"7431543","風風ラーメン 高円寺南口店","東京都",1660003,35.70351,139.649503,"ＪＲ中央線","高円寺駅",4,NA,NA,1200,1,3.5
"7703414","手打らーめん満月","東京都",1150055,35.777897,139.718541,"","",NA,NA,NA,800,2,3
"7393109","山久","東京都",1230843,35.777231,139.7869,"東武伊勢崎線（東武スカイツリーライン）","西新井駅",4,NA,NA,1500,0,NA
"6895139","ラーメン　ガツ旨　まるはち","東京都",1440054,35.562111,139.703232,"ＪＲ京浜東北線","蒲田駅",10,NA,NA,700,0,NA
"7349900","宙寅屋 東京スカイツリータウン・ソラマチ店","東京都",1310045,35.710033,139.810716,"都営浅草線","押上駅",2,NA,NA,2000,1,5
"7234473","とんこつラーメン 博多風龍 池袋西口店","東京都",1710021,35.731592,139.710472,"ＪＲ","池袋駅",1,NA,NA,650,3,3.33333333333333
"7204627","新福菜館 秋葉原店","東京都",1010024,35.700064,139.776335,"ＪＲ","秋葉原駅",5,NA,NA,700,0,NA
"7095730","ラーメン 欽福 両国本店","東京都",1300026,35.695067,139.791325,"ＪＲ総武線","両国駅",3,NA,NA,700,0,NA
"5605904","麺屋　宗","東京都",1690075,35.711108,139.709606,"ＪＲ山手線","高田馬場駅",7,NA,NA,800,5,4.2
"7377111","一蘭 吉祥寺店","東京都",1800004,35.704558,139.580087,"ＪＲ中央線","吉祥寺駅",2,NA,NA,800,0,NA
"7522291","神田らぁめん悠 HARUKA","東京都",1030022,35.689578,139.771671,"ＪＲ総武本線快速線","新日本橋駅",3,NA,NA,800,0,NA
"6546439","博多ラーメン つる","東京都",1120003,35.708313,139.751404,"地下鉄丸ノ内線","後楽園駅",1,NA,NA,700,0,NA
"6933312","三ツ矢堂製麺 武蔵小山店","東京都",1420062,35.619377,139.703931,"東急目黒線","武蔵小山駅",1,NA,NA,950,4,3.5
"7155484","麺屋ふう","東京都",1940021,35.549172,139.44784,"小田急小田原線","町田駅",10,NA,NA,700,1,4
"3113507","中野 大勝軒","東京都",1640001,35.703716,139.665341,"ＪＲ中央線","中野駅",3,NA,NA,700,4,4.25
"6166203","熊ぼっこ","東京都",1100015,35.707764,139.781847,"","",NA,NA,NA,800,0,NA
"6189384","中華そば吾衛門","東京都",1930835,35.65742,139.311084,"ＪＲ中央線","西八王子駅",5,NA,NA,650,1,3.5
"7176666","赤坂焼鳥 鳳","東京都",1070052,35.673977,139.737614,"地下鉄千代田線","赤坂駅",3,NA,NA,7000,0,NA
"7308929","元祖 札幌や","東京都",1030027,35.682186,139.772351,"地下鉄銀座線","日本橋駅",3,NA,NA,2500,0,NA
"5496992","屯ちん 新宿店","東京都",1600021,35.695195,139.702977,"西武新宿線","西武新宿駅",5,NA,NA,800,4,3.875
"7431527","風風ラーメン 田無店","東京都",1880012,35.72696,139.539348,"西武新宿線","田無駅",1,NA,NA,1200,0,NA
"7683739","こうすけ","東京都",1540004,35.646136,139.669834,"東急田園都市線","三軒茶屋",3,NA,NA,1000,7,3.5
"7512748","Noodle Stand Tokyo","東京都",1500001,35.672311,139.703503,"","",NA,NA,NA,900,0,NA
"7620181","麺ロード 花畑","東京都",1210061,35.805473,139.806558,"東武伊勢崎線（東武スカイツリーライン）","谷塚駅",19,NA,NA,600,0,NA
"6393115","麺座でん　カツシカン！","東京都",1250041,35.771559,139.868524,"JR常磐線","金町駅",5,NA,NA,850,0,NA
"7427214","四条富小路 麺屋虎杖 有楽町","東京都",1000006,35.674989,139.764364,"ＪＲ","有楽町駅",1,NA,NA,1500,1,4
"7512465","Y’sラーメン","東京都",1790081,35.768573,139.646671,"東武東上線","下赤塚駅",6,NA,NA,1000,0,NA
"6951154","居酒屋あまのじゃく","東京都",1930833,35.644692,139.308124,"京王高尾線","めじろ台駅",1,NA,NA,3000,0,NA
"5496863","天空","東京都",1080073,35.647046,139.743381,"","",NA,NA,NA,820,3,3.33333333333333
"7609924","中華そば わたなべ","東京都",1110032,35.715666,139.794044,"つくばエクスプレス","浅草駅",2,NA,NA,800,0,NA
"7502025","らーめん屋 麺僧 南口店","東京都",1800003,35.702672,139.577665,"ＪＲ中央線","吉祥寺駅",4,NA,NA,1000,0,NA
"7496034","うまい肉と麺の店 ヨネ家","東京都",1460082,35.573691,139.699519,"","",NA,NA,NA,2800,0,NA
"7324960","ラーメン道楽 鮫洲店","東京都",1400011,35.60426,139.741519,"京急本線","鮫洲駅",2,NA,NA,900,0,NA
"7415095","宴客 駒込店","東京都",1700003,35.738758,139.746456,"ＪＲ","駒込駅",3,NA,NA,3000,0,NA
"6186310","洞くつ家","東京都",1800003,35.701916,139.580631,"ＪＲ","吉祥寺駅",2,NA,NA,999,6,4.58333333333333
"7679710","鶏しゃぶ屋 つるん","東京都",1420054,35.609333,139.705778,"","",NA,NA,NA,2500,0,NA
"7353986","鶏そば十番156 町田店","東京都",1940013,35.545094,139.446899,"小田急小田原線","町田駅",1,NA,NA,900,0,NA
"7236451","とんこつラーメン 博多風龍 秋葉原2号店","東京都",1010021,35.700384,139.771994,"ＪＲ","秋葉原駅",3,NA,NA,650,0,NA
"1006838","はくぶん","東京都",1600016,35.681913,139.71973,"ＪＲ総武線","信濃町駅",2,NA,NA,2000,0,NA
"7236458","とんこつラーメン 博多風龍 新宿東口店","東京都",1600022,35.692865,139.702119,"ＪＲ","新宿駅",2,NA,NA,650,2,3
"7431539","風風ラーメン 武蔵小金井店","東京都",1840004,35.702008,139.505979,"ＪＲ中央線","武蔵小金井駅",5,NA,NA,1200,10,3.21428571428571
"7431548","風風ラーメン 千歳烏山店","東京都",1570062,35.669459,139.599998,"京王線","千歳烏山駅",3,NA,NA,1200,0,NA
"6842417","本格博多豚骨ラーメン 豚野郎","東京都",1640001,35.704561,139.674267,"ＪＲ","中野駅",9,NA,NA,800,0,NA
"7535572","らーめん朝日堂","東京都",1340088,35.66495,139.860828,"地下鉄東西線","西葛西駅",2,NA,NA,800,0,NA
"7359337","中国菜館 岡田屋","東京都",1570072,35.643286,139.607814,"小田急小田原線","祖師ヶ谷大蔵駅",2,NA,NA,1500,0,NA
"7356411","らーめんZoot","東京都",1440051,35.562885,139.712242,"東急池上線","蒲田駅",4,NA,NA,1000,2,3.5
"7236459","とんこつラーメン 博多風龍 渋谷店","東京都",1500043,35.658536,139.698393,"京王井の頭線","渋谷駅",1,NA,NA,650,3,3
"7377099","一蘭 立川店","東京都",1900022,35.69705,139.415685,"ＪＲ","立川駅",3,NA,NA,800,3,2.83333333333333
"7475233","ラー麺ずんどう屋 目黒店","東京都",1410021,35.635361,139.715054,"ＪＲ","目黒駅",3,NA,NA,1000,0,NA
"7236461","とんこつラーメン 博多風龍 秋葉原昭和通り店","東京都",1010025,35.69838,139.77521,"ＪＲ","秋葉原駅",1,NA,NA,650,2,NA
"6431485","麺屋 藤しろ 目黒店","東京都",1410021,35.63425,139.714906,"都営三田線","目黒駅",1,NA,NA,780,1,4.5
"6324779","くれは","東京都",1880013,35.721952,139.542584,"西武新宿線","田無駅",8,NA,NA,800,2,4.25
"5663696","つじ田 神田御茶ノ水店","東京都",1010052,35.69532,139.766572,"","",NA,NA,NA,1000,20,3.875
"7735444","日本橋 麺屋ま石","東京都",1040061,35.672311,139.765189,"","",NA,NA,NA,1300,0,NA
"7735445","麺屋虎杖 渋谷店","東京都",1500043,35.658566,139.698628,"","",NA,NA,NA,1000,0,NA
"0045140","萬 福","東京都",1040061,35.671293,139.769488,"地下鉄","銀座駅",6,NA,NA,1800,3,3.83333333333333
"7727505","TAMAZOUー86","東京都",1920085,35.658559,139.334835,"ＪＲ","八王子駅",7,NA,NA,1500,0,NA
"6220285","肉そば家 笑梟","東京都",1600023,35.690412,139.687475,"都営大江戸線","西新宿五丁目駅",6,NA,NA,800,1,4
"7496164","らぁめん 末廣","東京都",1130022,35.725313,139.763346,"地下鉄千代田線","千駄木駅",1,NA,NA,1000,0,NA
"7488170","大王亭","東京都",1910062,35.660114,139.382036,"ＪＲ中央線","豊田駅",1,NA,NA,1000,0,NA
"7236449","とんこつラーメン 博多風龍 高田馬場店","東京都",1690075,35.713899,139.704448,"ＪＲ","高田馬場駅",1,NA,NA,650,2,3
"7682124","つじ田 池袋西口店","東京都",1710021,35.731806,139.706153,"","",NA,NA,NA,1000,0,NA
"7385358","麺屋 六感堂","東京都",1700013,35.733117,139.717918,"地下鉄丸ノ内線","池袋駅",7,NA,NA,1000,0,NA
"7513297","春木屋 吉祥寺店","東京都",1800004,35.705779,139.577462,"ＪＲ中央線","吉祥寺駅",5,NA,NA,1000,2,4.5
"7475235","ラー麺ずんどう屋 新宿歌舞伎町店","東京都",1600021,35.696804,139.701947,"西武新宿線","西武新宿駅",3,NA,NA,1000,1,3
"7377129","一蘭 渋谷店","東京都",1500041,35.661124,139.701079,"ＪＲ","渋谷駅",3,NA,NA,800,9,3.61111111111111
"7454992","とんこつ らい斗","東京都",1460083,35.570296,139.68963,"","",NA,NA,NA,700,0,NA
"7398827","福徳","東京都",1100016,35.706623,139.776466,"地下鉄日比谷線","仲御徒町駅",3,NA,NA,1000,2,NA
"7236463","とんこつラーメン 博多風龍 上野店","東京都",1100005,35.711168,139.775529,"ＪＲ","上野駅",1,NA,NA,650,0,NA
"7407448","伝承ラーメン北都","東京都",1040061,35.666559,139.770137,"地下鉄日比谷線","築地駅",3,NA,NA,1000,1,4
"7377115","一蘭 新橋店","東京都",1050004,35.667137,139.757032,"ＪＲ","新橋駅",1,NA,NA,1000,3,4.75
"7194121","ますたにラーメン 田町店","東京都",1080014,35.647334,139.744733,"ＪＲ","田町駅",6,NA,NA,1000,1,4
"7509797","東京餃子楼 京橋店","東京都",1040031,35.677365,139.769546,"地下鉄銀座線","京橋駅",2,NA,NA,1500,1,3
"7737213","麺屋藤しろ 練馬店","東京都",1760012,35.736252,139.651824,"","",NA,NA,NA,800,0,NA
"7085988","蒙古タンメン中本 上板橋本店","東京都",1740000,NA,NA,"","",NA,NA,NA,900,14,4.10714285714286
"7000690","GANCON NOODLE","東京都",1140015,35.736384,139.750169,"ＪＲ","駒込駅",1,NA,NA,800,0,NA
"7619672","辣鼎風","東京都",1070052,35.665715,139.730696,"都営大江戸線","六本木駅",2,NA,NA,1500,1,NA
"7377131","一蘭 六本木店","東京都",1060032,35.664214,139.731515,"地下鉄日比谷線","六本木駅",2,NA,NA,800,10,3.7
"7492362","とんこつラーメン よかろうもん","東京都",1300021,35.695349,139.805317,"都営新宿線","菊川駅",10,NA,NA,999,0,NA
"6955249","三角　砂場","東京都",1340013,35.674907,139.871554,"地下鉄東西線","葛西駅",NA,5,NA,1200,0,NA
"7505166","麺屋よし","東京都",1030002,35.693598,139.783113,"ＪＲ総武本線快速線","馬喰町駅",1,NA,NA,1000,0,NA
"7430024","麺屋かまし 桜","東京都",1560053,35.639876,139.636874,"東急世田谷線","上町駅",13,NA,NA,1000,0,NA
"7377123","一蘭 新宿中央東口店","東京都",1600022,35.690582,139.702761,"ＪＲ","新宿駅",3,NA,NA,800,14,3.875
"7373829","中国料理 精陽軒","東京都",1500002,35.660889,139.707745,"地下鉄銀座線","表参道駅",7,NA,NA,1500,0,NA
"6958546","麺家 さざん 町田店","東京都",1940014,35.539801,139.457045,"小田急小田原線","町田駅",10,NA,NA,700,1,3
"7680810","一蘭 西新宿店","東京都",1600022,35.694439,139.698576,"","",NA,NA,NA,1200,0,NA
"7377095","一蘭 浅草店","東京都",1110032,35.711185,139.797464,"地下鉄銀座線","浅草駅",1,NA,NA,800,0,NA
"7362682","麺酒盗 ざい八","東京都",1110032,35.719235,139.795627,"都営浅草線","浅草駅",17,NA,NA,1200,0,NA
"5497262","旨麺こむぎや","東京都",1300011,35.700223,139.799092,"都営大江戸線","両国駅",5,NA,NA,900,2,3
"6273004","屯ちん 池袋西口店","東京都",1710021,35.731421,139.710297,"JR山手線","池袋駅",2,NA,NA,800,6,3.5
"7689855","ヌードル・サウンズ 本郷三丁目店","東京都",1130033,35.704304,139.762194,"","",NA,NA,NA,850,0,NA
"7185719","来来亭 小平仲町店","東京都",1870042,35.730892,139.490749,"西武新宿線","小平駅",10,NA,NA,1000,0,NA
"7075133","AFURI 六本木ヒルズ","東京都",1060032,35.661814,139.730039,"東京メトロ日比谷線","六本木駅",1,NA,NA,NA,3,4.5
"5498998","天下一品 八王子店","東京都",1920082,35.658096,139.337851,"JR中央本線（東京-塩尻）","八王子駅",4,NA,NA,NA,0,NA
"6327990","福屋 矢口店","東京都",1460095,35.56343,139.699179,"東急多摩川線","矢口渡駅",1,NA,NA,NA,0,NA
"6440505","麺処 鳴声","東京都",1430025,35.586805,139.706336,"都営浅草線","西馬込駅",1,NA,NA,NA,0,NA
"7756853","ブタゴリラ","東京都",1150051,35.78874,139.697318,"JR埼京線","浮間舟渡駅",9,NA,NA,NA,0,NA
"7634313","暖暮 恵比寿南店","東京都",1500022,35.646148,139.708153,"東京メトロ日比谷線","恵比寿（東京都）駅",1,NA,NA,NA,0,NA
"6841961","いずみ家","東京都",1430022,35.598632,139.71251,"都営浅草線","馬込駅",2,NA,NA,NA,2,NA
"7377978","歌舞伎町麺’S倶楽部KING","東京都",1600021,35.695948,139.703077,"西武新宿線","西武新宿駅",5,NA,NA,NA,0,NA
"5808803","らあめん花月嵐 原町田店","東京都",1940013,35.540745,139.453318,"JR横浜線","町田駅",7,NA,NA,NA,1,4.5
"7749461","麺屋 クズ","東京都",1670051,35.703298,139.620772,"","",NA,NA,NA,NA,0,NA
"6928100","国振","東京都",1230853,35.762262,139.787731,"東武伊勢崎線","梅島駅",22,NA,NA,NA,3,5
"7686737","全国らーめん","東京都",1530042,35.647162,139.695601,"東京メトロ日比谷線","中目黒駅",6,NA,NA,NA,0,NA
"7751662","中華そば 36","東京都",1900012,35.698782,139.415137,"","",NA,NA,NA,NA,0,NA
"7710196","とんこつラーメン まる一","東京都",1230864,35.780254,139.750916,"都営日暮里・舎人ライナー","西新井大師西駅",27,NA,NA,NA,0,NA
"5499274","やすのたまぞう","東京都",1830057,35.683469,139.47931,"JR武蔵野線（府中本町-南船橋）","北府中駅",12,NA,NA,NA,4,4
"7210958","三代目 藤村商店","東京都",1350002,35.688824,139.815892,"東京メトロ半蔵門線","住吉（東京都）駅",1,NA,NA,NA,1,4
"5713280","蝦夷らーめん 太志","東京都",1580086,35.603985,139.652607,"東急大井町線","尾山台駅",5,NA,NA,NA,0,NA
"6847771","龍寿","東京都",1210064,35.802298,139.806763,"東武伊勢崎線","谷塚駅",21,NA,NA,NA,0,NA
"6745017","ラーメンショップマルキチェーン 拝島店","東京都",1960003,35.721052,139.342792,"西武拝島線","拝島駅",1,NA,NA,NA,0,NA
"7100204","じぱんぐ 上野駅前店","東京都",1100005,35.711013,139.776134,"東京メトロ日比谷線","上野駅",1,NA,NA,NA,2,NA
"7738681","自由が丘 蔭山樓","東京都",1940004,35.509583,139.470451,"東急田園都市線","南町田グランベリーパーク駅",2,NA,NA,NA,0,NA
"5907220","中華そば 青葉 学芸大学店","東京都",1520004,NA,NA,"東急東横線","学芸大学駅",3,NA,NA,NA,1,3
"5498944","江川亭八王子北店","東京都",1920031,35.685196,139.370839,"JR八高線（八王子-高麗川）","小宮駅",3,NA,NA,NA,0,NA
"7584625","よってこや 南池袋店","東京都",1710022,35.727964,139.713438,"東京メトロ副都心線","池袋駅",1,NA,NA,NA,0,NA
"5496926","ラーメン餃子館 小次郎 新宿店","東京都",1690072,35.698209,139.707149,"都営大江戸線（環状部）","東新宿駅",1,NA,NA,NA,3,4
"7170242","中華料理 珍来","東京都",1730004,35.748104,139.719729,"都営三田線","新板橋駅",1,NA,NA,NA,0,NA
"7703711","味好","東京都",1200005,35.76543,139.821516,"東京メトロ千代田線","綾瀬駅",7,NA,NA,NA,0,NA
"6155399","松波ラーメン店","東京都",1540023,35.644031,139.655911,"東急世田谷線","松陰神社前駅",1,NA,NA,NA,3,4.5
"6186146","タロー軒","東京都",1660003,35.698602,139.649201,"東京メトロ丸ノ内線","新高円寺駅",2,NA,NA,NA,0,NA
"6316561","喜多方ラーメン 坂内 池袋サンシャイン店","東京都",1700013,35.728878,139.719866,"東京メトロ有楽町線","東池袋駅",8,NA,NA,NA,1,5
"6204163","麺屋黒船 本所4丁目店","東京都",1300004,35.705167,139.804851,"都営浅草線","本所吾妻橋駅",4,NA,NA,NA,0,NA
"5499116","天下一品 立川店","東京都",1900022,35.696079,139.416279,"JR中央本線（東京-塩尻）","立川駅",4,NA,NA,NA,1,3
"7704521","AFURI辛紅 池袋","東京都",1710021,35.731778,139.710036,"東京メトロ丸ノ内線","池袋駅",1,NA,NA,NA,0,NA
"5497388","まる金ラーメン木場店","東京都",1350042,35.669854,139.802427,"東京メトロ東西線","木場駅",4,NA,NA,NA,1,5
"7055838","きみの","東京都",1620825,35.700921,139.742651,"東京メトロ南北線","飯田橋駅",1,NA,NA,NA,2,NA
"7538390","油君 油そば専門店 新宿店","東京都",1600022,35.689471,139.708546,"東京メトロ丸ノ内線","新宿御苑前駅",2,NA,NA,NA,0,NA
"6185730","ほん田","東京都",1010054,35.693869,139.764163,"都営新宿線","小川町（東京都）駅",1,NA,NA,NA,1,3
"6155462","復興軒","東京都",1310045,NA,NA,"東武伊勢崎線","とうきょうスカイツリー［業平橋］駅",1,NA,NA,NA,0,NA
"5253735","宝来軒","東京都",1001511,33.120508,139.80101,"","",NA,NA,NA,NA,0,NA
"7707049","麺巧潮 上野製麺所","東京都",1100015,35.711018,139.779119,"東京メトロ日比谷線","上野駅",2,NA,NA,NA,0,NA
"6972700","駒","東京都",2080001,35.757725,139.403747,"多摩都市モノレール線","上北台駅",25,NA,NA,NA,0,NA
"7734350","龍聖軒","東京都",1950053,35.587407,139.479728,"小田急小田原線","鶴川駅",9,NA,NA,NA,0,NA
"5399984","杏苑","東京都",1810013,35.687901,139.56155,"JR中央本線（東京-塩尻）","三鷹駅",21,NA,NA,NA,0,NA
"7133862","麺屋まぜはる","東京都",1110053,35.697975,139.780914,"JR総武線各停（御茶ノ水-錦糸町）","浅草橋駅",4,NA,NA,NA,0,NA
"7686259","博多ラーメン 長風 新秋津店","東京都",1890001,35.777489,139.493413,"JR武蔵野線（府中本町-南船橋）","新秋津駅",1,NA,NA,NA,0,NA
"6272250","俺流塩らーめん 神楽坂店","東京都",1620825,35.700938,139.741793,"東京メトロ南北線","飯田橋駅",1,NA,NA,NA,6,3.33333333333333
"6893102","幸楽苑 田無店","東京都",1880003,35.733662,139.542872,"西武新宿線","田無駅",11,NA,NA,NA,0,NA
"7074151","太陽のトマト麺 木場支店","東京都",1350016,35.669115,139.809449,"東京メトロ東西線","木場駅",2,NA,NA,NA,0,NA
"7753096","限定中華 レッドストーン","東京都",1070052,35.673582,139.737847,"","",NA,NA,NA,NA,0,NA
"6841784","巓","東京都",1340084,35.666887,139.878841,"東京メトロ東西線","葛西駅",11,NA,NA,NA,1,NA
"5499134","ラーメンのあっちゃん","東京都",1900021,35.695782,139.426378,"ＪＲ南武線（川崎-立川）","西国立駅",4,NA,NA,NA,0,NA
"7117784","インディアン 本店","東京都",1440051,35.565185,139.709184,"東急池上線","蓮沼駅",2,NA,NA,NA,1,3
"7467855","麺屋 清","東京都",1710052,35.728305,139.682569,"西武池袋線","東長崎駅",2,NA,NA,NA,0,NA
"5497697","ラーメン処熊っこ","東京都",1440031,35.564525,139.729441,"京急本線","梅屋敷（東京都）駅",4,NA,NA,NA,0,NA
"6959225","幸楽苑 足立江北店","東京都",1230872,35.778538,139.765304,"都営日暮里・舎人ライナー","西新井大師西駅",10,NA,NA,NA,2,NA
"6900621","麺 酒 やまの","東京都",1760012,35.735926,139.65421,"都営大江戸線（放射部）","練馬駅",3,NA,NA,NA,1,4
"6663292","麺屋和福","東京都",1850021,35.69805,139.479679,"西武国分寺線","国分寺駅",3,NA,NA,NA,1,3.5
"5837528","風来居 渋谷店","東京都",1500046,35.660035,139.695162,"東京メトロ半蔵門線","渋谷駅",4,NA,NA,NA,3,3.75
"7073513","羊と狼","東京都",1430016,35.578637,139.731662,"京急本線","平和島駅",4,NA,NA,NA,0,NA
"7754952","ラーメン しじみ軒","東京都",1010051,35.698224,139.75668,"東京メトロ半蔵門線","神保町駅",3,NA,NA,NA,0,NA
"7704106","つけ麺専門 百の輔","東京都",1010021,35.699672,139.769512,"JR京浜東北線","秋葉原駅",5,NA,NA,NA,0,NA
"7704537","中華料理 祥和","東京都",1250062,35.747011,139.855975,"京成押上線","青砥駅",3,NA,NA,NA,0,NA
"5499723","コタン","東京都",2020002,35.753074,139.546001,"西武池袋線","ひばりヶ丘（東京都）駅",2,NA,NA,NA,0,NA
"7632962","濃菜麺 井の庄 荻窪店","東京都",1670043,35.705784,139.617997,"JR中央本線（東京-塩尻）","荻窪駅",2,NA,NA,NA,0,NA
"7375318","ばんから 立川北口店","東京都",1900012,NA,NA,"多摩都市モノレール線","立川南駅",2,NA,NA,NA,0,NA
"7279704","横浜家系ラーメン希家 矢口渡店","東京都",1460095,35.562891,139.700054,"東急多摩川線","矢口渡駅",1,NA,NA,NA,1,3.5
"7740867","鶏そば、鯛そば 久松","東京都",1710014,35.732289,139.705952,"東京メトロ副都心線","池袋駅",1,NA,NA,NA,0,NA
"7625046","よってこや 五反田店","東京都",1410031,NA,NA,"都営浅草線","五反田駅",1,NA,NA,NA,0,NA
"7665487","札幌熟成味噌らーめん匠神 湯島店","東京都",1130034,35.705868,139.769568,"東京メトロ千代田線","湯島駅",1,NA,NA,NA,0,NA
"5499220","幸楽苑青梅店","東京都",1980032,35.788663,139.287033,"JR青梅線","河辺駅",7,NA,NA,NA,0,NA
"6044674","札幌や","東京都",1050003,35.667742,139.752793,"都営三田線","内幸町駅",1,NA,NA,NA,0,NA
"7745981","背油とんこつらーめん 雷門","東京都",1350047,35.671698,139.796022,"","",NA,NA,NA,NA,0,NA
"7520607","塩そば 加とう","東京都",1520035,35.606813,139.66823,"東急大井町線","自由が丘（東京都）駅",1,NA,NA,NA,0,NA
"5713333","支那そば いしはら","東京都",1670042,35.704808,139.599932,"ＪＲ中央本線（東京-塩尻）","西荻窪駅",1,NA,NA,NA,5,5
"6431486","麺屋すみす","東京都",1070062,35.671543,139.723917,"東京メトロ半蔵門線","青山一丁目駅",1,NA,NA,NA,2,NA
"7412415","ファミリー亭","東京都",1240011,35.740927,139.835247,"京成本線","お花茶屋駅",13,NA,NA,NA,0,NA
"7415902","らぁめん山と樹","東京都",1660003,35.703362,139.655084,"JR中央本線","高円寺駅",10,NA,NA,NA,0,NA
"7745966","鴨出汁中華蕎麦 麺屋yoshiki","東京都",1240023,35.719075,139.858262,"","",NA,NA,NA,NA,0,NA
"7190844","鯛塩そば 灯花","東京都",1600006,35.690913,139.721706,"都営新宿線","曙橋駅",2,NA,NA,NA,2,NA
"7745923","ラーメン魁力屋 多摩ニュータウン通り店","東京都",2060014,35.632134,139.441293,"","",NA,NA,NA,NA,0,NA
"6310249","らあめん花月嵐 京王八王子店","東京都",1920082,35.657696,139.341189,"京王線","京王八王子駅",2,NA,NA,NA,0,NA
"5499408","ラーメン大桜 町田森野店","東京都",1940022,35.551435,139.43158,"JR横浜線","古淵駅",18,NA,NA,NA,1,3
"5499454","ちば唐麺","東京都",1870002,35.725951,139.519252,"西武新宿線","花小金井駅",7,NA,NA,NA,0,NA
"6714092","当り屋","東京都",2030043,35.750778,139.500714,"西武拝島線","小平駅",28,NA,NA,NA,0,NA
"7751592","高尾タンメン 頂","東京都",1930831,35.652106,139.301857,"","",NA,NA,NA,NA,0,NA
"6956440","浜屋 西新井店","東京都",1230843,35.773972,139.790671,"東武伊勢崎線（東武スカイツリーライン）","西新井駅",5,NA,NA,NA,0,NA
"6439029","麺屋 ほたる","東京都",1140023,35.745913,139.720329,"JR埼京線","板橋駅",1,NA,NA,NA,3,3.5
"5499697","ラーメンショップ椿 緑ヶ丘店","東京都",2050003,35.771082,139.315437,"JR青梅線","小作駅",22,NA,NA,NA,0,NA
"6208089","みそや林檎堂 APPLE BASIC","東京都",1640003,35.703997,139.682703,"都営大江戸線（放射部）","東中野駅",4,NA,NA,NA,2,1.5
"7501721","ラーメン バラそば屋 阿佐ヶ谷店","東京都",1660001,35.705745,139.636121,"JR中央本線（東京-塩尻）","阿佐ヶ谷駅",3,NA,NA,NA,0,NA
"6012737","らーめん しおの風","東京都",1210813,35.797642,139.794279,"東武伊勢崎線","竹ノ塚駅",7,NA,NA,NA,7,4
"7134667","てんがら 青梅新町店","東京都",1980024,35.789644,139.317014,"JR青梅線","小作駅",30,NA,NA,NA,0,NA
"7671281","にぼ吉","東京都",1200041,35.755158,139.794166,"東京メトロ千代田線","北千住駅",16,NA,NA,NA,0,NA
"1020617","ハッスルラーメン ホンマ 浅草店","東京都",1110032,35.716037,139.798318,"東武伊勢崎線","浅草駅",6,NA,NA,700,2,3
"6417378","太陽のトマト麺 三田支店","東京都",1080073,35.647246,139.743744,"都営三田線","三田（東京都）駅",4,NA,NA,NA,3,3.5
"7747611","西安麺荘 秦唐記 神保町店","東京都",1010051,35.696075,139.754142,"東京メトロ半蔵門線","神保町駅",2,NA,NA,NA,0,NA
"6938611","たまがわや","東京都",1580097,35.628568,139.633013,"東急田園都市線","用賀駅",3,NA,NA,NA,0,NA
"6155452","いつみ屋","東京都",1830027,35.668012,139.476858,"JR南武線（川崎-立川）","府中本町駅",3,NA,NA,NA,4,4.375
"6167597","江川亭 武蔵村山店","東京都",2080034,35.751197,139.373872,"","",NA,NA,NA,NA,0,NA
"6297561","一","東京都",1500001,35.67084,139.707397,"東京メトロ副都心線","明治神宮前駅",4,NA,NA,NA,2,5
"6332389","横濱家 高尾店","東京都",1930844,35.644626,139.283848,"京王高尾線","高尾（東京都）駅",4,NA,NA,NA,0,NA
"5499434","宝来軒","東京都",1840003,35.702479,139.521258,"JR中央本線（東京-塩尻）","東小金井駅",5,NA,NA,NA,1,2
"5496561","福寿","東京都",1020083,35.684678,139.736269,"東京メトロ有楽町線","麹町駅",2,NA,NA,NA,0,NA
"6163965","ラーメン王","東京都",1600021,NA,NA,"東京メトロ丸ノ内線","新宿駅",2,NA,NA,NA,0,NA
"7170238","小川 昭島店","東京都",1960014,35.705763,139.354692,"ＪＲ青梅線","昭島駅",14,NA,NA,NA,0,NA
"5713209","油そば専門店浜そば 本店","東京都",1130034,35.70836,139.770537,"東京メトロ千代田線","湯島駅",1,NA,NA,NA,5,4
"7648515","赤坂味一 亀戸店","東京都",1360071,35.698962,139.823802,"JR総武本線（東京-銚子）","亀戸駅",4,NA,NA,NA,2,NA
"7617287","天竜 蒲田店","東京都",1440051,35.5635,139.71615,"東急多摩川線","蒲田駅",2,NA,NA,NA,0,NA
"5801596","らあめん花月嵐 武蔵関店","東京都",1770051,35.727136,139.576839,"西武新宿線","武蔵関駅",1,NA,NA,NA,0,NA
"6129999","ラーメン リバーサイド","東京都",1340088,NA,NA,"","",NA,NA,NA,NA,0,NA
"6771182","らーめん てんぐ","東京都",1320024,35.69062,139.880517,"都営新宿線","一之江駅",8,NA,NA,NA,0,NA
"7198187","徳福 神田店","東京都",1010047,NA,NA,"ＪＲ中央本線（東京-塩尻）","神田（東京都）駅",1,NA,NA,NA,0,NA
"6393138","横浜家系ラーメン 武虎家","東京都",1520011,35.615685,139.698178,"東急目黒線","西小山駅",1,NA,NA,NA,0,NA
"7633259","中華そば 天","東京都",1140034,35.759406,139.721589,"JR埼京線","十条（東京都）駅",2,NA,NA,NA,0,NA
"7415276","らーめん 清龍","東京都",1360072,35.68933,139.836738,"都営新宿線","大島（東京都）駅",1,NA,NA,NA,0,NA
"6356339","らーめん なが田","東京都",1360071,35.699596,139.82681,"東武亀戸線","亀戸駅",4,NA,NA,NA,2,3
"5498371","王子ラーメン","東京都",1140003,35.761347,139.743257,"東京メトロ南北線","王子神谷駅",13,NA,NA,NA,4,3
"7085371","葛西 めんや","東京都",1340083,35.663609,139.872186,"東京メトロ東西線","葛西駅",1,NA,NA,NA,0,NA
"6166550","おおむら","東京都",1800003,35.702536,139.579689,"京王井の頭線","吉祥寺駅",1,NA,NA,NA,0,NA
"6167632","麺や 天鳳 東中野店","東京都",1640003,35.709785,139.684091,"東京メトロ東西線","落合（東京都）駅",1,NA,NA,NA,0,NA
"6940122","横浜家系ラーメン 一刀家","東京都",1070052,35.673866,139.737311,"東京メトロ千代田線","赤坂（東京都）駅",2,NA,NA,NA,3,3
"6155372","中華 永楽","東京都",1360076,35.672009,139.832719,"東京メトロ東西線","南砂町駅",5,NA,NA,NA,0,NA
"6996008","超大吉 上野店","東京都",1100005,35.708813,139.7759,"都営大江戸線（環状部）","上野御徒町駅",2,NA,NA,NA,1,3.5
"7657753","東京まぜそば 本舗","東京都",1420064,35.605403,139.704202,"東急大井町線","旗の台駅",1,NA,NA,NA,0,NA
"7652541","田中そば店 浅草店","東京都",1110032,35.711557,139.797188,"","",NA,NA,NA,NA,0,NA
"5499285","すずらん","東京都",1960024,35.714624,139.376701,"JR青梅線","中神駅",10,NA,NA,NA,0,NA
"7273571","由丸製麺所 平和島店","東京都",1430016,35.582715,139.736234,"京急本線","大森海岸駅",7,NA,NA,NA,0,NA
"5894946","ラーメン魁力屋 武蔵村山店","東京都",2080011,35.748443,139.406294,"多摩都市モノレール線","上北台駅",13,NA,NA,NA,1,3.5
"7710294","伊蔵八 中華そば","東京都",1530052,35.637718,139.691338,"東急東横線","祐天寺駅",1,NA,NA,NA,0,NA
"7349741","博多天神 渋谷南口店","東京都",1500043,35.657927,139.699478,"京王井の頭線","渋谷駅",1,NA,NA,NA,2,2.25
"6718317","広州市場 新宿東口店","東京都",1600022,35.692535,139.703049,"東京メトロ丸ノ内線","新宿三丁目駅",1,NA,NA,NA,3,4.5
"6718279","札幌麺や鬼てつ","東京都",1320024,NA,NA,"都営新宿線","一之江駅",17,NA,NA,NA,0,NA
"7162130","極や 上野広小路店","東京都",1100005,35.708168,139.773451,"東京メトロ銀座線","上野広小路駅",1,NA,NA,NA,0,NA
"6937678","いし井 五反田店","東京都",1410031,35.623757,139.7222,"東急池上線","大崎広小路駅",3,NA,NA,NA,0,NA
"7588921","パークス 代々木の丘","東京都",1510052,NA,NA,"東京メトロ副都心線","明治神宮前駅",10,NA,NA,NA,0,NA
"6155435","ラーメン 藍華","東京都",1920063,35.662878,139.333301,"JR中央本線（東京-塩尻）","八王子駅",13,NA,NA,NA,0,NA
"7134114","中華そば 七麺鳥","東京都",1100003,35.724847,139.77875,"ＪＲ京浜東北線","鶯谷駅",4,NA,NA,NA,0,NA
"6166167","壱蔵","東京都",1210062,35.790402,139.821866,"つくばエクスプレス","六町駅",7,NA,NA,NA,1,4
"7433367","支那そば たなか","東京都",1660001,35.707804,139.63967,"JR中央本線（東京-塩尻）","阿佐ヶ谷駅",6,NA,NA,NA,0,NA
"7472199","せい家町田店","東京都",1940013,35.543745,139.446204,"小田急小田原線","町田駅",1,NA,NA,NA,0,NA
"7266845","中華そば きび","東京都",1560043,35.668761,139.648985,"京王井の頭線","明大前駅",2,NA,NA,NA,0,NA
"5713404","博多長浜らーめん 六角堂 八王子店","東京都",1920355,35.629403,139.401969,"京王相模原線","京王堀之内駅",10,NA,NA,NA,1,4
"5499357","九一麺 町田","東京都",1940203,35.581779,139.419164,"","",NA,NA,NA,NA,0,NA
"7710267","中華ソバ ビリケン","東京都",1110034,35.70908,139.795726,"都営浅草線","浅草駅",1,NA,NA,NA,0,NA
"7738671","AFURI南町田グランベリーパーク","東京都",1940004,35.509583,139.470451,"東急田園都市線","南町田グランベリーパーク駅",2,NA,NA,NA,0,NA
"7653176","めん屋 桔梗 沼袋店","東京都",1650022,35.724016,139.662876,"","",NA,NA,NA,NA,0,NA
"5497152","朝日山","東京都",1110022,35.723014,139.801803,"東京メトロ日比谷線","南千住（地下鉄線）駅",13,NA,NA,NA,0,NA
"7754983","孫鈴舎","東京都",1000005,35.67858,139.765641,"JR京葉線","東京駅",1,NA,NA,NA,0,NA
"6767784","大信州","東京都",1310032,35.726031,139.822474,"東武伊勢崎線","東向島駅",4,NA,NA,NA,0,NA
"7647048","食処もとまちや","東京都",1000101,34.748806,139.355324,"","",NA,NA,NA,NA,0,NA
"5496749","桂","東京都",1070052,35.670566,139.74158,"東京メトロ南北線","溜池山王駅",1,NA,NA,NA,0,NA
"7270837","十兵衛","東京都",1770045,35.743293,139.590345,"西武池袋線","大泉学園駅",12,NA,NA,NA,0,NA
"7746056","京風らーめん＆甘味処 もも花","東京都",1710022,35.728572,139.711758,"","",NA,NA,NA,NA,0,NA
"7075122","鶏そば十番156 麻布十番本店","東京都",1060045,35.655365,139.736181,"東京メトロ南北線","麻布十番駅",1,NA,NA,NA,3,4.33333333333333
"7227738","護摩龍","東京都",1690073,35.69992,139.697566,"ＪＲ中央本線（東京-塩尻）","大久保（東京都）駅",1,NA,NA,NA,2,NA
"5499043","元木屋","東京都",1920055,35.661567,139.323116,"ＪＲ中央本線（東京-塩尻）","西八王子駅",16,NA,NA,NA,0,NA
"7151738","らーめんまる玉 大島店","東京都",1360072,35.689366,139.832149,"都営新宿線","大島（東京都）駅",2,NA,NA,NA,2,NA
"5399561","仙楽園","東京都",1240022,35.736247,139.855734,"京成押上線","京成立石駅",10,NA,NA,NA,0,NA
"5499710","美イ美","東京都",1970822,35.720238,139.32225,"JR五日市線","東秋留駅",18,NA,NA,NA,0,NA
"5498542","武蔵家 板橋店","東京都",1740071,35.758244,139.694122,"東武東上線","中板橋駅",5,NA,NA,NA,2,3
"7686379","札幌本舗 クレアタワー店","東京都",1050013,NA,NA,"都営大江戸線（環状部）","大門（東京都）駅",2,NA,NA,NA,1,4.5
"7578907","菜香苑 新御茶ノ水・神田店","東京都",1010052,35.694048,139.765731,"地下鉄千代田線","新御茶ノ水駅",1,NA,NA,NA,0,NA
"7268816","BASSO 江戸川橋","東京都",1620801,35.707145,139.730507,"地下鉄有楽町線","江戸川橋駅",6,NA,NA,NA,0,NA
"7433064","陽はまたのぼる","東京都",1200005,35.758044,139.826155,"東京メトロ千代田線","綾瀬駅",8,NA,NA,NA,0,NA
"6393166","麺や越","東京都",1120001,35.721483,139.752041,"都営三田線","白山（東京都）駅",1,NA,NA,NA,0,NA
"6193738","麺屋 とみ吉","東京都",1600017,35.687233,139.720067,"東京メトロ丸ノ内線","四谷三丁目駅",1,NA,NA,NA,0,NA
"6747102","いとうや","東京都",1400004,35.611384,139.740121,"京急本線","青物横丁駅",4,NA,NA,NA,0,NA
"7182255","九州博多らーめん麺屋悟空","東京都",1900023,35.696271,139.413138,"多摩都市モノレール線","立川南駅",1,NA,NA,NA,0,NA
"7641905","長尾中華そば 神田店","東京都",1500002,35.694042,139.765834,"地下鉄丸ノ内線","淡路町駅",2,NA,NA,NA,0,NA
"7382098","辛っとろ麻婆麺 あかずきん","東京都",1570073,35.640791,139.608009,"小田急小田原線","祖師ヶ谷大蔵駅",3,NA,NA,NA,0,NA
"5499019","弁慶","東京都",1920045,35.662401,139.354024,"JR八高線（八王子-高麗川）","北八王子駅",15,NA,NA,NA,0,NA
"5498699","ひさごや","東京都",1210075,35.783836,139.810928,"つくばエクスプレス","六町駅",14,NA,NA,NA,0,NA
"7754802","熟成味噌タンメン 蔵味噌屋","東京都",1030025,35.679488,139.780654,"東京メトロ日比谷線","茅場町駅",1,NA,NA,NA,0,NA
"7646966","麺や そめいよしの 西荻窪店","東京都",1670053,35.703214,139.599935,"JR中央本線（東京-塩尻）","西荻窪駅",1,NA,NA,NA,0,NA
"7115290","俺流塩らーめん 東急本店前","東京都",1500043,35.660221,139.696356,"東京メトロ半蔵門線","渋谷駅",3,NA,NA,NA,0,NA
"5661055","大勝軒 まるいち 赤羽店","東京都",1150045,35.778323,139.722155,"JR京浜東北線","赤羽駅",1,NA,NA,NA,0,NA
"7563225","節骨麺たいぞう 葛西店","東京都",1340083,35.663562,139.871261,"東京メトロ東西線","葛西駅",1,NA,NA,NA,0,NA
"6961781","味噌らーめん 宮本太郎。","東京都",1740076,35.764731,139.675101,"東武東上線","上板橋駅",3,NA,NA,NA,0,NA
"6308261","ロジェ カフェヌードル","東京都",1130034,35.703349,139.76589,"東京メトロ丸ノ内線","御茶ノ水駅",7,NA,NA,NA,0,NA
"7480819","らーめん一力堂 三田店","東京都",1080014,35.647894,139.746483,"都営三田線","三田（東京都）駅",2,NA,NA,NA,0,NA
"7685664","ラーメン凪 田町店","東京都",1080023,35.644675,139.748547,"JR京浜東北線","田町（東京都）駅",2,NA,NA,NA,0,NA
"5668071","串とろ","東京都",1060032,35.664375,139.730556,"都営大江戸線（環状部）","六本木駅",1,NA,NA,NA,1,4
"6167605","麺や天鳳 方南町店","東京都",1680062,35.684118,139.659773,"東京メトロ丸ノ内線（中野坂上-方南町）","方南町駅",2,NA,NA,NA,0,NA
"6211857","神保町 可以","東京都",1010051,35.696336,139.757403,"東京メトロ半蔵門線","神保町駅",1,NA,NA,NA,9,2
"7646491","麺ハチイチ／81 NOODLE BAR","東京都",1800004,35.703244,139.575798,"京王井の頭線","吉祥寺駅",5,NA,NA,NA,0,NA
"7257419","麺屋 ふじ田","東京都",1160014,35.727391,139.772264,"JR京浜東北線","日暮里駅",2,NA,NA,NA,2,3.5
"1005450","たつみ","東京都",1820026,35.654239,139.542563,"京王線","調布駅",3,NA,NA,NA,1,3
"7198268","百家","東京都",1580097,35.626876,139.634316,"東急田園都市線","用賀駅",1,NA,NA,NA,0,NA
"6372676","長浜らーめん","東京都",1920034,35.677194,139.354326,"JR八高線（八王子-高麗川）","北八王子駅",19,NA,NA,NA,0,NA
"7686726","特濃中華そば 龍桜","東京都",1210064,35.804533,139.802677,"東武伊勢崎線","谷塚駅",16,NA,NA,NA,5,3.5
"5497572","ラーメン隊","東京都",1530062,35.639727,139.711178,"ＪＲ山手線","目黒駅",10,NA,NA,NA,0,NA
"5498604","丸源ラーメン 練馬関町店","東京都",1770051,35.731466,139.571831,"西武新宿線","武蔵関駅",10,NA,NA,NA,5,3.7
"7582871","札幌ラーメン どさん子 千住一丁目店","東京都",1200034,35.747588,139.801552,"地下鉄千代田線","北千住駅",6,NA,NA,NA,0,NA
"7104935","カシムラ","東京都",1050021,35.661343,139.756554,"都営大江戸線（環状部）","汐留駅",3,NA,NA,NA,0,NA
"6155389","昭島 大勝軒","東京都",1960015,35.713293,139.361149,"JR青梅線","昭島駅",1,NA,NA,NA,1,4
"6436785","八海ラーメン","東京都",1830016,35.669643,139.487754,"京王競馬場線","府中競馬正門前駅",5,NA,NA,NA,0,NA
"7084012","山川屋","東京都",1790083,35.762467,139.662086,"東京メトロ有楽町線","平和台（東京都）駅",12,NA,NA,NA,0,NA
"6952290","いなり","東京都",1800006,35.704941,139.562891,"JR中央本線（東京-塩尻）","三鷹駅",5,NA,NA,NA,1,3
"7734268","なおじ 新橋店","東京都",1050004,35.664528,139.75704,"JR京浜東北線","新橋駅",2,NA,NA,NA,0,NA
"7433390","三足 聖蹟桜ヶ丘店","東京都",2060011,35.651835,139.445936,"京王線","聖蹟桜ヶ丘駅",3,NA,NA,NA,0,NA
"6186150","ラーメン二郎 新宿小滝橋通り店","東京都",1600023,NA,NA,"西武新宿線","西武新宿駅",3,NA,NA,NA,1,NA
"5396933","中華三原","東京都",1040061,35.670289,139.765636,"東京メトロ日比谷線","東銀座駅",1,NA,NA,NA,5,3.5
"7069838","味の天徳 分倍河原店","東京都",1830021,35.668984,139.469042,"京王線","分倍河原駅",1,NA,NA,NA,0,NA
"7378430","初代えーいち","東京都",1780063,NA,NA,"西武池袋線","大泉学園駅",4,NA,NA,NA,0,NA
"5499645","みよし","東京都",2080021,NA,NA,"","",NA,NA,NA,NA,0,NA
"5498049","藤華","東京都",1640001,35.706746,139.672354,"東京メトロ東西線","中野（東京都）駅",8,NA,NA,NA,0,NA
"7509973","らーめん酒場 青山","東京都",1610033,35.722026,139.697382,"西武池袋線","椎名町駅",8,NA,NA,NA,0,NA
"7645873","麺匠 きんいろ 水道橋","東京都",1010061,35.700449,139.753178,"JR中央本線（東京-塩尻）","水道橋駅",3,NA,NA,NA,0,NA
"6742048","ラーメン 吉田屋","東京都",1350006,35.685505,139.798241,"都営新宿線","森下（東京都）駅",2,NA,NA,NA,0,NA
"7397751","KaneKitchen Noodles","東京都",1710052,35.728977,139.682732,"西武池袋線","東長崎駅",1,NA,NA,NA,0,NA
"5498865","ちりめん亭 中葛西店","東京都",1340083,35.662959,139.867614,"東京メトロ東西線","葛西駅",7,NA,NA,NA,1,3
"7644242","江戸前つけ麺 銀座 魄瑛","東京都",1040061,35.670772,139.767535,"ＪＲ","有楽町駅",8,NA,NA,NA,0,NA
"5839943","めん処 さんば","東京都",1030026,35.679755,139.776177,"東京メトロ日比谷線","茅場町駅",3,NA,NA,NA,0,NA
"5497315","らーめんごっこ山小屋","東京都",1300011,NA,NA,"ＪＲ総武本線（東京-銚子）","錦糸町駅",12,NA,NA,NA,0,NA
"7710352","田中そば店 武蔵境店","東京都",1800022,35.703324,139.544054,"西武多摩川線","武蔵境駅",2,NA,NA,NA,0,NA
"5499555","シナノヤ","東京都",1970011,35.745049,139.325501,"JR青梅線","福生駅",5,NA,NA,NA,0,NA
"5498885","万来軒","東京都",1330057,35.734151,139.873594,"ＪＲ総武本線（東京-銚子）","小岩駅",11,NA,NA,NA,0,NA
"5499498","くるまやラーメン 東村山店","東京都",1890002,35.766349,139.490598,"JR武蔵野線（府中本町-南船橋）","新秋津駅",20,NA,NA,NA,0,NA
"5399393","珍来 竹の塚西口店","東京都",1210822,35.794089,139.789307,"東武伊勢崎線","竹ノ塚駅",2,NA,NA,NA,0,NA
"7726917","博多長浜ラーメン 風び 国立店","東京都",1860002,35.697097,139.448442,"JR中央本線（東京-塩尻）","国立駅",4,NA,NA,NA,0,NA
"5619419","大田屋","東京都",1440056,35.541535,139.706707,"京急本線","六郷土手駅",2,NA,NA,NA,0,NA
"6364825","自家製麺 伊藤 浅草店","東京都",1110032,35.712382,139.792682,"つくばエクスプレス","浅草（つくばエクスプレス）駅",2,NA,NA,NA,0,NA
"5499588","ごてん","東京都",2070013,35.738384,139.444683,"西武拝島線","東大和市駅",14,NA,NA,NA,0,NA
"7523865","麺家 六三四","東京都",1330057,35.730094,139.876811,"JR総武本線（東京-銚子）","小岩駅",7,NA,NA,NA,0,NA
"7669278","らーめん 藪づか","東京都",1100005,35.705124,139.773118,"東京メトロ銀座線","末広町（東京都）駅",4,NA,NA,NA,0,NA
"6186231","エース軒","東京都",1400011,35.607076,139.738299,"JR京浜東北線","大井町駅",4,NA,NA,NA,0,NA
"7472213","北海道らーめん 伝丸 羽村店","東京都",2050002,35.774359,139.306841,"JR青梅線","小作駅",7,NA,NA,NA,0,NA
"6125018","桂園 本郷三丁目店","東京都",1130033,35.707276,139.760839,"地下鉄丸ノ内線","本郷三丁目駅",2,NA,NA,2500,0,NA
"5496484","中華そば青葉 飯田橋店","東京都",1020071,35.698874,139.744603,"JR中央本線（東京-塩尻）","飯田橋駅",3,NA,NA,800,5,3.9
"7085490","由丸 九段下店","東京都",1020073,35.696574,139.7514,"東京メトロ東西線","九段下駅",2,NA,NA,NA,0,NA
"7523896","らーめん 高はし","東京都",1540004,35.643884,139.67052,"東急田園都市線","三軒茶屋駅",1,NA,NA,NA,0,NA
"7380857","Pal","東京都",1430016,35.585214,139.726804,"JR京浜東北線","大森（東京都）駅",6,NA,NA,NA,0,NA
"5498652","くるまやラーメン 青井店","東京都",1210012,35.778281,139.817097,"つくばエクスプレス","青井駅",12,NA,NA,NA,0,NA
"7745621","しゅういち 恵比寿店","東京都",1500021,35.647215,139.70832,"地下鉄日比谷線","恵比寿駅",1,NA,NA,NA,2,NA
"7199934","麺処 花札","東京都",1110032,35.717018,139.793135,"つくばエクスプレス","浅草（つくばエクスプレス）駅",5,NA,NA,NA,0,NA
"7660324","ど みそ グランデュオ立川店","東京都",1900023,35.697387,139.414832,"","",NA,NA,NA,NA,0,NA
"7690925","和歌山ラーメン まる岡","東京都",1250061,35.767852,139.845873,"JR常磐線","亀有駅",4,NA,NA,NA,0,NA
"5713456","らあめん花月嵐 羽村店","東京都",2050023,35.755379,139.320704,"JR青梅線","羽村駅",8,NA,NA,NA,1,4
"6718319","らーめん村","東京都",1300003,35.704517,139.814111,"東京メトロ半蔵門線","押上［スカイツリー前］駅",6,NA,NA,NA,0,NA
"7586001","手包み餃子 中華酒菜たなか 池袋店","東京都",1710014,35.732754,139.704715,"地下鉄副都心線","池袋駅",3,NA,NA,NA,1,5
"7073665","らーめん道 八王子","東京都",1930813,35.679889,139.298414,"","",NA,NA,NA,NA,0,NA
"7623565","ひるがお人形町店","東京都",1030013,35.686988,139.781462,"東京メトロ日比谷線","人形町駅",1,NA,NA,NA,0,NA
"5498650","熊ぼっこ","東京都",1210072,35.785816,139.810811,"つくばエクスプレス","六町駅",14,NA,NA,NA,0,NA
"6185688","助六","東京都",1130033,35.705015,139.758335,"東京メトロ丸ノ内線","本郷三丁目駅",4,NA,NA,NA,0,NA
"6441153","つけ麺 結心","東京都",1520035,35.608271,139.669408,"東急大井町線","自由が丘（東京都）駅",1,NA,NA,NA,5,3.75
"6127542","油そば専門店 春日亭 池袋本店","東京都",1710021,35.727881,139.70843,"東京メトロ副都心線","池袋駅",3,NA,NA,NA,3,3
"6426066","らあめん花月嵐 西蒲田店","東京都",1440051,35.559933,139.714478,"ＪＲ京浜東北線","蒲田駅",3,NA,NA,NA,0,NA
"7287492","札幌ラーメン どさん子 新木場店","東京都",1360082,35.645844,139.825982,"ＪＲ京葉線","新木場駅",4,NA,NA,NA,0,NA
"7135294","ラーメン魁力屋 イオンモール多摩平の森店","東京都",1910062,NA,NA,"JR中央本線（東京-塩尻）","豊田駅",2,NA,NA,NA,0,NA
"6913288","ラーメン専門味一","東京都",2020014,35.729224,139.565148,"西武新宿線","東伏見駅",1,NA,NA,NA,1,3.5
"5841998","金竜本店","東京都",1700005,35.729104,139.72822,"都電荒川線","大塚駅前駅",3,NA,NA,NA,0,NA
"7270718","旭屋","東京都",1250052,35.755627,139.87161,"京成金町線","柴又駅",5,NA,NA,NA,0,NA
"6090102","由丸 溜池店","東京都",1070052,35.670608,139.743177,"東京メトロ南北線","溜池山王駅",1,NA,NA,NA,10,3
"6384909","葛西大勝軒","東京都",1340083,35.668239,139.870861,"東京メトロ東西線","葛西駅",8,NA,NA,NA,5,1
"7655956","秦唐記","東京都",1040033,35.675989,139.782579,"JR京葉線","八丁堀（東京都）駅",4,NA,NA,NA,0,NA
"7272663","ラーメン春樹 日暮里店","東京都",1160014,35.72778,139.772383,"ＪＲ京浜東北線","日暮里駅",2,NA,NA,NA,0,NA
"7361163","煮干し中華そば はるいち","東京都",1500002,35.660741,139.70738,"東京メトロ副都心線","渋谷駅",6,NA,NA,NA,0,NA
"7277485","麺屋大和田","東京都",1500043,35.657683,139.699109,"京王井の頭線","渋谷駅",1,NA,NA,NA,0,NA
"6369925","幸楽苑 足立佐野店","東京都",1210053,35.790155,139.841386,"東京メトロ千代田線（綾瀬-北綾瀬）","北綾瀬駅",26,NA,NA,NA,0,NA
"5498982","たからや食堂","東京都",1920042,35.675276,139.320274,"","",NA,NA,NA,NA,0,NA
"5499400","ラーメンと餃子の店 水岡","東京都",1940013,35.542214,139.447766,"JR横浜線","町田駅",2,NA,NA,NA,0,NA
"6369928","らーめん武蔵堂","東京都",1940211,35.605959,139.303517,"","",NA,NA,NA,800,2,3.5
"7092152","麺屋 求","東京都",1520011,35.615685,139.698178,"東急目黒線","西小山駅",1,NA,NA,NA,1,5
"7277536","麺花ラーメン","東京都",1210801,35.802699,139.782724,"東武伊勢崎線（東武スカイツリーライン）","竹ノ塚駅",15,NA,NA,NA,0,NA
"6663260","めん処羽鳥","東京都",1160013,35.73061,139.771567,"都営日暮里・舎人ライナー","日暮里駅",3,NA,NA,NA,0,NA
"7645884","麺屋 淳陛屋","東京都",1250061,35.762561,139.852253,"JR常磐線","亀有駅",8,NA,NA,NA,0,NA
"6403155","国立 大和家","東京都",1860002,NA,NA,"JR中央本線（東京-塩尻）","国立駅",5,NA,NA,NA,0,NA
"7055835","AFURI 六本木交差点","東京都",1060032,35.663669,139.732614,"都営大江戸線（環状部）","六本木駅",1,NA,NA,NA,0,NA
"5497100","尾道ラーメン 麺一筋 新大塚店","東京都",1120012,35.725854,139.730279,"東京メトロ丸ノ内線","新大塚駅",1,NA,NA,NA,0,NA
"7382596","中洲屋台ラーメン 一竜 池袋東口店","東京都",1710022,35.729306,139.712505,"東京メトロ丸ノ内線","池袋駅",1,NA,NA,NA,0,NA
"7515970","栄龍軒","東京都",1230864,35.778013,139.751197,"都営日暮里・舎人ライナー","西新井大師西駅",26,NA,NA,NA,0,NA
"7228325","味噌中華そば ムタヒロ","東京都",1850013,35.699939,139.465077,"JR中央本線（東京-塩尻）","西国分寺駅",1,NA,NA,NA,0,NA
"7647419","けんけん商店","東京都",1210836,35.805857,139.764109,"都営日暮里・舎人ライナー","舎人駅",7,NA,NA,NA,0,NA
"5398556","ごくうらーめん大千元","東京都",1670021,35.729406,139.613613,"西武新宿線","井荻駅",7,NA,NA,NA,0,NA
"7677045","油そば専門店 ぶらぶら 秋葉原店","東京都",1010021,35.700677,139.770621,"東京メトロ銀座線","末広町（東京都）駅",4,NA,NA,NA,0,NA
"7414019","つけめんTETSU 京王モール新宿店","東京都",1600023,NA,NA,"都営大江戸線（環状部）","新宿西口駅",1,NA,NA,NA,0,NA
"7371053","こってりらーめん せきやけ","東京都",1240025,35.717811,139.857538,"JR総武本線（東京-銚子）","新小岩駅",1,NA,NA,NA,0,NA
"6053936","広州市場 五反田店","東京都",1410022,35.625901,139.7262,"東急池上線","五反田駅",3,NA,NA,NA,15,3.82142857142857
"6106703","味噌一 大原店","東京都",1740061,35.767629,139.698363,"都営三田線","本蓮沼駅",5,NA,NA,NA,0,NA
"6972272","そば 栄家","東京都",1200013,35.768632,139.813092,"東武伊勢崎線","五反野駅",7,NA,NA,NA,0,NA
"7304999","味噌蔵","東京都",1690072,35.700953,139.705612,"東京メトロ副都心線","東新宿駅",3,NA,NA,NA,0,NA
"7745973","伊蔵八味噌らーめん","東京都",1500002,35.657328,139.703036,"","",NA,NA,NA,NA,0,NA
"7358082","アヤムヤ御徒町店","東京都",1100016,35.70626,139.776837,"東京メトロ日比谷線","仲御徒町駅",1,NA,NA,NA,1,3.5
"5603527","武蔵村山 大勝軒","東京都",2080003,35.749731,139.395162,"多摩都市モノレール線","上北台駅",25,NA,NA,NA,1,4
"7735208","ろく月","東京都",1110053,35.698906,139.785333,"都営浅草線","浅草橋駅",2,NA,NA,NA,2,NA
"7154392","秋津商店2号店 ひばりヶ丘北口店","東京都",2020002,35.751991,139.545407,"西武池袋線","ひばりヶ丘（東京都）駅",1,NA,NA,NA,0,NA
"7270847","三ちゃん","東京都",1670054,35.702675,139.599291,"ＪＲ中央本線（東京-塩尻）","西荻窪駅",2,NA,NA,NA,0,NA
"6271492","らーめん大 堀切店","東京都",1240006,35.748568,139.827047,"京成本線","堀切菖蒲園駅",2,NA,NA,NA,0,NA
"6277561","麺屋武蔵武仁","東京都",1010021,NA,NA,"","",NA,NA,NA,NA,6,3.8
"6566455","よつ葉","東京都",1560054,35.647382,139.626604,"小田急小田原線","千歳船橋駅",3,NA,NA,NA,0,NA
"7748737","中華そば 堀川","東京都",1520035,35.609165,139.665525,"","",NA,NA,NA,NA,0,NA
"5497740","きらく","東京都",1570066,35.640757,139.597399,"小田急小田原線","成城学園前駅",2,NA,NA,NA,0,NA
"7355167","立石担担麺火のき","東京都",1240012,35.739017,139.849368,"京成押上線","京成立石駅",1,NA,NA,NA,0,NA
"7054561","麺屋 楽坊主","東京都",1900032,35.721801,139.393088,"西武拝島線","武蔵砂川駅",14,NA,NA,NA,0,NA
"5498048","哲ちゃん","東京都",1650024,35.723422,139.673478,"西武新宿線","新井薬師前駅",12,NA,NA,NA,0,NA
"6441195","中華ソバ 素和可","東京都",1660003,35.702602,139.651394,"ＪＲ中央本線（東京-塩尻）","高円寺駅",4,NA,NA,NA,2,NA
"5496861","七番","東京都",1060031,35.661861,139.725396,"東京メトロ日比谷線","六本木駅",6,NA,NA,NA,2,NA
"5499558","つけめん 美豚","東京都",1970003,35.725604,139.334826,"JR五日市線","熊川駅",5,NA,NA,NA,0,NA
"7617241","スタミナ中華ソバ とみ坂","東京都",1900012,35.700137,139.41522,"JR中央本線（東京-塩尻）","立川駅",3,NA,NA,NA,0,NA
"7327367","かみの屋","東京都",1200014,35.763641,139.814262,"東武伊勢崎線","五反野駅",8,NA,NA,NA,0,NA
"7337496","武道家 賢斗","東京都",1360076,35.669471,139.819879,"東京メトロ東西線","東陽町駅",1,NA,NA,NA,0,NA
"7507779","中華料理 練馬臧家","東京都",1760001,35.738867,139.656366,"西武池袋線","練馬駅",3,NA,NA,NA,0,NA
"5917530","小川流 八王子みなみ野店","東京都",1920914,35.630874,139.337299,"JR横浜線","八王子みなみ野駅",9,NA,NA,NA,0,NA
"5498781","大清軒","東京都",1250051,35.763073,139.861607,"京成金町線","京成金町駅",14,NA,NA,NA,0,NA
"7581747","横浜家系ラーメン 希家 早稲田店","東京都",1620045,35.705847,139.719833,"東京メトロ東西線","早稲田〔東西線〕駅",1,NA,NA,NA,0,NA
"7449430","らーめん大 荻窪店","東京都",1670051,35.704334,139.623783,"東京メトロ丸ノ内線","荻窪駅",3,NA,NA,NA,0,NA
"5497479","のりや食堂","東京都",1400011,35.605665,139.735922,"JR京浜東北線","大井町駅",2,NA,NA,NA,1,NA
"7638215","麺 うら裏","東京都",1510063,35.667784,139.690023,"東京メトロ千代田線","代々木公園駅",3,NA,NA,NA,0,NA
"7467803","麺屋福丸","東京都",1510072,35.675553,139.672077,"京王新線","幡ヶ谷駅",6,NA,NA,NA,0,NA
"5498118","ことぶき食堂","東京都",1670034,35.710675,139.614681,"JR中央本線（東京-塩尻）","荻窪駅",12,NA,NA,NA,0,NA
"7523878","のっけご飯と中華そば95","東京都",1440041,NA,NA,"東京モノレール","羽田空港第1ビル（モノレール）駅",2,NA,NA,NA,1,2
"6390346","ラーメン大 蒲田店","東京都",1440052,35.564066,139.716978,"東急多摩川線","蒲田駅",2,NA,NA,NA,1,NA
"5894929","博雅","東京都",1750082,35.791556,139.656535,"都営三田線","新高島平駅",5,NA,NA,NA,0,NA
"6155445","麺屋 一刻","東京都",1740046,35.785765,139.676525,"都営三田線","西台駅",4,NA,NA,NA,0,NA
"7151746","大勝軒next 上野店","東京都",1100005,35.709343,139.771887,"東京メトロ銀座線","上野広小路駅",2,NA,NA,NA,2,NA
"7659166","とんこつラーメン 藤参","東京都",1080073,NA,NA,"都営三田線","三田（東京都）駅",3,NA,NA,NA,0,NA
"7625276","麺屋もろ 分倍河原店","東京都",1830045,35.671659,139.467125,"京王線","分倍河原駅",6,NA,NA,NA,0,NA
"7089371","超こってりら～めん つばめ","東京都",1320035,35.707484,139.842045,"JR総武本線（東京-銚子）","平井（東京都）駅",1,NA,NA,NA,0,NA
"7685028","中華ソバ ちゃるめ","東京都",1440047,35.553209,139.730316,"京急空港線","糀谷駅",2,NA,NA,NA,0,NA
"7751586","和風ラーメン 鈴華","東京都",1240021,35.74047,139.871849,"","",NA,NA,NA,NA,0,NA
"5498779","せきぐちラーメン 末広店","東京都",1250042,35.768225,139.865704,"京成金町線","京成金町駅",6,NA,NA,NA,0,NA
"6324747","食龍","東京都",1880012,35.727021,139.540686,"西武新宿線","田無駅",2,NA,NA,NA,0,NA
"5499359","グラバー亭","東京都",1940033,NA,NA,"","",NA,NA,NA,NA,0,NA
"5713184","麺匠 竹虎 本店","東京都",1600021,35.695895,139.702394,"西武新宿線","西武新宿駅",4,NA,NA,NA,10,3.77777777777778
"7705552","Renge no Gotoku","東京都",1500031,35.656408,139.701092,"東京メトロ銀座線","渋谷駅",2,NA,NA,NA,0,NA
"6375975","冨士中華そば","東京都",1670043,35.704806,139.621453,"東京メトロ丸ノ内線","荻窪駅",1,NA,NA,NA,0,NA
"6990626","スタミナラーメン のぶちゃん","東京都",1800002,35.70508,139.584473,"ＪＲ中央本線（東京-塩尻）","吉祥寺駅",6,NA,NA,NA,0,NA
"7416815","麺家 歩輝勇","東京都",1450071,35.58909,139.668634,"東急多摩川線","多摩川駅",1,NA,NA,NA,0,NA
"7626135","麺処 直清","東京都",1230842,35.780627,139.789457,"東武伊勢崎線","西新井駅",5,NA,NA,NA,0,NA
"7632604","博多水炊きらーめん うかんむり","東京都",1760012,35.736584,139.652293,"西武有楽町線","練馬駅",2,NA,NA,NA,0,NA
"6995978","羽田大勝軒","東京都",1440041,35.549084,139.783987,"東京モノレール","羽田空港第１ビル（モノレール）駅",1,NA,NA,NA,0,NA
"6566462","麺場 voyage","東京都",1440052,35.560994,139.721997,"京急本線","京急蒲田駅",2,NA,NA,NA,3,3
"7378233","ラーメン逢","東京都",1910012,35.672557,139.40262,"JR中央本線（東京-塩尻）","日野（東京都）駅",15,NA,NA,NA,0,NA
"7715271","中華食べ飲み放題 華しん園（カシンエン）","東京都",1360071,35.700171,139.825627,"東武亀戸線","亀戸駅",4,NA,NA,NA,0,NA
"5496514","幸楽苑 平河町店","東京都",1010027,35.698478,139.775817,"","",NA,NA,NA,NA,1,4.5
"7223500","らーめん縁","東京都",1960015,35.711659,139.358791,"ＪＲ青梅線","昭島駅",4,NA,NA,NA,0,NA
"5398865","とんぼ亭","東京都",1140003,35.764117,139.739387,"東京メトロ南北線","王子神谷駅",5,NA,NA,NA,0,NA
"5498587","大盛軒","東京都",1790072,35.758892,139.628719,"都営大江戸線（放射部）","光が丘駅",1,NA,NA,NA,0,NA
"7065739","中華そば青葉 東大和店","東京都",2070004,35.747086,139.444261,"西武多摩湖線（萩山-西武遊園地）","武蔵大和駅",14,NA,NA,NA,0,NA
"7425785","横浜家系ラーメン 松田家 東武練馬店","東京都",1790081,35.767525,139.662938,"東武東上線","東武練馬駅",3,NA,NA,NA,0,NA
"7671494","らーめん砦 アリオ亀有店","東京都",1250061,35.764647,139.851931,"JR常磐線","亀有駅",6,NA,NA,NA,1,4.5
"6161296","ラーメンya","東京都",1360071,35.694652,139.830599,"JR総武本線（東京-銚子）","亀戸駅",6,NA,NA,NA,0,NA
"6839333","中華料理 やまだ","東京都",1340091,35.677616,139.869388,"都営新宿線","船堀駅",12,NA,NA,NA,0,NA
"5497508","らーめん荏原一正","東京都",1420053,35.603242,139.710396,"東急大井町線","荏原町駅",3,NA,NA,NA,0,NA
"7649252","八重桜","東京都",1140002,35.75504,139.73776,"東京メトロ南北線","王子駅",1,NA,NA,NA,0,NA
"7427490","銀座 朧月","東京都",1040061,35.671666,139.761347,"東京メトロ丸ノ内線","銀座駅",2,NA,NA,NA,0,NA
"7634381","輝道家","東京都",1650027,35.718647,139.652788,"西武新宿線","野方駅",2,NA,NA,NA,0,NA
"5830810","万世パーコーメン日比谷シティ店","東京都",1000011,35.670397,139.754354,"都営三田線","内幸町駅",2,NA,NA,NA,3,3.16666666666667
"6202654","河童軒","東京都",1140024,35.744086,139.745702,"JR京浜東北線","上中里駅",4,NA,NA,NA,0,NA
"7500759","三田製麺所 蒲田東口店","東京都",1440052,35.563033,139.718983,"東急多摩川線","蒲田駅",3,NA,NA,NA,0,NA
"7001274","味道屋","東京都",1100014,35.719437,139.784727,"東京メトロ日比谷線","入谷（東京都）駅",1,NA,NA,NA,2,NA
"7106428","らーめん喜丸","東京都",1000006,35.673311,139.760709,"東京メトロ日比谷線","日比谷駅",1,NA,NA,NA,0,NA
"5638549","町屋大勝軒 孤珀","東京都",1160001,35.743814,139.777246,"都電荒川線","町屋二丁目駅",1,NA,NA,NA,1,5
"6425946","麺処 晴","東京都",1100004,35.719753,139.783336,"東京メトロ日比谷線","入谷（東京都）駅",1,NA,NA,NA,0,NA
"5497372","東煌ラーメン","東京都",1350024,35.681847,139.798241,"東京メトロ半蔵門線","清澄白河駅",1,NA,NA,NA,1,5
"7742448","らぁ麺 みうら 上野毛店","東京都",1580093,35.611957,139.638657,"東急大井町線","上野毛駅",1,NA,NA,NA,0,NA
"7433372","豚骨一燈 本郷店","東京都",1130033,35.704874,139.760819,"東京メトロ丸ノ内線","本郷三丁目駅",3,NA,NA,NA,0,NA
"6192968","本格中華麺店 光麺 原宿店","東京都",1500001,35.667751,139.706189,"東京メトロ副都心線","明治神宮前駅",2,NA,NA,NA,5,3.4
"7218087","壱角堂 池袋西口店","東京都",1710021,35.7315,139.709522,"東京メトロ丸ノ内線","池袋駅",1,NA,NA,NA,4,3
"7617231","かずまちゃんラーメン","東京都",1620825,35.701951,139.739546,"都営大江戸線（環状部）","牛込神楽坂駅",3,NA,NA,NA,0,NA
"7345486","壱角家 御徒町店","東京都",1100005,35.707871,139.775606,"都営大江戸線（環状部）","上野御徒町駅",1,NA,NA,NA,0,NA
"7255219","新潟 三宝亭","東京都",1530051,35.641618,139.696671,"東京メトロ日比谷線","中目黒駅",5,NA,NA,NA,0,NA
"6033258","三ツ矢堂製麺 中目黒","東京都",1530051,35.644101,139.698363,"東京メトロ日比谷線","中目黒駅",1,NA,NA,NA,13,3.375
"7680155","竹麓輔らーめん創作工房 竹麓らーめん","東京都",1640001,35.703783,139.665382,"東京メトロ東西線","中野（東京都）駅",3,NA,NA,NA,0,NA
"6347615","とうかんや","東京都",1360076,35.675243,139.833675,"東京メトロ東西線","南砂町駅",9,NA,NA,850,2,5
"0089199","らうめん 麺坊","東京都",1740052,35.769451,139.705293,"都営三田線","本蓮沼駅",3,NA,NA,NA,0,NA
"6343013","手作りの味噌らーめん 味噌樽","東京都",1350061,35.656908,139.798267,"東京メトロ有楽町線","豊洲駅",3,NA,NA,NA,2,4
"6266264","百麺","東京都",1560053,35.639981,139.634332,"東急世田谷線","上町駅",16,NA,NA,NA,3,4.5
"5497781","天下一品 池尻店","東京都",1540001,35.647936,139.678811,"東急田園都市線","池尻大橋駅",7,NA,NA,NA,2,3.75
"7210309","一圓本店","東京都",1800004,35.704188,139.575909,"京王井の頭線","吉祥寺駅",4,NA,NA,NA,4,4.375
"6163951","流石","東京都",1350016,35.671343,139.811032,"東京メトロ東西線","木場駅",6,NA,NA,NA,0,NA
"7647397","油そば 東京油組総本店 飯田橋組","東京都",1020072,35.701763,139.746223,"東京メトロ南北線","飯田橋駅",1,NA,NA,NA,0,NA
"7726705","舎鈴 イオンモール東久留米","東京都",2030023,35.745038,139.52737,"西武池袋線","ひばりヶ丘（東京都）駅",27,NA,NA,NA,0,NA
"5499249","さか本","東京都",1830027,35.665598,139.469306,"京王線","分倍河原駅",7,NA,NA,NA,0,NA
"7104601","大治飯店","東京都",1430013,35.563467,139.746931,"東京モノレール","昭和島駅",17,NA,NA,NA,0,NA
"7154035","麺屋 どうげんぼうず","東京都",1640012,35.69595,139.669891,"東京メトロ丸ノ内線","新中野駅",3,NA,NA,NA,0,NA
"7463516","ヌードルボウルマゼ","東京都",1940021,35.549436,139.446476,"小田急小田原線","町田駅",7,NA,NA,NA,0,NA
"5499601","満北亭新青梅街道 東大和店","東京都",2070004,35.746686,139.442691,"西武多摩湖線（萩山-西武遊園地）","武蔵大和駅",15,NA,NA,NA,0,NA
"6211385","支那麺 はしご 銀座 4丁目店","東京都",1040061,35.669711,139.769002,"都営浅草線","東銀座駅",2,NA,NA,NA,0,NA
"7250209","麺通 若林店","東京都",1540023,35.64227,139.656694,"東急世田谷線","松陰神社前駅",4,NA,NA,NA,0,NA
"6266261","横浜家系ラーメン 目黒 魂心家","東京都",1530063,35.634222,139.714161,"ＪＲ山手線","目黒駅",2,NA,NA,NA,4,3.375
"5397701","龍","東京都",1360072,35.690541,139.841843,"都営新宿線","東大島駅",5,NA,NA,NA,0,NA
"7726914","麺屋むてき","東京都",1150051,35.787235,139.704626,"JR埼京線","北赤羽駅",1,NA,NA,NA,0,NA
"7733978","新福菜館 浅草店","東京都",1110032,35.715115,139.792874,"","",NA,NA,NA,NA,0,NA
"7245886","麺屋武士道 本店","東京都",1330056,35.73326,139.882862,"JR総武本線（東京-銚子）","小岩駅",1,NA,NA,NA,0,NA
"6742503","福義","東京都",1700013,35.731233,139.714296,"東京メトロ丸ノ内線","池袋駅",1,NA,NA,NA,0,NA
"7660130","東京オイルヌードル油田","東京都",1920904,35.652835,139.338271,"JR中央本線（東京-塩尻）","八王子駅",3,NA,NA,NA,0,NA
"7232699","品川甚作本店","東京都",1010061,35.701641,139.75373,"ＪＲ中央本線（東京-塩尻）","水道橋駅",2,NA,NA,NA,0,NA
"5801585","二代目武道家","東京都",1640001,35.704002,139.665279,"東京メトロ東西線","中野（東京都）駅",2,NA,NA,NA,1,3
"5499571","ラーメンハウス ドラゴン","東京都",1970004,35.728399,139.330591,"ＪＲ五日市線","熊川駅",12,NA,NA,NA,0,NA
"7100199","MENSHO TOKYO","東京都",1120003,35.708284,139.751416,"東京メトロ丸ノ内線","後楽園駅",1,NA,NA,NA,0,NA
"5497782","天下一品駒沢店","東京都",1540012,35.632596,139.660549,"東急田園都市線","駒沢大学駅",1,NA,NA,NA,2,3
"7523769","北海道らーめん みそ熊 築地店","東京都",1040045,35.664256,139.77323,"東京メトロ日比谷線","築地駅",6,NA,NA,NA,0,NA
"7151757","横浜家系ラーメン 檜家","東京都",1500002,35.657578,139.704622,"東京メトロ副都心線","渋谷駅",2,NA,NA,NA,2,NA
"5497555","ひふみ亭","東京都",1520021,35.628188,139.668213,"東急田園都市線","駒沢大学駅",12,NA,NA,NA,0,NA
"7506838","一圓 三鷹北口店","東京都",1800013,35.707135,139.560669,"ＪＲ中央線","三鷹駅",7,NA,NA,750,0,NA
"6713104","天心ラーメン 東尾久店","東京都",1160012,35.738106,139.771189,"京成本線","新三河島駅",4,NA,NA,NA,0,NA
"6743008","らーめん 紫龍","東京都",1040061,35.671528,139.768225,"都営浅草線","東銀座駅",1,NA,NA,NA,0,NA
"7685268","真鯛ラーメン麺魚 錦糸町パルコ店","東京都",1300022,35.696346,139.815717,"東京メトロ半蔵門線","錦糸町駅",1,NA,NA,NA,0,NA
"6163967","武蔵家","東京都",1750094,35.777379,139.631093,"東武東上線","成増駅",2,NA,NA,NA,0,NA
"7617288","中華そば ムタヒロ 錦糸町店","東京都",1300022,35.693846,139.812845,"JR総武本線（東京-銚子）","錦糸町駅",5,NA,NA,NA,0,NA
"7624999","横浜家系ラーメン春樹 青物横丁店","東京都",1400004,35.610698,139.744801,"京急本線","青物横丁駅",3,NA,NA,NA,0,NA
"6132283","camino","東京都",1540005,35.652566,139.677244,"東急田園都市線","池尻大橋駅",10,NA,NA,NA,2,3
"5497719","一風堂 駒沢公園店","東京都",1560043,35.623141,139.660577,"東急田園都市線","駒沢大学駅",17,NA,NA,NA,2,3.25
"5911014","ラーメン 登嶋家","東京都",1980084,35.78969,139.260527,"JR青梅線","青梅駅",3,NA,NA,NA,0,NA
"6431683","麺爺あぶら 西早稲田店","東京都",1690072,35.703281,139.708698,"東京メトロ副都心線","東新宿駅",4,NA,NA,NA,1,NA
"7721883","麺や えいちつー","東京都",1340088,35.6651,139.860906,"東京メトロ東西線","西葛西駅",3,NA,NA,NA,1,5
"5399646","ウーメン","東京都",1320023,35.694242,139.876145,"都営新宿線","一之江駅",16,NA,NA,NA,0,NA
"7751103","麺や縁","東京都",1240013,35.736178,139.843613,"","",NA,NA,NA,NA,0,NA
"6039451","ファミリーラーメン","東京都",1340083,35.660809,139.86435,"東京メトロ東西線","西葛西駅",10,NA,NA,NA,0,NA
"7746073","らーめん 北の大地","東京都",1500012,35.648637,139.711156,"","",NA,NA,NA,NA,0,NA
"6388560","力","東京都",1140032,35.761222,139.727094,"JR京浜東北線","東十条駅",3,NA,NA,780,0,NA
"5497855","らあめん英 下高井戸店","東京都",1560044,35.664531,139.636459,"京王線","下高井戸駅",6,NA,NA,NA,3,3
"6155384","龍王","東京都",1840015,35.708644,139.495852,"JR中央本線（東京-塩尻）","武蔵小金井駅",20,NA,NA,NA,0,NA
"7667232","ラーメン豚山","東京都",1940013,35.543717,139.447654,"小田急小田原線","町田駅",3,NA,NA,NA,0,NA
"7208004","博多らーめん 濱田屋 北千住店","東京都",1200034,35.749253,139.80388,"東京メトロ千代田線","北千住駅",1,NA,NA,NA,2,NA
"5103382","今ちやん","東京都",1250052,35.754921,139.87081,"京成金町線","柴又駅",7,NA,NA,NA,0,NA
"7633151","RAMEN火影 produced by 麺処ほん田","東京都",1400014,NA,NA,"りんかい線","大井町駅",1,NA,NA,NA,0,NA
"6745604","東京名物油そば 新宿東口アルタ裏店","東京都",1600022,35.692885,139.702141,"東京メトロ丸ノ内線","新宿駅",1,NA,NA,NA,0,NA
"7665342","東京煮干し らーめん玉","東京都",1000005,35.681832,139.766788,"JR上越新幹線","東京駅",1,NA,NA,NA,0,NA
"7622835","熊本ラーメン 桂花 池袋東武店","東京都",1718512,35.729714,139.710246,"ＪＲ","池袋駅",1,NA,NA,NA,0,NA
"5654620","中華そば 青葉 府中店","東京都",1830027,35.668351,139.476872,"JR南武線（川崎-立川）","府中本町駅",3,NA,NA,NA,0,NA
"7426218","元祖博多 中洲屋台ラーメン 一竜 大井町東口店","東京都",1400011,35.607451,139.735511,"JR京浜東北線","大井町駅",1,NA,NA,NA,0,NA
"7158381","壱角家 西新宿本店","東京都",1600023,35.689216,139.697363,"京王新線","新宿駅",2,NA,NA,NA,1,2.5
"5497590","インディアン 池上店","東京都",1460082,35.572057,139.704806,"東急池上線","池上駅",3,NA,NA,NA,0,NA
"7677211","麺屋 太陽","東京都",1310046,35.716194,139.819344,"京成押上線","京成曳舟駅",3,NA,NA,NA,0,NA
"7475698","新橋元楽","東京都",1050004,35.663267,139.756757,"都営浅草線","新橋駅",4,NA,NA,NA,0,NA
"7111471","こころ 高田馬場店","東京都",1690051,35.710586,139.709939,"地下鉄副都心線","西早稲田駅",5,NA,NA,NA,0,NA
"6343022","らあめん花月嵐 笹塚店","東京都",1510073,35.673575,139.665147,"京王新線","笹塚駅",3,NA,NA,NA,0,NA
"6426117","ラーメン大山家 昭島店","東京都",1960015,35.713193,139.359366,"JR青梅線","昭島駅",2,NA,NA,NA,4,3.75
"6126051","世界の龍ちゃん よしき坊","東京都",1680063,35.672666,139.658129,"京王線","代田橋駅",4,NA,NA,NA,1,NA
"7353794","濃厚鶏そば 暁月 荻窪店","東京都",1670051,35.704103,139.621025,"東京メトロ丸ノ内線","荻窪駅",1,NA,NA,NA,0,NA
"6211707","函館らーめん 大門","東京都",1640001,35.706846,139.665641,"東京メトロ東西線","中野（東京都）駅",1,NA,NA,NA,0,NA
"6128567","博多ラーメン 長浜や 府中店","東京都",1830022,35.670784,139.478899,"京王線","府中（東京都）駅",3,NA,NA,NA,1,3
"1048653","東京ラーメン 大番 上板橋店","東京都",1740071,35.763762,139.677162,"東武東上線","上板橋駅",1,NA,NA,NA,0,NA
"6898915","大島","東京都",1340091,NA,NA,"都営新宿線","船堀駅",9,NA,NA,NA,3,3.5
"6287097","らあめん花月嵐 錦糸町北口店","東京都",1300013,35.698465,139.814734,"東京メトロ半蔵門線","錦糸町駅",1,NA,NA,NA,0,NA
"6196110","らーめん 喰心坊","東京都",1310042,35.719799,139.830509,"京成押上線","八広駅",12,NA,NA,NA,6,4.41666666666667
"7123348","喜多方ラーメン 坂内 浜松町ハマサイト店","東京都",1050022,35.656926,139.759532,"JR京浜東北線","浜松町駅",4,NA,NA,NA,1,5
"6129965","ちりちりラーメン 風鈴屋","東京都",1040061,NA,NA,"東京メトロ銀座線","新橋駅",3,NA,NA,NA,0,NA
"7172519","郎郎郎 調布店","東京都",1820024,35.652388,139.545756,"京王相模原線","調布駅",2,NA,NA,NA,0,NA
"5499424","江川亭 小金井本店","東京都",1840013,35.689619,139.501322,"JR中央本線（東京-塩尻）","武蔵小金井駅",18,NA,NA,NA,2,4
"6384938","喜多方ラーメン 坂内 新宿西口思い出横丁店","東京都",1600023,35.69271,139.699494,"都営大江戸線（環状部）","新宿西口駅",1,NA,NA,NA,0,NA
"7065568","麺屋 のろし","東京都",1010024,35.698775,139.780145,"JR総武線各停（御茶ノ水-錦糸町）","浅草橋駅",5,NA,NA,NA,1,NA
"7111512","らあめん花月嵐 分倍河原店","東京都",1830021,35.669348,139.46927,"京王線","分倍河原駅",1,NA,NA,NA,0,NA
"1010104","味の彩華","東京都",1810013,35.701216,139.561572,"JR中央本線（東京-塩尻）","三鷹駅",3,NA,NA,NA,4,3.375
"7094082","麺処 穂し乃","東京都",1790074,35.753437,139.632811,"都営大江戸線（放射部）","練馬春日町駅",8,NA,NA,NA,0,NA
"6459994","香家中 目黒店","東京都",1530042,35.647431,139.695049,"東京メトロ日比谷線","中目黒駅",7,NA,NA,NA,0,NA
"7427318","博多豚骨ラーメン田原","東京都",1240006,35.748532,139.827436,"京成本線","堀切菖蒲園駅",2,NA,NA,NA,0,NA
"6001100","中華そば つけ麺 甲斐","東京都",1680082,35.687474,139.600086,"京王井の頭線","久我山駅",1,NA,NA,NA,2,4
"6712558","味の店 よし野","東京都",1790084,35.750966,139.665936,"東京メトロ有楽町線","氷川台駅",3,NA,NA,NA,0,NA
"7739323","らぁ麺田じま","東京都",1500042,35.661202,139.697931,"","",NA,NA,NA,NA,0,NA
"6852071","多摩利屋","東京都",1980052,35.782946,139.264094,"JR青梅線","青梅駅",15,NA,NA,NA,0,NA
"7625312","中華そば ユー リー","東京都",1200001,35.776871,139.840184,"東京メトロ千代田線（綾瀬-北綾瀬）","北綾瀬駅",9,NA,NA,NA,0,NA
"6470378","鬼そば 藤谷","東京都",1500042,35.660252,139.699364,"東京メトロ半蔵門線","渋谷駅",1,NA,NA,NA,4,3.66666666666667
"0044466","手もみラーメン ジロー 東武練馬イオン前店","東京都",1750083,35.769289,139.660524,"東武東上線","東武練馬駅",1,NA,NA,NA,0,NA
"7739692","極品 辣味","東京都",1100005,35.710696,139.776114,"","",NA,NA,NA,NA,0,NA
"5497384","らーめん弁慶 門前仲町店","東京都",1350033,35.674511,139.795772,"都営大江戸線（環状部）","門前仲町駅",1,NA,NA,NA,2,4
"7734380","銀座 篝 六本木ヒルズ店","東京都",1060032,35.661356,139.730114,"東京メトロ日比谷線","六本木駅",1,NA,NA,NA,0,NA
"6155392","みそ神楽","東京都",1620821,35.703356,139.740854,"東京メトロ南北線","飯田橋駅",3,NA,NA,NA,0,NA
"5496521","謝謝ラーメン","東京都",1000006,35.673311,139.760709,"東京メトロ日比谷線","日比谷駅",1,NA,NA,NA,20,3.44444444444444
"7631770","一蔵","東京都",1870032,35.729884,139.434834,"西武拝島線","東大和市駅",6,NA,NA,NA,0,NA
"6711550","上海麺館","東京都",1640001,35.706646,139.66594,"東京メトロ東西線","中野（東京都）駅",1,NA,NA,NA,0,NA
"6994769","武久らぁめん","東京都",1820022,35.645792,139.561824,"京王線","国領駅",9,NA,NA,NA,0,NA
"7402988","萬馬軒 花橙","東京都",1540022,35.655582,139.653077,"小田急小田原線","梅ヶ丘駅",1,NA,NA,NA,0,NA
"7756072","焼きあご塩らー麺 たかはし 恵比寿店","東京都",1500022,35.646568,139.708745,"東京メトロ日比谷線","恵比寿（東京都）駅",1,NA,NA,NA,0,NA
"6089835","麺屋 婆娑羅","東京都",1450062,35.606366,139.686359,"東急大井町線","大岡山駅",3,NA,NA,NA,2,3.75
"7582874","札幌ラーメン どさん子 上板橋店","東京都",1740076,35.761313,139.674717,"東武東上線","上板橋駅",4,NA,NA,NA,0,NA
"7690661","ラーメン魁力屋 イオンモールむさし村山店","東京都",2080022,35.746745,139.385004,"","",NA,NA,NA,NA,0,NA
"7440708","東京油そば伝承館 陣矢","東京都",1100005,35.715229,139.779242,"JR上越新幹線","上野駅",2,NA,NA,NA,0,NA
"7330102","星の家","東京都",1920041,35.668127,139.32919,"JR中央本線（東京-塩尻）","八王子駅",25,NA,NA,NA,0,NA
"5497358","谷やんラーメン","東京都",1350042,35.668626,139.80375,"東京メトロ東西線","木場駅",3,NA,NA,700,2,3
"5497862","らーめん陸","東京都",1560053,35.639833,139.636643,"東急世田谷線","上町駅",13,NA,NA,NA,4,3.5
"5499232","はぐろや","東京都",1980024,35.784181,139.308676,"JR青梅線","小作駅",16,NA,NA,NA,0,NA
"7659642","メンドコロ Kinari","東京都",1640003,35.705664,139.686136,"JR中央本線（東京-塩尻）","東中野駅",1,NA,NA,NA,0,NA
"6166554","喜久井町 もりや","東京都",1620044,35.703601,139.720978,"東京メトロ東西線","早稲田（地下鉄線）駅",3,NA,NA,NA,0,NA
"6211738","麺処 まるよし商店","東京都",1760002,35.738678,139.663078,"西武池袋線","桜台（東京都）駅",1,NA,NA,NA,2,3
"7721297","麺処 竹川","東京都",1500044,35.658055,139.694787,"京王井の頭線","神泉駅",3,NA,NA,NA,0,NA
"7370426","麺や 睡蓮","東京都",1920051,35.665159,139.316131,"","",NA,NA,NA,NA,0,NA
"7210058","燦燦斗","東京都",1140032,35.764574,139.725791,"JR京浜東北線","東十条駅",1,NA,NA,NA,0,NA
"6211095","麺恋処 いそじ","東京都",1510053,35.681336,139.700366,"都営大江戸線（環状部）","代々木駅",2,NA,NA,NA,5,4.8
"6998687","つけめん美豚 小作店","東京都",2050001,35.778845,139.302041,"JR青梅線","小作駅",4,NA,NA,NA,0,NA
"5613408","入谷大勝軒","東京都",1100013,35.719603,139.787782,"東京メトロ日比谷線","入谷（東京都）駅",5,NA,NA,NA,0,NA
"7406112","焼きあご塩らー麺 たかはし 上野店","東京都",1100005,35.708277,139.77437,"JR京浜東北線","御徒町駅",1,NA,NA,NA,0,NA
"5496811","博多長浜ラーメン 呑龍","東京都",1050021,35.664564,139.75909,"ゆりかもめ","新橋駅",1,NA,NA,NA,2,3.5
"7751607","壱角家 アリオ西新井店","東京都",1230843,35.774736,139.786133,"","",NA,NA,NA,NA,0,NA
"7617243","俺流塩らーめん 中目黒駅前店","東京都",1530051,35.644521,139.698543,"東京メトロ日比谷線","中目黒駅",1,NA,NA,NA,0,NA
"5497219","麺駒","東京都",1110043,35.708283,139.794727,"都営浅草線","浅草駅",2,NA,NA,NA,0,NA
"7237797","ど・みそ 八丁堀店","東京都",1040032,35.67502,139.774448,"ＪＲ京葉線","八丁堀駅",4,NA,NA,NA,1,NA
"7113892","横浜家系らーめん春樹 笹塚店","東京都",1510073,35.67375,139.669105,"京王新線","笹塚駅",3,NA,NA,NA,0,NA
"5553226","屋台ソバ八幡","東京都",1350047,35.671653,139.795942,"東京メトロ東西線","門前仲町駅",2,NA,NA,NA,2,3.25
"5713305","せい家 原宿店","東京都",1500001,35.672304,139.70355,"ＪＲ山手線","原宿駅",2,NA,NA,NA,1,NA
"7418384","らーめん豊樹","東京都",1030013,35.685757,139.780612,"東京メトロ日比谷線","人形町駅",2,NA,NA,NA,0,NA
"7620690","栄屋ミルクホール","東京都",1010046,35.694867,139.76876,"都営新宿線","小川町（東京都）駅",1,NA,NA,NA,0,NA
"7656350","WILDラーメン","東京都",1620051,35.710605,139.711992,"東京メトロ副都心線","西早稲田駅",5,NA,NA,NA,0,NA
"6356340","麺や片平","東京都",1360072,35.690225,139.83586,"都営新宿線","大島（東京都）駅",1,NA,NA,NA,0,NA
"0109614","喜多方ラーメン坂内 調布店","東京都",1820024,35.651196,139.545961,"京王相模原線","調布駅",1,NA,NA,NA,0,NA
"6952070","寿","東京都",1330051,35.742673,139.884487,"京成本線","京成小岩駅",1,NA,NA,NA,2,NA
"6436742","中華そば 瀧井","東京都",1540024,35.642348,139.668957,"東急田園都市線","三軒茶屋駅",3,NA,NA,NA,0,NA
"6351702","麺匠 和蔵","東京都",1890013,35.749803,139.470094,"西武新宿線","久米川駅",2,NA,NA,NA,0,NA
"7734375","俺流 塩らーめん 新宿東南口店","東京都",1600022,35.689841,139.70203,"JR中央本線（東京-塩尻）","新宿駅",1,NA,NA,NA,0,NA
"7721633","ラーメンの店 ホープ軒 環七丸山店","東京都",1650027,35.721461,139.653991,"西武新宿線","野方駅",4,NA,NA,NA,0,NA
"7210320","しばらく 日本橋店","東京都",1030014,35.684643,139.786609,"東京メトロ半蔵門線","水天宮前駅",2,NA,NA,NA,4,3.5
"7638347","ひごもんず neo","東京都",1810013,35.701808,139.561172,"JR中央本線（東京-塩尻）","三鷹駅",2,NA,NA,NA,0,NA
"7280182","らーめん改","東京都",1110051,35.704447,139.790111,"都営浅草線","蔵前駅",3,NA,NA,NA,0,NA
"7273542","徳 晴海トリトンスクエア店","東京都",1040053,35.657471,139.782394,"都営大江戸線（環状部）","勝どき駅",7,NA,NA,NA,0,NA
"6186330","博多天神 新橋1号店","東京都",1050004,35.667303,139.756268,"JR京浜東北線","新橋駅",2,NA,NA,NA,2,3
"6209835","麺や純氣","東京都",1800021,35.70912,139.533499,"西武多摩川線","武蔵境駅",19,NA,NA,800,0,NA
"5499430","大勝軒 小金井","東京都",1840014,35.696893,139.497577,"JR中央本線（東京-塩尻）","武蔵小金井駅",16,NA,NA,NA,3,3.33333333333333
"6012276","らーめん 一会","東京都",1430016,35.586358,139.727937,"JR京浜東北線","大森（東京都）駅",3,NA,NA,NA,1,4
"7472031","麺屋 五十六","東京都",1320013,35.688202,139.902243,"都営新宿線","瑞江駅",10,NA,NA,NA,0,NA
"6929243","由丸 アトレヴィ大塚店","東京都",1700005,35.731592,139.728548,"ＪＲ山手線","大塚（東京都）駅",1,NA,NA,NA,3,1
"7681207","1／2PPUDO 渋谷ヒカリエ店","東京都",1500002,35.659025,139.703486,"東京メトロ副都心線","渋谷駅",1,NA,NA,NA,0,NA
"7275166","らーめん亭 26","東京都",1520002,35.621576,139.700416,"東急目黒線","武蔵小山駅",6,NA,NA,NA,1,5
"7675675","比内地鶏中華そば田乃井","東京都",1230841,35.781291,139.779364,"東武大師線","大師前駅",6,NA,NA,NA,0,NA
"0044977","茂司","東京都",1070062,35.66751,139.715388,"東京メトロ銀座線","外苑前駅",4,NA,NA,NA,0,NA
"5498333","らぁめん福や","東京都",1710022,35.723901,139.710941,"西武池袋線","池袋駅",6,NA,NA,NA,0,NA
"5920368","油そば 春日亭 明大前店","東京都",1560043,35.668639,139.650949,"京王井の頭線","明大前駅",1,NA,NA,NA,1,5
"7210026","らぁめん 小池","東京都",1560057,35.670596,139.622365,"京王線","上北沢駅",4,NA,NA,NA,0,NA
"5635968","俵飯","東京都",1840015,35.707416,139.496127,"JR中央本線（東京-塩尻）","武蔵小金井駅",18,NA,NA,NA,0,NA
"7676124","CHU-RU-RI","東京都",1140034,35.761463,139.716812,"JR埼京線","十条（東京都）駅",7,NA,NA,NA,0,NA
"5499151","さんちん 三鷹店","東京都",1800006,35.706674,139.56551,"JR中央本線（東京-塩尻）","三鷹駅",9,NA,NA,NA,0,NA
"7493572","春木屋 羽田空港店","東京都",1440041,35.549084,139.783987,"東京モノレール","羽田空港第1ビル（モノレール）駅",1,NA,NA,NA,0,NA
"7375321","丸源ラーメン 八王子南大沢店","東京都",1920364,35.618162,139.38752,"京王相模原線","南大沢駅",12,NA,NA,NA,0,NA
"5498449","一笑らーめん","東京都",1750093,35.771766,139.639573,"東京メトロ有楽町線","地下鉄赤塚駅",4,NA,NA,NA,0,NA
"7329559","ソラノイロ NIPPON","東京都",1000005,35.681788,139.766774,"ＪＲ上越新幹線","東京駅",11,NA,NA,NA,0,NA
"6746132","ラーメン さとし","東京都",1780063,35.750891,139.583449,"西武池袋線","大泉学園駅",5,NA,NA,NA,0,NA
"6718160","ラーメンタイム","東京都",1800014,35.713484,139.543231,"西武多摩川線","武蔵境駅",16,NA,NA,NA,0,NA
"7659959","濃厚豚骨らーめん 吉春家","東京都",1700004,35.732942,139.727442,"","",NA,NA,NA,NA,0,NA
"7171108","らーめん食堂 えだぐち","東京都",1210816,35.778175,139.791105,"東武伊勢崎線","西新井駅",2,NA,NA,NA,0,NA
"7493425","喜多方ラーメン 坂内 立川店","東京都",1900022,35.696177,139.416023,"JR中央本線（東京-塩尻）","立川駅",4,NA,NA,NA,0,NA
"6995917","横浜家系ラーメン 馬場壱家","東京都",1690075,35.711005,139.709203,"東京メトロ東西線","高田馬場駅",3,NA,NA,NA,0,NA
"7671280","花彫酒家","東京都",1110025,35.722445,139.801342,"東京メトロ日比谷線","南千住〔日比谷線〕駅",14,NA,NA,NA,0,NA
"5498886","ビックらーめん","東京都",1330057,35.735749,139.882604,"JR総武本線（東京-銚子）","小岩駅",5,NA,NA,NA,0,NA
"6201451","らーめん 太閤","東京都",1200005,35.761233,139.826524,"東京メトロ千代田線","綾瀬駅",2,NA,NA,NA,0,NA
"5497515","ラーメンひだか","東京都",1400001,35.617953,139.743504,"京急本線","新馬場駅",4,NA,NA,NA,0,NA
"6961116","麺ダイニング 空","東京都",1230844,35.771189,139.781167,"東武大師線","大師前駅",12,NA,NA,NA,0,NA
"7098083","GENEI．WAGAN","東京都",1500012,35.648432,139.717336,"東京メトロ日比谷線","広尾駅",8,NA,NA,NA,5,4.3
"6211723","九州らーめん 祥","東京都",1800004,35.70486,139.580498,"京王井の頭線","吉祥寺駅",3,NA,NA,NA,3,3.33333333333333
"7582760","博多ラーメン 鉄馬 ヴィーナスフォート店","東京都",1350064,35.624874,139.779935,"りんかい線","東京テレポート駅",3,NA,NA,NA,0,NA
"7703105","かなで","東京都",1900022,35.696143,139.419517,"JR中央本線（東京-塩尻）","立川駅",8,NA,NA,NA,0,NA
"7467881","博多 中洲屋台ラーメン 一竜 国分寺店","東京都",1850012,35.701019,139.481106,"西武国分寺線","国分寺駅",2,NA,NA,NA,0,NA
"5497843","用賀らーめん たつみ","東京都",1580097,35.628123,139.631216,"東急田園都市線","用賀駅",5,NA,NA,NA,0,NA
"7376994","蜀膳坊","東京都",1070052,35.676257,139.736014,"地下鉄丸ノ内線","赤坂見附駅",2,NA,NA,NA,0,NA
"7270856","釜利家 八王子東中野店","東京都",1920351,35.64053,139.412565,"多摩都市モノレール線","中央大学・明星大学駅",6,NA,NA,NA,0,NA
"7672896","うお青","東京都",1910021,35.669638,139.41921,"多摩都市モノレール線","万願寺駅",3,NA,NA,NA,0,NA
"5497381","ひなたや","東京都",1360074,35.674243,139.841063,"東京メトロ東西線","南砂町駅",18,NA,NA,NA,0,NA
"6070857","尾道ラーメン 麺一筋","東京都",1010061,35.699233,139.753378,"ＪＲ中央本線（東京-塩尻）","水道橋駅",1,NA,NA,NA,1,5
"7162196","どみそ 西新井店","東京都",1230843,35.776941,139.789571,"東武伊勢崎線","西新井駅",1,NA,NA,NA,2,NA
"5498789","ちりめん亭 金町店","東京都",1250041,35.769742,139.869434,"JR常磐線","金町（東京都）駅",2,NA,NA,NA,0,NA
"7736002","東京油組総本店 高円寺組","東京都",1660002,35.706309,139.649617,"JR中央本線（東京-塩尻）","高円寺駅",2,NA,NA,NA,0,NA
"5499136","らーめん らんぶる","東京都",1900012,35.700321,139.40884,"多摩都市モノレール線","立川北駅",5,NA,NA,NA,1,3
"7063652","肉そば家 練馬店","東京都",1760001,35.738573,139.654926,"西武有楽町線","練馬駅",1,NA,NA,NA,2,NA
"7714042","ラーメン酒場 早川亭 みやび","東京都",1740076,35.763379,139.675912,"東武東上線","上板橋駅",1,NA,NA,NA,0,NA
"7756281","中華そば 神寄 巣鴨地蔵通店","東京都",1700002,35.734703,139.736289,"都営三田線","巣鴨駅",2,NA,NA,NA,0,NA
"6270452","らーめん よし丸","東京都",1690075,35.711894,139.707339,"東京メトロ東西線","高田馬場駅",1,NA,NA,NA,1,5
"6183938","繁華亭","東京都",1640001,35.708482,139.666351,"東京メトロ東西線","中野（東京都）駅",4,NA,NA,NA,0,NA
"6736139","いさみ","東京都",1140001,35.762397,139.729891,"JR京浜東北線","東十条駅",3,NA,NA,NA,0,NA
"6963581","みくに屋","東京都",1970827,35.728014,139.28533,"JR五日市線","秋川駅",1,NA,NA,NA,0,NA
"7721736","麺 半蔵","東京都",1010051,35.696297,139.758264,"東京メトロ半蔵門線","神保町駅",1,NA,NA,NA,0,NA
"5497324","喜多方ラーメン 小法師 亀戸店","東京都",1360071,35.695527,139.824922,"JR総武本線（東京-銚子）","亀戸駅",4,NA,NA,NA,0,NA
"6183891","らーめんやさん","東京都",1970834,35.725533,139.269551,"JR五日市線","武蔵引田駅",7,NA,NA,NA,0,NA
"5498661","さつき","東京都",1230851,35.766071,139.796774,"東武伊勢崎線（東武スカイツリーライン）","梅島駅",10,NA,NA,NA,0,NA
"6742227","めん屋 平右衛門","東京都",1840011,35.700518,139.524778,"JR中央本線（東京-塩尻）","東小金井駅",1,NA,NA,NA,0,NA
"5497493","満腹ラーメン富田屋","東京都",1420064,35.606728,139.703877,"東急大井町線","旗の台駅",2,NA,NA,NA,0,NA
"5498868","としのや","東京都",1340091,35.684362,139.868888,"都営新宿線","船堀駅",6,NA,NA,NA,0,NA
"6356368","銀座 梵天","東京都",1040061,35.673477,139.768569,"東京メトロ有楽町線","銀座一丁目駅",1,NA,NA,NA,1,3
"e592803","北京ダック専門店 王朝","神奈川県",2310023,35.443842,139.647308,"みなとみらい線","元町・中華街駅",2,NA,NA,1200,8,3.375
"ggw6800","ebisu食堂 センター北店","神奈川県",2240003,35.551382,139.578234,"横浜市営地下鉄","センター北駅",3,NA,NA,1000,0,NA
"geef000","塩麺屋 錦太朗","神奈川県",2380011,35.277356,139.674786,"京急本線","横須賀中央駅",8,NA,NA,800,0,NA
"gfg1002","元祖ニュータンタンメン本舗 綱島店","神奈川県",2230053,35.536511,139.633732,"東急東横線","綱島駅",5,NA,NA,1000,0,NA
"p879913","しゃぶしゃぶ温野菜 京急川崎駅前店","神奈川県",2100007,35.531953,139.699432,"京急本線","京急川崎駅",1,NA,NA,3500,0,NA
"gg4d600","ラーメン山虎商店 白楽店","神奈川県",2210802,35.487299,139.625841,"東急東横線","白楽駅",3,NA,NA,1000,1,4.5
"p879914","しゃぶしゃぶ温野菜 センター北店","神奈川県",2240003,35.553411,139.577954,"横浜市営地下鉄","センター北駅",1,NA,NA,3000,0,NA
"p879919","しゃぶしゃぶ温野菜 横須賀モアーズシティ店","神奈川県",2380007,35.278044,139.670534,"京急本線","横須賀中央駅",1,NA,NA,3500,0,NA
"ganu906","かれー麺 実之和 湘南平塚店","神奈川県",2540025,35.3322,139.359748,"ＪＲ東海道本線","平塚駅",16,NA,NA,1000,0,NA
"ge3t400","串焼 ちゃぼ蔵","神奈川県",2210822,35.478496,139.632043,"ＪＲ","東神奈川駅",1,NA,NA,3500,0,NA
"gew9800","啜磨専科","神奈川県",2330002,35.404268,139.593725,"横浜市営地下鉄","上大岡駅",5,NA,NA,900,0,NA
"g670609","横浜ベイシェラトン ホテル＆タワーズ 中国料理 彩龍","神奈川県",2200004,35.466813,139.620154,"ＪＲ","横浜駅",1,NA,NA,8000,0,NA
"geg3634","アジアンビストロ Dai 日吉店","神奈川県",2230062,35.553331,139.645598,"東急東横線","日吉駅",2,NA,NA,3500,0,NA
"gfm2401","横浜家系ラーメン だるま家 逗子店","神奈川県",2490006,35.295359,139.577948,"ＪＲ横須賀線","逗子駅",3,NA,NA,800,0,NA
"g262208","焼肉本舗  ぴゅあ マルイ溝口店","神奈川県",2130001,35.599034,139.612906,"東急田園都市線","溝の口駅",3,NA,NA,4000,6,3
"e786905","串車力 武蔵小杉店","神奈川県",2110005,35.57792,139.660504,"ＪＲ南武線","武蔵小杉駅",3,NA,NA,2000,0,NA
"gbr3500","めん屋 生竜","神奈川県",2590124,35.294056,139.246803,"ＪＲ東海道本線","二宮駅",15,NA,NA,1200,8,3.33333333333333
"gfr9701","Dream タピオカ専門店","神奈川県",2380008,35.280874,139.669074,"京急本線","横須賀中央駅",2,NA,NA,500,0,NA
"genb700","麺処 懐や","神奈川県",2160004,35.579679,139.57169,"東急田園都市線","鷺沼駅",2,NA,NA,750,1,3.5
"gdv6155","ラーメン山岡家 相模原店","神奈川県",2520243,35.562947,139.346537,"ＪＲ相模線","上溝駅",NA,NA,7,800,3,4
"gfg1000","元祖ニュータンタンメン本舗 京町店","神奈川県",2100848,35.517292,139.695226,"ＪＲ南武線","川崎新町駅",6,NA,NA,1000,0,NA
"gfg1004","元祖ニュータンタンメン本舗 鶴見店","神奈川県",2300062,35.50947,139.676157,"ＪＲ","鶴見駅",2,NA,NA,1000,0,NA
"getw209","ゴル麺。 横浜本店","神奈川県",2200005,35.463894,139.615784,"横浜市営地下鉄","横浜駅",6,NA,NA,880,0,NA
"gbu5100","らぁ麺屋飯田商店","神奈川県",2590303,35.144636,139.109731,"ＪＲ東海道本線","湯河原駅",7,NA,NA,1100,4,4.375
"gfg1003","元祖ニュータンタンメン本舗 鷺沼店","神奈川県",2160004,35.578518,139.572684,"東急田園都市線","鷺沼駅",2,NA,NA,1000,0,NA
"p585800","松虎亭","神奈川県",2130001,35.600528,139.611144,"ＪＲ南武線","武蔵溝ノ口駅",1,NA,NA,750,0,NA
"gdv6154","ラーメン山岡家 厚木店","神奈川県",2430804,35.488321,139.364899,"ＪＲ相模線","相武台下駅",NA,NA,9,800,0,NA
"gf69600","無添加自家製麺 つじ道ラーメン","神奈川県",2510047,35.336556,139.448578,"ＪＲ東海道本線","辻堂駅",1,NA,NA,1000,0,NA
"g172011","西安健菜キッチン 茅ヶ崎ラスカ店","神奈川県",2530043,35.330502,139.405997,"ＪＲ東海道本線","茅ヶ崎駅",1,NA,NA,2500,0,NA
"gery901","伍代目哲麺縁 平塚金目店","神奈川県",2591213,35.359576,139.299922,"小田原厚木道路","平塚I.C.",NA,NA,5,850,0,NA
"e525114","Roto Brewery，麺や 天空","神奈川県",2330001,35.404524,139.5977,"横浜市営地下鉄","上大岡駅",6,NA,NA,1980,0,NA
"geu7600","煮干しそば 平八","神奈川県",2380011,35.277488,139.674432,"京急本線","横須賀中央駅",6,NA,NA,1000,0,NA
"gbh2900","ShiNaChiKu亭","神奈川県",2210825,35.476093,139.627578,"ＪＲ","東神奈川駅",10,NA,NA,900,3,3.33333333333333
"gd5u804","麺屋 銀星 海美風 海老名店","神奈川県",2430485,35.452711,139.395606,"小田急小田原線","海老名駅",6,NA,NA,1000,0,NA
"gfxn700","横濱家系ラーメン勝鬨家","神奈川県",2310033,35.438758,139.635594,"横浜市営地下鉄","伊勢佐木長者町駅",4,NA,NA,999,0,NA
"gdv6156","ラーメン山岡家 平塚店","神奈川県",2540018,35.35634,139.357252,"東名高速道路","厚木I.C.",NA,NA,15,800,0,NA
"gfg1005","元祖ニュータンタンメン本舗 横浜店","神奈川県",2200005,35.463136,139.616593,"ＪＲ","横浜駅",6,NA,NA,1000,0,NA
"g370003","担担麺・麻婆豆腐 匠 Jang","神奈川県",2200011,35.464537,139.623364,"ＪＲ","横浜駅",1,NA,NA,1100,0,NA
"7723640","まるは担々麺","神奈川県",2210002,35.492094,139.645427,"","",NA,NA,NA,800,0,NA
"6155289","久留米らーめん 鐡釜","神奈川県",2388533,35.278332,139.670067,"京急本線","横須賀中央駅",1,NA,NA,900,11,3.31818181818182
"6913347","飯処 たまはん","神奈川県",2540052,35.330314,139.334611,"ＪＲ東海道本線","平塚駅",NA,NA,5,2500,5,4.9
"7157696","想 〜SOU〜","神奈川県",2490006,35.29549,139.578163,"","",NA,NA,NA,3000,0,NA
"6416070","糟屋らーめん あかつき","神奈川県",2540903,35.335853,139.310194,"ＪＲ東海道本線","平塚駅",NA,NA,10,800,0,NA
"7367260","ラーメン暖暮 川崎仲見世通店","神奈川県",2100006,35.529392,139.69959,"京急本線","京急川崎駅",10,NA,NA,980,1,3
"7592237","TAMARI．BAR","神奈川県",2590303,35.144796,139.101667,"","",NA,NA,NA,1000,0,NA
"7268892","はっしょう","神奈川県",2220023,35.495581,139.632779,"","",NA,NA,NA,2500,3,4
"3120330","丸嶋","神奈川県",2580001,35.346626,139.139533,"小田急線","新松田駅",3,NA,NA,750,1,4.5
"7007940","中華そば うめや","神奈川県",2360042,35.342963,139.61955,"京急本線","金沢文庫駅",3,NA,NA,850,2,NA
"7336369","麺侍右京","神奈川県",2210825,35.474882,139.626424,"東急東横線","反町駅",1,NA,NA,750,0,NA
"6352753","らーめん 厨房 萬喜","神奈川県",2560816,35.269356,139.189138,"ＪＲ東海道本線","鴨宮駅",17,NA,NA,2000,0,NA
"7001789","ラーメン 泪橋","神奈川県",2130001,35.601258,139.613796,"東急田園都市線","溝の口駅",5,NA,NA,800,3,4
"6316574","虎のみそ","神奈川県",2100848,35.515702,139.694021,"JR南武線（浜川崎線）","川崎新町駅",7,NA,NA,850,0,NA
"7750106","東峰","神奈川県",2510012,35.340075,139.503382,"","",NA,NA,NA,1000,2,4.25
"5843187","とんぱた亭 新子安店","神奈川県",2210013,35.487239,139.653672,"ＪＲ京浜東北線","新子安駅",5,NA,NA,700,2,3
"7626809","パクチリ","神奈川県",2120053,35.551689,139.680567,"ＪＲ南武線","鹿島田駅",7,NA,NA,1000,1,3
"7711941","越後秘蔵麺 無尽蔵 ノースポート港北店","神奈川県",2240003,35.552098,139.579414,"横浜市営地下鉄グリーンライン","センター北駅",3,NA,NA,1000,0,NA
"7377126","一蘭 川崎店","神奈川県",2100006,35.53042,139.700263,"ＪＲ","川崎駅",4,NA,NA,800,5,3.3
"7512502","中華料理 珍味楼","神奈川県",2210822,35.486508,139.625816,"東急東横線","白楽駅",6,NA,NA,2000,0,NA
"6908106","つけめん桜の如く","神奈川県",2400004,35.453184,139.602584,"相模鉄道本線","天王町駅",1,NA,NA,900,2,NA
"7627375","ラーメン＆お祭りバル はなびや","神奈川県",2230065,35.548746,139.621213,"横浜市営地下鉄グリーンライン","高田駅",5,NA,NA,2500,0,NA
"7389071","ラーメンたんぽぽ","神奈川県",2520137,35.596598,139.320803,"","",NA,NA,NA,650,0,NA
"7077334","らーめん風々風","神奈川県",2300071,35.52538,139.647906,"東急東横線","大倉山駅",20,NA,NA,800,3,3
"7640100","蔵一（箱根仙石原ラーメン）","神奈川県",2500631,35.274416,139.009294,"東名高速道路","御殿場I.C.",NA,NA,15,790,0,NA
"7370923","平塚のLottaのラーメン部","神奈川県",2540047,35.336446,139.338794,"","",NA,NA,NA,750,0,NA
"7350442","徳島中華そば徳福 川崎店","神奈川県",2100007,35.530566,139.699597,"ＪＲ","川崎駅",2,NA,NA,950,0,NA
"6462671","丸新らぁめん","神奈川県",2370064,35.313934,139.625502,"","",NA,NA,NA,700,0,NA
"7359205","麺や庄の ラゾーナ川崎プラザ店","神奈川県",2120013,35.532856,139.69592,"JR","川崎駅",2,NA,NA,900,0,NA
"7359284","中華そば青葉 川崎アゼリア店","神奈川県",2100007,35.530223,139.697371,"ＪＲ","川崎駅",2,NA,NA,850,0,NA
"6951351","らーめん担々麺まえたん","神奈川県",2320056,35.423394,139.601744,"横浜市営地下鉄","弘明寺駅",1,NA,NA,800,2,NA
"7377120","一蘭 横浜西口店","神奈川県",2200005,35.464652,139.618621,"ＪＲ","横浜駅",5,NA,NA,800,2,3.5
"6429068","大岡家","神奈川県",2260003,35.510789,139.567455,"ＪＲ横浜線","鴨居駅",1,NA,NA,800,0,NA
"6423292","ラーメン 風林火山","神奈川県",2591122,35.394062,139.351508,"小田急小田原線","伊勢原駅",NA,NA,5,900,0,NA
"7314043","逗子家","神奈川県",2390807,35.249991,139.684266,"京急久里浜線","北久里浜駅",3,NA,NA,1000,0,NA
"7683746","湯河原ラーメン","神奈川県",2590303,35.144031,139.100311,"","",NA,NA,NA,800,0,NA
"7112889","ラーメン横浜家 岡野町店","神奈川県",2200073,35.463289,139.615538,"ＪＲ","横浜駅",5,NA,NA,650,1,4
"7492645","麺童 虎徹","神奈川県",2120055,35.543119,139.66101,"ＪＲ横須賀線","新川崎駅",NA,NA,15,800,0,NA
"7002514","札幌ラーメン山竹 本店","神奈川県",2500852,35.310534,139.142392,"小田急線","栢山駅",1,NA,NA,900,2,4.5
"7377107","一蘭 相模原店","神奈川県",2520344,35.549167,139.422676,"ＪＲ横浜線","古淵駅",12,NA,NA,800,4,3.25
"5500250","屯ちん 川崎店","神奈川県",2100007,35.5305,139.699951,"東海道本線","川崎駅",1,NA,NA,800,4,3.75
"6919159","札幌ラーメン めんくら","神奈川県",2570011,35.367689,139.225803,"小田急小田原線","秦野駅",3,NA,NA,750,4,3.25
"7656783","中華そば もり川","神奈川県",2110004,35.579888,139.66345,"","",NA,NA,NA,900,0,NA
"7360115","なんつッ亭","神奈川県",2100007,35.530917,139.697646,"ＪＲ","川崎駅",1,NA,NA,1000,7,3.14285714285714
"7732088","中華宴会 錦蘭 和田町","神奈川県",2400065,35.465366,139.587489,"相鉄本線","和田町駅",3,NA,NA,1200,0,NA
"7324969","ラーメン道楽 川崎店","神奈川県",2100021,35.522748,139.695779,"京急本線","八丁畷駅",5,NA,NA,1000,0,NA
"5034419","山の子","神奈川県",2390807,35.250232,139.685369,"京急本線","北久里浜駅",2,NA,NA,2500,0,NA
"7065215","そば丸","神奈川県",2450016,35.442461,139.485172,"","",NA,NA,NA,480,0,NA
"7377098","一蘭 横浜桜木町店","神奈川県",2310063,35.449482,139.630573,"ＪＲ根岸線","桜木町駅",2,NA,NA,800,12,3.33333333333333
"7360103","らぁめん 大山 アトレ川崎店","神奈川県",2100007,35.530917,139.697646,"ＪＲ","川崎駅",1,NA,NA,900,4,3.375
"6766876","本牧家","神奈川県",2380041,35.281849,139.663555,"京急本線","汐入駅",3,NA,NA,700,0,NA
"7372536","蒙古タンメン中本 川崎店","神奈川県",2100006,35.529724,139.700702,"京急本線","京急川崎駅",4,NA,NA,900,2,NA
"7148321","油そば専門店 ぶらぶら 横浜店","神奈川県",2200005,35.463587,139.616212,"ＪＲ","横浜駅",5,NA,NA,700,0,NA
"7269464","しあわせ中華そば食堂にこり","神奈川県",2590303,35.145692,139.108811,"ＪＲ東海道本線","湯河原駅",7,NA,NA,1500,0,NA
"7360110","中華そば いちや アトレ川崎店","神奈川県",2100007,35.530917,139.697646,"ＪＲ","川崎駅",1,NA,NA,800,2,2.75
"7171332","油そば専門店 ぶらぶら 平塚店","神奈川県",2540034,35.329464,139.351779,"ＪＲ東海道本線","平塚駅",3,NA,NA,700,5,4
"7544018","きたくり家 本店","神奈川県",2390807,35.250294,139.685786,"京急久里浜線","北久里浜駅",2,NA,NA,1000,0,NA
"7407165","雲呑房 川崎アゼリア店","神奈川県",2100007,35.530223,139.697371,"ＪＲ","川崎駅",2,NA,NA,1000,0,NA
"7544020","きたくり家 横須賀中央店","神奈川県",2380007,35.280315,139.67083,"京急本線","横須賀中央駅",4,NA,NA,1000,4,3.5
"7248353","めんや Bar クアトロ","神奈川県",2540815,35.323455,139.342628,"ＪＲ東海道本線","平塚駅",9,NA,NA,1000,0,NA
"7499578","札幌ラーメン 八雲","神奈川県",2420024,35.43551,139.461321,"","",NA,NA,NA,900,0,NA
"5401206","三好","神奈川県",2410824,35.454963,139.514453,"相鉄本線","希望ヶ丘駅",8,NA,NA,750,3,4.5
"6186794","麺一筋","神奈川県",2310063,35.449755,139.629548,"ＪＲ","桜木町駅",3,NA,NA,850,0,NA
"7318303","麺処 彩","神奈川県",2500311,35.232816,139.103591,"箱根登山鉄道鉄道線","箱根湯本駅",2,NA,NA,1500,2,3
"7360113","たんめん専門店 百菜","神奈川県",2100007,35.530917,139.697646,"ＪＲ","川崎駅",1,NA,NA,840,0,NA
"6933013","麺や　菊壱","神奈川県",2500631,35.271801,139.012118,"東名高速道路","御殿場I.C.",NA,NA,15,1000,0,NA
